$GPHDT,,T*1B
$GPGGA,053533.80,3010.98637845,N,12008.33964599,E,4,21,0.7,9.055,M,7.232,M,0.8,2589*76
$GPRMC,053533.80,A,3010.98637845,N,12008.33964599,E,0.04,54.78,181017,5.5,W,D,S*6F
$GPHDT,,T*1B
$GPGGA,053533.85,3010.98637891,N,12008.33964577,E,4,21,0.7,9.056,M,7.232,M,0.8,2589*79
$GPRMC,053533.85,A,3010.98637891,N,12008.33964577,E,0.07,300.77,181017,5.5,W,D,S*5D
$GPHDT,,T*1B
$GPGGA,053533.90,3010.98637892,N,12008.33964532,E,4,21,0.7,9.054,M,7.232,M,0.9,2589*7C
$GPRMC,053533.90,A,3010.98637892,N,12008.33964532,E,0.05,147.35,181017,5.5,W,D,S*5E
$GPHDT,,T*1B
$GPGGA,053533.95,3010.98637847,N,12008.33964588,E,4,21,0.7,9.056,M,7.232,M,0.9,2589*72
$GPRMC,053533.95,A,3010.98637847,N,12008.33964588,E,0.02,126.50,181017,5.5,W,D,S*51
$GPHDT,,T*1B
$GPGGA,053534.00,3010.98637862,N,12008.33964658,E,4,21,0.7,9.059,M,7.232,M,1.0,2589*77
$GPRMC,053534.00,A,3010.98637862,N,12008.33964658,E,0.06,50.09,181017,5.5,W,D,S*6B
$GPHDT,,T*1B
$GPGGA,053534.05,3010.98637846,N,12008.33964633,E,4,21,0.7,9.056,M,7.232,M,1.0,2589*76
$GPRMC,053534.05,A,3010.98637846,N,12008.33964633,E,0.08,205.25,181017,5.5,W,D,S*57
$GPHDT,,T*1B
$GPGGA,053534.10,3010.98637788,N,12008.33964650,E,4,21,0.7,9.056,M,7.232,M,1.1,2589*7B
$GPRMC,053534.10,A,3010.98637788,N,12008.33964650,E,0.05,115.61,181017,5.5,W,D,S*54
$GPHDT,,T*1B
$GPGGA,053534.15,3010.98637805,N,12008.33964669,E,4,21,0.7,9.056,M,7.232,M,1.1,2589*7E
$GPRMC,053534.15,A,3010.98637805,N,12008.33964669,E,0.04,342.99,181017,5.5,W,D,S*57
$GPHDT,,T*1B
$GPGGA,053534.20,3010.98637859,N,12008.33964696,E,4,21,0.7,9.058,M,7.232,M,1.2,2589*7C
$GPRMC,053534.20,A,3010.98637859,N,12008.33964696,E,0.06,39.60,181017,5.5,W,D,S*63
$GPHDT,,T*1B
$GPGGA,053534.25,3010.98637893,N,12008.33964693,E,4,21,0.7,9.056,M,7.232,M,1.2,2589*74
$GPRMC,053534.25,A,3010.98637893,N,12008.33964693,E,0.01,230.39,181017,5.5,W,D,S*55
$GPHDT,,T*1B
$GPGGA,053534.30,3010.98637827,N,12008.33964700,E,4,21,0.7,9.058,M,7.232,M,0.3,2589*7A
$GPRMC,053534.30,A,3010.98637827,N,12008.33964700,E,0.06,171.32,181017,5.5,W,D,S*5F
$GPHDT,,T*1B
$GPGGA,053534.35,3010.98637791,N,12008.33964656,E,4,21,0.7,9.056,M,7.232,M,0.3,2589*71
$GPRMC,053534.35,A,3010.98637791,N,12008.33964656,E,0.03,269.96,181017,5.5,W,D,S*5B
$GPHDT,,T*1B
$GPGGA,053534.40,3010.98637789,N,12008.33964681,E,4,21,0.7,9.058,M,7.232,M,0.4,2589*79
$GPRMC,053534.40,A,3010.98637789,N,12008.33964681,E,0.05,83.51,181017,5.5,W,D,S*61
$GPHDT,,T*1B
$GPGGA,053534.45,3010.98637799,N,12008.33964640,E,4,21,0.7,9.055,M,7.232,M,0.4,2589*7D
$GPRMC,053534.45,A,3010.98637799,N,12008.33964640,E,0.06,263.17,181017,5.5,W,D,S*55
$GPHDT,,T*1B
$GPGGA,053534.50,3010.98637764,N,12008.33964632,E,4,21,0.7,9.056,M,7.232,M,0.5,2589*7C
$GPRMC,053534.50,A,3010.98637764,N,12008.33964632,E,0.03,142.39,181017,5.5,W,D,S*5F
$GPHDT,,T*1B
$GPGGA,053534.55,3010.98637760,N,12008.33964664,E,4,21,0.7,9.056,M,7.232,M,0.5,2589*7E
$GPRMC,053534.55,A,3010.98637760,N,12008.33964664,E,0.03,61.91,181017,5.5,W,D,S*6F
$GPHDT,,T*1B
$GPGGA,053534.60,3010.98637770,N,12008.33964614,E,4,21,0.7,9.055,M,7.232,M,0.6,2589*7E
$GPRMC,053534.60,A,3010.98637770,N,12008.33964614,E,0.06,261.47,181017,5.5,W,D,S*53
$GPHDT,,T*1B
$GPGGA,053534.65,3010.98637756,N,12008.33964576,E,4,21,0.7,9.055,M,7.232,M,0.6,2589*78
$GPRMC,053534.65,A,3010.98637756,N,12008.33964576,E,0.01,251.14,181017,5.5,W,D,S*57
$GPHDT,,T*1B
$GPGGA,053534.70,3010.98637811,N,12008.33964576,E,4,21,0.7,9.056,M,7.232,M,0.7,2589*72
$GPRMC,053534.70,A,3010.98637811,N,12008.33964576,E,0.08,6.43,181017,5.5,W,D,S*54
$GPHDT,,T*1B
$GPGGA,053534.75,3010.98637842,N,12008.33964585,E,4,21,0.7,9.055,M,7.232,M,0.7,2589*7E
$GPRMC,053534.75,A,3010.98637842,N,12008.33964585,E,0.04,178.74,181017,5.5,W,D,S*5B
$GPHDT,,T*1B
$GPGGA,053534.80,3010.98637827,N,12008.33964639,E,4,21,0.7,9.055,M,7.232,M,0.8,2589*7C
$GPRMC,053534.80,A,3010.98637827,N,12008.33964639,E,0.05,77.91,181017,5.5,W,D,S*62
$GPHDT,,T*1B
$GPGGA,053534.85,3010.98637827,N,12008.33964649,E,4,21,0.7,9.055,M,7.232,M,0.8,2589*7E
$GPRMC,053534.85,A,3010.98637827,N,12008.33964649,E,0.03,252.91,181017,5.5,W,D,S*53
$GPHDT,,T*1B
$GPGGA,053534.90,3010.98637768,N,12008.33964603,E,4,21,0.7,9.054,M,7.232,M,0.9,2589*70
$GPRMC,053534.90,A,3010.98637768,N,12008.33964603,E,0.08,193.21,181017,5.5,W,D,S*53
$GPHDT,,T*1B
$GPGGA,053534.95,3010.98637830,N,12008.33964576,E,4,21,0.7,9.051,M,7.232,M,0.9,2589*73
$GPRMC,053534.95,A,3010.98637830,N,12008.33964576,E,0.13,353.89,181017,5.5,W,D,S*53
$GPHDT,,T*1B
$GPGGA,053535.00,3010.98637885,N,12008.33964596,E,4,21,0.7,9.053,M,7.232,M,1.0,2589*74
$GPRMC,053535.00,A,3010.98637885,N,12008.33964596,E,0.02,132.90,181017,5.5,W,D,S*53
$GPHDT,,T*1B
$GPGGA,053535.05,3010.98637856,N,12008.33964599,E,4,21,0.7,9.051,M,7.232,M,1.0,2589*72
$GPRMC,053535.05,A,3010.98637856,N,12008.33964599,E,0.02,151.13,181017,5.5,W,D,S*59
$GPHDT,,T*1B
$GPGGA,053535.10,3010.98637855,N,12008.33964581,E,4,21,0.7,9.052,M,7.232,M,1.1,2589*7E
$GPRMC,053535.10,A,3010.98637855,N,12008.33964581,E,0.05,299.52,181017,5.5,W,D,S*52
$GPHDT,,T*1B
$GPGGA,053535.15,3010.98637881,N,12008.33964615,E,4,21,0.7,9.052,M,7.232,M,1.1,2589*7C
$GPRMC,053535.15,A,3010.98637881,N,12008.33964615,E,0.07,71.16,181017,5.5,W,D,S*66
$GPHDT,,T*1B
$GPGGA,053535.20,3010.98637863,N,12008.33964627,E,4,21,0.7,9.050,M,7.232,M,1.2,2589*76
$GPRMC,053535.20,A,3010.98637863,N,12008.33964627,E,0.06,211.23,181017,5.5,W,D,S*5E
$GPHDT,,T*1B
$GPGGA,053535.25,3010.98637847,N,12008.33964609,E,4,21,0.7,9.051,M,7.232,M,1.2,2589*78
$GPRMC,053535.25,A,3010.98637847,N,12008.33964609,E,0.03,343.68,181017,5.5,W,D,S*5D
$GPHDT,,T*1B
$GPGGA,053535.30,3010.98637865,N,12008.33964668,E,4,21,0.7,9.055,M,7.232,M,0.3,2589*7F
$GPRMC,053535.30,A,3010.98637865,N,12008.33964668,E,0.06,82.03,181017,5.5,W,D,S*68
$GPHDT,,T*1B
$GPGGA,053535.35,3010.98637840,N,12008.33964616,E,4,21,0.7,9.054,M,7.232,M,0.3,2589*75
$GPRMC,053535.35,A,3010.98637840,N,12008.33964616,E,0.11,247.57,181017,5.5,W,D,S*5F
$GPHDT,,T*1B
$GPGGA,053535.40,3010.98637806,N,12008.33964605,E,4,21,0.7,9.055,M,7.232,M,0.4,2589*71
$GPRMC,053535.40,A,3010.98637806,N,12008.33964605,E,0.08,98.19,181017,5.5,W,D,S*6F
$GPHDT,,T*1B
$GPGGA,053535.45,3010.98637809,N,12008.33964652,E,4,21,0.7,9.053,M,7.232,M,0.4,2589*7F
$GPRMC,053535.45,A,3010.98637809,N,12008.33964652,E,0.01,7.90,181017,5.5,W,D,S*59
$GPHDT,,T*1B
$GPGGA,053535.50,3010.98637811,N,12008.33964659,E,4,21,0.7,9.054,M,7.232,M,0.5,2589*7F
$GPRMC,053535.50,A,3010.98637811,N,12008.33964659,E,0.01,105.21,181017,5.5,W,D,S*56
$GPHDT,,T*1B
$GPGGA,053535.55,3010.98637858,N,12008.33964596,E,4,21,0.7,9.053,M,7.232,M,0.5,2589*70
$GPRMC,053535.55,A,3010.98637858,N,12008.33964596,E,0.11,305.83,181017,5.5,W,D,S*55
$GPHDT,,T*1B
$GPGGA,053535.60,3010.98637869,N,12008.33964539,E,4,21,0.7,9.054,M,7.232,M,0.6,2589*75
$GPRMC,053535.60,A,3010.98637869,N,12008.33964539,E,0.03,182.83,181017,5.5,W,D,S*5A
$GPHDT,,T*1B
$GPGGA,053535.65,3010.98637854,N,12008.33964561,E,4,21,0.7,9.054,M,7.232,M,0.6,2589*73
$GPRMC,053535.65,A,3010.98637854,N,12008.33964561,E,0.03,54.43,181017,5.5,W,D,S*6A
$GPHDT,,T*1B
$GPGGA,053535.70,3010.98637808,N,12008.33964555,E,4,21,0.7,9.053,M,7.232,M,0.7,2589*7F
$GPRMC,053535.70,A,3010.98637808,N,12008.33964555,E,0.07,197.26,181017,5.5,W,D,S*59
$GPHDT,,T*1B
$GPGGA,053535.75,3010.98637817,N,12008.33964545,E,4,21,0.7,9.053,M,7.232,M,0.7,2589*75
$GPRMC,053535.75,A,3010.98637817,N,12008.33964545,E,0.07,2.59,181017,5.5,W,D,S*56
$GPHDT,,T*1B
$GPGGA,053535.80,3010.98637841,N,12008.33964596,E,4,21,0.7,9.054,M,7.232,M,0.8,2589*7A
$GPRMC,053535.80,A,3010.98637841,N,12008.33964596,E,0.05,116.50,181017,5.5,W,D,S*5E
$GPHDT,,T*1B
$GPGGA,053535.85,3010.98637853,N,12008.33964645,E,4,21,0.7,9.054,M,7.232,M,0.8,2589*71
$GPRMC,053535.85,A,3010.98637853,N,12008.33964645,E,0.04,31.30,181017,5.5,W,D,S*66
$GPHDT,,T*1B
$GPGGA,053535.90,3010.98637880,N,12008.33964609,E,4,21,0.7,9.053,M,7.232,M,0.9,2589*75
$GPRMC,053535.90,A,3010.98637880,N,12008.33964609,E,0.07,276.57,181017,5.5,W,D,S*57
$GPHDT,,T*1B
$GPGGA,053535.95,3010.98637878,N,12008.33964614,E,4,21,0.7,9.056,M,7.232,M,0.9,2589*7E
$GPRMC,053535.95,A,3010.98637878,N,12008.33964614,E,0.04,91.56,181017,5.5,W,D,S*60
$GPHDT,,T*1B
$GPGGA,053536.00,3010.98637844,N,12008.33964620,E,4,21,0.7,9.055,M,7.232,M,1.0,2589*72
$GPRMC,053536.00,A,3010.98637844,N,12008.33964620,E,0.05,210.89,181017,5.5,W,D,S*5F
$GPHDT,,T*1B
$GPGGA,053536.05,3010.98637810,N,12008.33964595,E,4,21,0.7,9.055,M,7.232,M,1.0,2589*7B
$GPRMC,053536.05,A,3010.98637810,N,12008.33964595,E,0.01,213.20,181017,5.5,W,D,S*52
$GPHDT,,T*1B
$GPGGA,053536.10,3010.98637837,N,12008.33964563,E,4,21,0.7,9.056,M,7.232,M,1.1,2589*71
$GPRMC,053536.10,A,3010.98637837,N,12008.33964563,E,0.05,315.40,181017,5.5,W,D,S*5F
$GPHDT,,T*1B
$GPGGA,053536.15,3010.98637849,N,12008.33964602,E,4,21,0.7,9.058,M,7.232,M,1.1,2589*77
$GPRMC,053536.15,A,3010.98637849,N,12008.33964602,E,0.06,102.78,181017,5.5,W,D,S*5B
$GPHDT,,T*1B
$GPGGA,053536.20,3010.98637869,N,12008.33964637,E,4,21,0.7,9.056,M,7.232,M,1.2,2589*78
$GPRMC,053536.20,A,3010.98637869,N,12008.33964637,E,0.03,348.07,181017,5.5,W,D,S*58
$GPHDT,,T*1B
$GPGGA,053536.25,3010.98637899,N,12008.33964657,E,4,21,0.7,9.057,M,7.232,M,1.2,2589*75
$GPRMC,053536.25,A,3010.98637899,N,12008.33964657,E,0.02,5.03,181017,5.5,W,D,S*5B
$GPHDT,,T*1B
$GPGGA,053536.30,3010.98637914,N,12008.33964611,E,4,21,0.7,9.056,M,7.232,M,0.3,2589*76
$GPRMC,053536.30,A,3010.98637914,N,12008.33964611,E,0.05,273.42,181017,5.5,W,D,S*58
$GPHDT,,T*1B
$GPGGA,053536.35,3010.98637913,N,12008.33964574,E,4,21,0.7,9.057,M,7.232,M,0.3,2589*75
$GPRMC,053536.35,A,3010.98637913,N,12008.33964574,E,0.01,338.65,181017,5.5,W,D,S*55
$GPHDT,,T*1B
$GPGGA,053536.40,3010.98637912,N,12008.33964502,E,4,20,0.7,9.053,M,7.232,M,0.4,2589*75
$GPRMC,053536.40,A,3010.98637912,N,12008.33964502,E,0.06,259.50,181017,5.5,W,D,S*50
$GPHDT,,T*1B
$GPGGA,053536.45,3010.98637916,N,12008.33964493,E,4,20,0.7,9.052,M,7.232,M,0.4,2589*7C
$GPRMC,053536.45,A,3010.98637916,N,12008.33964493,E,0.05,61.76,181017,5.5,W,D,S*66
$GPHDT,,T*1B
$GPGGA,053536.50,3010.98637912,N,12008.33964542,E,4,20,0.7,9.053,M,7.232,M,0.5,2589*71
$GPRMC,053536.50,A,3010.98637912,N,12008.33964542,E,0.01,143.62,181017,5.5,W,D,S*5B
$GPHDT,,T*1B
$GPGGA,053536.55,3010.98637935,N,12008.33964538,E,4,20,0.7,9.051,M,7.232,M,0.5,2589*7E
$GPRMC,053536.55,A,3010.98637935,N,12008.33964538,E,0.04,5.92,181017,5.5,W,D,S*5F
$GPHDT,,T*1B
$GPGGA,053536.60,3010.98637961,N,12008.33964515,E,4,20,0.7,9.050,M,7.232,M,0.6,2589*74
$GPRMC,053536.60,A,3010.98637961,N,12008.33964515,E,0.04,301.89,181017,5.5,W,D,S*5A
$GPHDT,,T*1B
$GPGGA,053536.65,3010.98637964,N,12008.33964508,E,4,20,0.7,9.050,M,7.232,M,0.6,2589*78
$GPRMC,053536.65,A,3010.98637964,N,12008.33964508,E,0.01,21.39,181017,5.5,W,D,S*69
$GPHDT,,T*1B
$GPGGA,053536.70,3010.98637992,N,12008.33964470,E,4,20,0.7,9.049,M,7.232,M,0.7,2589*72
$GPRMC,053536.70,A,3010.98637992,N,12008.33964470,E,0.06,312.38,181017,5.5,W,D,S*5F
$GPHDT,,T*1B
$GPGGA,053536.75,3010.98637980,N,12008.33964476,E,4,20,0.7,9.053,M,7.232,M,0.7,2589*79
$GPRMC,053536.75,A,3010.98637980,N,12008.33964476,E,0.03,137.63,181017,5.5,W,D,S*51
$GPHDT,,T*1B
$GPGGA,053536.80,3010.98637962,N,12008.33964442,E,4,20,0.7,9.049,M,7.232,M,0.8,2589*7C
$GPRMC,053536.80,A,3010.98637962,N,12008.33964442,E,0.04,272.79,181017,5.5,W,D,S*5E
$GPHDT,,T*1B
$GPGGA,053536.85,3010.98637958,N,12008.33964452,E,4,20,0.7,9.051,M,7.232,M,0.8,2589*78
$GPRMC,053536.85,A,3010.98637958,N,12008.33964452,E,0.03,56.20,181017,5.5,W,D,S*6C
$GPHDT,,T*1B
$GPGGA,053536.90,3010.98637995,N,12008.33964450,E,4,20,0.7,9.048,M,7.232,M,0.9,2589*76
$GPRMC,053536.90,A,3010.98637995,N,12008.33964450,E,0.04,329.29,181017,5.5,W,D,S*5E
$GPHDT,,T*1B
$GPGGA,053536.95,3010.98637969,N,12008.33964502,E,4,20,0.7,9.051,M,7.232,M,0.9,2589*7E
$GPRMC,053536.95,A,3010.98637969,N,12008.33964502,E,0.05,116.82,181017,5.5,W,D,S*50
$GPHDT,,T*1B
$GPGGA,053537.00,3010.98637937,N,12008.33964485,E,4,20,0.7,9.049,M,7.232,M,1.0,2589*77
$GPRMC,053537.00,A,3010.98637937,N,12008.33964485,E,0.06,253.97,181017,5.5,W,D,S*5D
$GPHDT,,T*1B
$GPGGA,053537.05,3010.98637901,N,12008.33964431,E,4,20,0.7,9.048,M,7.232,M,1.0,2589*79
$GPRMC,053537.05,A,3010.98637901,N,12008.33964431,E,0.02,234.81,181017,5.5,W,D,S*50
$GPHDT,,T*1B
$GPGGA,053537.10,3010.98637847,N,12008.33964476,E,4,20,0.7,9.050,M,7.232,M,1.1,2589*75
$GPRMC,053537.10,A,3010.98637847,N,12008.33964476,E,0.05,111.99,181017,5.5,W,D,S*5E
$GPHDT,,T*1B
$GPGGA,053537.15,3010.98637862,N,12008.33964488,E,4,20,0.7,9.049,M,7.232,M,1.1,2589*7E
$GPRMC,053537.15,A,3010.98637862,N,12008.33964488,E,0.05,327.92,181017,5.5,W,D,S*51
$GPHDT,,T*1B
$GPGGA,053537.20,3010.98637878,N,12008.33964472,E,4,20,0.7,9.049,M,7.232,M,1.2,2589*75
$GPRMC,053537.20,A,3010.98637878,N,12008.33964472,E,0.02,157.20,181017,5.5,W,D,S*52
$GPHDT,,T*1B
$GPGGA,053537.25,3010.98637851,N,12008.33964515,E,4,20,0.7,9.048,M,7.232,M,1.2,2589*7A
$GPRMC,053537.25,A,3010.98637851,N,12008.33964515,E,0.03,98.13,181017,5.5,W,D,S*6F
$GPHDT,,T*1B
$GPGGA,053537.30,3010.98637801,N,12008.33964515,E,4,20,0.7,9.047,M,7.232,M,0.3,2589*74
$GPRMC,053537.30,A,3010.98637801,N,12008.33964515,E,0.05,212.93,181017,5.5,W,D,S*50
$GPHDT,,T*1B
$GPGGA,053537.35,3010.98637770,N,12008.33964517,E,4,20,0.7,9.047,M,7.232,M,0.3,2589*7A
$GPRMC,053537.35,A,3010.98637770,N,12008.33964517,E,0.03,45.13,181017,5.5,W,D,S*60
$GPHDT,,T*1B
$GPGGA,053537.40,3010.98637799,N,12008.33964559,E,4,20,0.7,9.049,M,7.232,M,0.4,2589*7C
$GPRMC,053537.40,A,3010.98637799,N,12008.33964559,E,0.05,23.00,181017,5.5,W,D,S*6B
$GPHDT,,T*1B
$GPGGA,053537.45,3010.98637841,N,12008.33964553,E,4,20,0.7,9.050,M,7.232,M,0.4,2589*71
$GPRMC,053537.45,A,3010.98637841,N,12008.33964553,E,0.04,319.24,181017,5.5,W,D,S*53
$GPHDT,,T*1B
$GPGGA,053537.50,3010.98637806,N,12008.33964525,E,4,20,0.7,9.049,M,7.232,M,0.5,2589*7E
$GPRMC,053537.50,A,3010.98637806,N,12008.33964525,E,0.05,182.13,181017,5.5,W,D,S*50
$GPHDT,,T*1B
$GPGGA,053537.55,3010.98637814,N,12008.33964503,E,4,20,0.7,9.049,M,7.232,M,0.5,2589*7C
$GPRMC,053537.55,A,3010.98637814,N,12008.33964503,E,0.08,328.37,181017,5.5,W,D,S*5B
$GPHDT,,T*1B
$GPGGA,053537.60,3010.98637808,N,12008.33964511,E,4,20,0.7,9.051,M,7.232,M,0.6,2589*7E
$GPRMC,053537.60,A,3010.98637808,N,12008.33964511,E,0.06,156.86,181017,5.5,W,D,S*5C
$GPHDT,,T*1B
$GPGGA,053537.65,3010.98637741,N,12008.33964557,E,4,20,0.7,9.051,M,7.232,M,0.6,2589*7B
$GPRMC,053537.65,A,3010.98637741,N,12008.33964557,E,0.04,137.42,181017,5.5,W,D,S*54
$GPHDT,,T*1B
$GPGGA,053537.70,3010.98637738,N,12008.33964530,E,4,20,0.7,9.052,M,7.232,M,0.7,2589*72
$GPRMC,053537.70,A,3010.98637738,N,12008.33964530,E,0.07,284.70,181017,5.5,W,D,S*56
$GPHDT,,T*1B
$GPGGA,053537.75,3010.98637812,N,12008.33964457,E,4,20,0.7,9.050,M,7.232,M,0.7,2589*72
$GPRMC,053537.75,A,3010.98637812,N,12008.33964457,E,0.07,339.00,181017,5.5,W,D,S*54
$GPHDT,,T*1B
$GPGGA,053537.80,3010.98637798,N,12008.33964525,E,4,20,0.7,9.052,M,7.232,M,0.8,2589*7C
$GPRMC,053537.80,A,3010.98637798,N,12008.33964525,E,0.10,131.46,181017,5.5,W,D,S*59
$GPHDT,,T*1B
$GPGGA,053537.85,3010.98637746,N,12008.33964546,E,4,20,0.7,9.051,M,7.232,M,0.8,2589*7C
$GPRMC,053537.85,A,3010.98637746,N,12008.33964546,E,0.05,260.41,181017,5.5,W,D,S*5E
$GPHDT,,T*1B
$GPGGA,053537.90,3010.98637772,N,12008.33964498,E,4,20,0.7,9.051,M,7.232,M,0.9,2589*7C
$GPRMC,053537.90,A,3010.98637772,N,12008.33964498,E,0.05,340.41,181017,5.5,W,D,S*5C
$GPHDT,,T*1B
$GPGGA,053537.95,3010.98637867,N,12008.33964474,E,4,20,0.7,9.051,M,7.232,M,0.9,2589*70
$GPRMC,053537.95,A,3010.98637867,N,12008.33964474,E,0.10,342.10,181017,5.5,W,D,S*52
$GPHDT,,T*1B
$GPGGA,053538.00,3010.98637857,N,12008.33964478,E,4,20,0.7,9.052,M,7.232,M,1.0,2589*77
$GPRMC,053538.00,A,3010.98637857,N,12008.33964478,E,0.08,163.12,181017,5.5,W,D,S*54
$GPHDT,,T*1B
$GPGGA,053538.05,3010.98637850,N,12008.33964487,E,4,20,0.7,9.050,M,7.232,M,1.0,2589*77
$GPRMC,053538.05,A,3010.98637850,N,12008.33964487,E,0.06,342.18,181017,5.5,W,D,S*53
$GPHDT,,T*1B
$GPGGA,053538.10,3010.98637854,N,12008.33964504,E,4,20,0.7,9.051,M,7.232,M,1.1,2589*7D
$GPRMC,053538.10,A,3010.98637854,N,12008.33964504,E,0.02,172.04,181017,5.5,W,D,S*51
$GPHDT,,T*1B
$GPGGA,053538.15,3010.98637834,N,12008.33964519,E,4,20,0.7,9.052,M,7.232,M,1.1,2589*71
$GPRMC,053538.15,A,3010.98637834,N,12008.33964519,E,0.00,330.99,181017,5.5,W,D,S*5C
$GPHDT,,T*1B
$GPGGA,053538.20,3010.98637852,N,12008.33964514,E,4,20,0.7,9.052,M,7.232,M,1.2,2589*79
$GPRMC,053538.20,A,3010.98637852,N,12008.33964514,E,0.03,348.18,181017,5.5,W,D,S*52
$GPHDT,,T*1B
$GPGGA,053538.25,3010.98637889,N,12008.33964517,E,4,20,0.7,9.052,M,7.232,M,1.2,2589*79
$GPRMC,053538.25,A,3010.98637889,N,12008.33964517,E,0.04,356.98,181017,5.5,W,D,S*52
$GPHDT,,T*1B
$GPGGA,053538.30,3010.98637920,N,12008.33964485,E,4,20,0.7,9.051,M,7.232,M,0.3,2589*76
$GPRMC,053538.30,A,3010.98637920,N,12008.33964485,E,0.04,240.16,181017,5.5,W,D,S*5E
$GPHDT,,T*1B
$GPGGA,053538.35,3010.98637860,N,12008.33964488,E,4,20,0.7,9.054,M,7.232,M,0.3,2589*7E
$GPRMC,053538.35,A,3010.98637860,N,12008.33964488,E,0.06,166.31,181017,5.5,W,D,S*53
$GPHDT,,T*1B
$GPGGA,053538.40,3010.98637844,N,12008.33964472,E,4,20,0.7,9.053,M,7.232,M,0.4,2589*7F
$GPRMC,053538.40,A,3010.98637844,N,12008.33964472,E,0.04,282.69,181017,5.5,W,D,S*54
$GPHDT,,T*1B
$GPGGA,053538.45,3010.98637824,N,12008.33964445,E,4,20,0.7,9.053,M,7.232,M,0.4,2589*78
$GPRMC,053538.45,A,3010.98637824,N,12008.33964445,E,0.05,176.51,181017,5.5,W,D,S*51
$GPHDT,,T*1B
$GPGGA,053538.50,3010.98637806,N,12008.33964417,E,4,20,0.7,9.052,M,7.232,M,0.5,2589*7B
$GPRMC,053538.50,A,3010.98637806,N,12008.33964417,E,0.03,286.08,181017,5.5,W,D,S*54
$GPHDT,,T*1B
$GPGGA,053538.55,3010.98637820,N,12008.33964396,E,4,20,0.7,9.051,M,7.232,M,0.5,2589*77
$GPRMC,053538.55,A,3010.98637820,N,12008.33964396,E,0.01,166.63,181017,5.5,W,D,S*59
$GPHDT,,T*1B
$GPGGA,053538.60,3010.98637847,N,12008.33964386,E,4,20,0.7,9.052,M,7.232,M,0.6,2589*71
$GPRMC,053538.60,A,3010.98637847,N,12008.33964386,E,0.05,324.17,181017,5.5,W,D,S*5C
$GPHDT,,T*1B
$GPGGA,053538.65,3010.98637886,N,12008.33964411,E,4,20,0.7,9.051,M,7.232,M,0.6,2589*73
$GPRMC,053538.65,A,3010.98637886,N,12008.33964411,E,0.04,95.07,181017,5.5,W,D,S*64
$GPHDT,,T*1B
$GPGGA,053538.70,3010.98637901,N,12008.33964423,E,4,20,0.7,9.049,M,7.232,M,0.7,2589*70
$GPRMC,053538.70,A,3010.98637901,N,12008.33964423,E,0.03,285.94,181017,5.5,W,D,S*51
$GPHDT,,T*1B
$GPGGA,053538.75,3010.98637872,N,12008.33964413,E,4,20,0.7,9.052,M,7.232,M,0.7,2589*79
$GPRMC,053538.75,A,3010.98637872,N,12008.33964413,E,0.04,200.87,181017,5.5,W,D,S*5A
$GPHDT,,T*1B
$GPGGA,053538.80,3010.98637900,N,12008.33964418,E,4,20,0.7,9.049,M,7.232,M,0.8,2589*79
$GPRMC,053538.80,A,3010.98637900,N,12008.33964418,E,0.05,23.10,181017,5.5,W,D,S*63
$GPHDT,,T*1B
$GPGGA,053538.85,3010.98637960,N,12008.33964477,E,4,20,0.7,9.052,M,7.232,M,0.8,2589*79
$GPRMC,053538.85,A,3010.98637960,N,12008.33964477,E,0.04,33.17,181017,5.5,W,D,S*6E
$GPHDT,,T*1B
$GPGGA,053538.90,3010.98637943,N,12008.33964511,E,4,20,0.7,9.052,M,7.232,M,0.9,2589*7C
$GPRMC,053538.90,A,3010.98637943,N,12008.33964511,E,0.05,153.72,181017,5.5,W,D,S*5F
$GPHDT,,T*1B
$GPGGA,053538.95,3010.98637907,N,12008.33964486,E,4,20,0.7,9.052,M,7.232,M,0.9,2589*76
$GPRMC,053538.95,A,3010.98637907,N,12008.33964486,E,0.04,250.59,181017,5.5,W,D,S*5D
$GPHDT,,T*1B
$GPGGA,053539.00,3010.98637954,N,12008.33964516,E,4,20,0.7,9.052,M,7.232,M,1.0,2589*7D
$GPRMC,053539.00,A,3010.98637954,N,12008.33964516,E,0.10,49.08,181017,5.5,W,D,S*65
$GPHDT,,T*1B
$GPGGA,053539.05,3010.98637969,N,12008.33964538,E,4,20,0.7,9.051,M,7.232,M,1.0,2589*79
$GPRMC,053539.05,A,3010.98637969,N,12008.33964538,E,0.05,237.10,181017,5.5,W,D,S*54
$GPHDT,,T*1B
$GPGGA,053539.10,3010.98637880,N,12008.33964554,E,4,20,0.7,9.054,M,7.232,M,1.1,2589*75
$GPRMC,053539.10,A,3010.98637880,N,12008.33964554,E,0.09,155.13,181017,5.5,W,D,S*54
$GPHDT,,T*1B
$GPGGA,053539.15,3010.98637910,N,12008.33964599,E,4,20,0.7,9.053,M,7.232,M,1.1,2589*7E
$GPRMC,053539.15,A,3010.98637910,N,12008.33964599,E,0.10,16.50,181017,5.5,W,D,S*61
$GPHDT,,T*1B
$GPGGA,053539.20,3010.98637934,N,12008.33964644,E,4,20,0.7,9.053,M,7.232,M,1.2,2589*7E
$GPRMC,053539.20,A,3010.98637934,N,12008.33964644,E,0.05,150.28,181017,5.5,W,D,S*5A
$GPHDT,,T*1B
$GPGGA,053539.25,3010.98637905,N,12008.33964664,E,4,20,0.7,9.055,M,7.232,M,1.2,2589*7D
$GPRMC,053539.25,A,3010.98637905,N,12008.33964664,E,0.02,357.26,181017,5.5,W,D,S*53
$GPHDT,,T*1B
$GPGGA,053539.30,3010.98637877,N,12008.33964707,E,4,20,0.7,9.056,M,7.232,M,0.3,2589*7A
$GPRMC,053539.30,A,3010.98637877,N,12008.33964707,E,0.07,99.35,181017,5.5,W,D,S*61
$GPHDT,,T*1B
$GPGGA,053539.35,3010.98637848,N,12008.33964706,E,4,20,0.7,9.056,M,7.232,M,0.3,2589*72
$GPRMC,053539.35,A,3010.98637848,N,12008.33964706,E,0.05,260.56,181017,5.5,W,D,S*5A
$GPHDT,,T*1B
$GPGGA,053539.40,3010.98637837,N,12008.33964687,E,4,20,0.7,9.057,M,7.232,M,0.4,2589*76
$GPRMC,053539.40,A,3010.98637837,N,12008.33964687,E,0.03,40.41,181017,5.5,W,D,S*68
$GPHDT,,T*1B
$GPGGA,053539.45,3010.98637900,N,12008.33964641,E,4,20,0.7,9.053,M,7.232,M,0.4,2589*78
$GPRMC,053539.45,A,3010.98637900,N,12008.33964641,E,0.08,338.72,181017,5.5,W,D,S*55
$GPHDT,,T*1B
$GPGGA,053539.50,3010.98637892,N,12008.33964646,E,4,20,0.7,9.055,M,7.232,M,0.5,2589*76
$GPRMC,053539.50,A,3010.98637892,N,12008.33964646,E,0.05,130.74,181017,5.5,W,D,S*5D
$GPHDT,,T*1B
$GPGGA,053539.55,3010.98637885,N,12008.33964663,E,4,20,0.7,9.055,M,7.232,M,0.5,2589*72
$GPRMC,053539.55,A,3010.98637885,N,12008.33964663,E,0.05,349.80,181017,5.5,W,D,S*5E
$GPHDT,,T*1B
$GPGGA,053539.60,3010.98637885,N,12008.33964628,E,4,20,0.7,9.056,M,7.232,M,0.6,2589*7B
$GPRMC,053539.60,A,3010.98637885,N,12008.33964628,E,0.04,234.82,181017,5.5,W,D,S*5F
$GPHDT,,T*1B
$GPGGA,053539.65,3010.98637856,N,12008.33964648,E,4,20,0.7,9.056,M,7.232,M,0.6,2589*76
$GPRMC,053539.65,A,3010.98637856,N,12008.33964648,E,0.06,84.03,181017,5.5,W,D,S*60
$GPHDT,,T*1B
$GPGGA,053539.70,3010.98637852,N,12008.33964688,E,4,20,0.7,9.055,M,7.232,M,0.7,2589*78
$GPRMC,053539.70,A,3010.98637852,N,12008.33964688,E,0.01,78.73,181017,5.5,W,D,S*6F
$GPHDT,,T*1B
$GPGGA,053539.75,3010.98637798,N,12008.33964665,E,4,20,0.7,9.052,M,7.232,M,0.7,2589*70
$GPRMC,053539.75,A,3010.98637798,N,12008.33964665,E,0.05,180.66,181017,5.5,W,D,S*56
$GPHDT,,T*1B
$GPGGA,053539.80,3010.98637774,N,12008.33964663,E,4,20,0.7,9.052,M,7.232,M,0.8,2589*71
$GPRMC,053539.80,A,3010.98637774,N,12008.33964663,E,0.03,346.30,181017,5.5,W,D,S*55
$GPHDT,,T*1B
$GPGGA,053539.85,3010.98637768,N,12008.33964644,E,4,20,0.7,9.053,M,7.232,M,0.8,2589*7D
$GPRMC,053539.85,A,3010.98637768,N,12008.33964644,E,0.03,195.04,181017,5.5,W,D,S*53
$GPHDT,,T*1B
$GPGGA,053539.90,3010.98637821,N,12008.33964626,E,4,20,0.7,9.051,M,7.232,M,0.9,2589*7C
$GPRMC,053539.90,A,3010.98637821,N,12008.33964626,E,0.09,3.48,181017,5.5,W,D,S*5D
$GPHDT,,T*1B
$GPGGA,053539.95,3010.98637859,N,12008.33964623,E,4,20,0.7,9.052,M,7.232,M,0.9,2589*70
$GPRMC,053539.95,A,3010.98637859,N,12008.33964623,E,0.02,207.56,181017,5.5,W,D,S*50
$GPHDT,,T*1B
$GPGGA,053540.00,3010.98637836,N,12008.33964633,E,4,20,0.7,9.053,M,7.232,M,1.0,2589*73
$GPRMC,053540.00,A,3010.98637836,N,12008.33964633,E,0.02,116.54,181017,5.5,W,D,S*5B
$GPHDT,,T*1B
$GPGGA,053540.05,3010.98637768,N,12008.33964629,E,4,20,0.7,9.050,M,7.232,M,1.0,2589*7A
$GPRMC,053540.05,A,3010.98637768,N,12008.33964629,E,0.08,171.70,181017,5.5,W,D,S*5C
$GPHDT,,T*1B
$GPGGA,053540.10,3010.98637793,N,12008.33964611,E,4,20,0.7,9.052,M,7.232,M,1.1,2589*72
$GPRMC,053540.10,A,3010.98637793,N,12008.33964611,E,0.13,340.29,181017,5.5,W,D,S*51
$GPHDT,,T*1B
$GPGGA,053540.15,3010.98637858,N,12008.33964547,E,4,20,0.7,9.052,M,7.232,M,1.1,2589*7F
$GPRMC,053540.15,A,3010.98637858,N,12008.33964547,E,0.03,244.29,181017,5.5,W,D,S*58
$GPHDT,,T*1B
$GPGGA,053540.20,3010.98637840,N,12008.33964550,E,4,20,0.7,9.053,M,7.232,M,1.2,2589*74
$GPRMC,053540.20,A,3010.98637840,N,12008.33964550,E,0.02,93.95,181017,5.5,W,D,S*6F
$GPHDT,,T*1B
$GPGGA,053540.25,3010.98637844,N,12008.33964621,E,4,20,0.7,9.055,M,7.232,M,1.2,2589*76
$GPRMC,053540.25,A,3010.98637844,N,12008.33964621,E,0.05,82.37,181017,5.5,W,D,S*64
$GPHDT,,T*1B
$GPGGA,053540.30,3010.98637847,N,12008.33964608,E,4,20,0.7,9.055,M,7.232,M,0.3,2589*7A
$GPRMC,053540.30,A,3010.98637847,N,12008.33964608,E,0.04,278.00,181017,5.5,W,D,S*5A
$GPHDT,,T*1B
$GPGGA,053540.35,3010.98637776,N,12008.33964590,E,4,20,0.7,9.053,M,7.232,M,0.3,2589*76
$GPRMC,053540.35,A,3010.98637776,N,12008.33964590,E,0.11,159.05,181017,5.5,W,D,S*51
$GPHDT,,T*1B
$GPGGA,053540.40,3010.98637738,N,12008.33964594,E,4,20,0.7,9.053,M,7.232,M,0.4,2589*7D
$GPRMC,053540.40,A,3010.98637738,N,12008.33964594,E,0.05,318.09,181017,5.5,W,D,S*53
$GPHDT,,T*1B
$GPGGA,053540.45,3010.98637775,N,12008.33964618,E,4,20,0.7,9.054,M,7.232,M,0.4,2589*71
$GPRMC,053540.45,A,3010.98637775,N,12008.33964618,E,0.05,59.34,181017,5.5,W,D,S*60
$GPHDT,,T*1B
$GPGGA,053540.50,3010.98637761,N,12008.33964638,E,4,20,0.7,9.055,M,7.232,M,0.5,2589*72
$GPRMC,053540.50,A,3010.98637761,N,12008.33964638,E,0.04,190.04,181017,5.5,W,D,S*55
$GPHDT,,T*1B
$GPGGA,053540.55,3010.98637776,N,12008.33964611,E,4,20,0.7,9.055,M,7.232,M,0.5,2589*7A
$GPRMC,053540.55,A,3010.98637776,N,12008.33964611,E,0.05,343.56,181017,5.5,W,D,S*57
$GPHDT,,T*1B
$GPGGA,053540.60,3010.98637756,N,12008.33964587,E,4,20,0.7,9.055,M,7.232,M,0.6,2589*71
$GPRMC,053540.60,A,3010.98637756,N,12008.33964587,E,0.07,179.09,181017,5.5,W,D,S*5C
$GPHDT,,T*1B
$GPGGA,053540.65,3010.98637750,N,12008.33964645,E,4,20,0.7,9.058,M,7.232,M,0.6,2589*72
$GPRMC,053540.65,A,3010.98637750,N,12008.33964645,E,0.07,45.53,181017,5.5,W,D,S*63
$GPHDT,,T*1B
$GPGGA,053540.70,3010.98637778,N,12008.33964649,E,4,20,0.7,9.055,M,7.232,M,0.7,2589*7C
$GPRMC,053540.70,A,3010.98637778,N,12008.33964649,E,0.02,187.60,181017,5.5,W,D,S*5B
$GPHDT,,T*1B
$GPGGA,053540.75,3010.98637748,N,12008.33964610,E,4,20,0.7,9.055,M,7.232,M,0.7,2589*76
$GPRMC,053540.75,A,3010.98637748,N,12008.33964610,E,0.04,233.07,181017,5.5,W,D,S*5A
$GPHDT,,T*1B
$GPGGA,053540.80,3010.98637786,N,12008.33964628,E,4,20,0.7,9.056,M,7.232,M,0.8,2589*79
$GPRMC,053540.80,A,3010.98637786,N,12008.33964628,E,0.09,30.64,181017,5.5,W,D,S*60
$GPHDT,,T*1B
$GPGGA,053540.85,3010.98637822,N,12008.33964674,E,4,20,0.7,9.057,M,7.232,M,0.8,2589*75
$GPRMC,053540.85,A,3010.98637822,N,12008.33964674,E,0.03,130.38,181017,5.5,W,D,S*5F
$GPHDT,,T*1B
$GPGGA,053540.90,3010.98637855,N,12008.33964654,E,4,20,0.7,9.055,M,7.232,M,0.9,2589*70
$GPRMC,053540.90,A,3010.98637855,N,12008.33964654,E,0.05,330.62,181017,5.5,W,D,S*52
$GPHDT,,T*1B
$GPGGA,053540.95,3010.98637808,N,12008.33964667,E,4,20,0.7,9.058,M,7.232,M,0.9,2589*70
$GPRMC,053540.95,A,3010.98637808,N,12008.33964667,E,0.09,157.63,181017,5.5,W,D,S*51
$GPHDT,,T*1B
$GPGGA,053541.00,3010.98637778,N,12008.33964717,E,4,20,0.7,9.055,M,7.232,M,1.0,2589*76
$GPRMC,053541.00,A,3010.98637778,N,12008.33964717,E,0.06,81.37,181017,5.5,W,D,S*66
$GPHDT,,T*1B
$GPGGA,053541.05,3010.98637798,N,12008.33964753,E,4,20,0.7,9.057,M,7.232,M,1.0,2589*7F
$GPRMC,053541.05,A,3010.98637798,N,12008.33964753,E,0.03,324.54,181017,5.5,W,D,S*51
$GPHDT,,T*1B
$GPGGA,053541.10,3010.98637804,N,12008.33964729,E,4,20,0.7,9.057,M,7.232,M,1.1,2589*7D
$GPRMC,053541.10,A,3010.98637804,N,12008.33964729,E,0.01,224.56,181017,5.5,W,D,S*53
$GPHDT,,T*1B
$GPGGA,053541.15,3010.98637826,N,12008.33964709,E,4,20,0.7,9.055,M,7.232,M,1.1,2589*78
$GPRMC,053541.15,A,3010.98637826,N,12008.33964709,E,0.02,4.31,181017,5.5,W,D,S*56
$GPHDT,,T*1B
$GPGGA,053541.20,3010.98637814,N,12008.33964725,E,4,20,0.7,9.056,M,7.232,M,1.2,2589*71
$GPRMC,053541.20,A,3010.98637814,N,12008.33964725,E,0.04,160.46,181017,5.5,W,D,S*5A
$GPHDT,,T*1B
$GPGGA,053541.25,3010.98637833,N,12008.33964698,E,4,20,0.7,9.056,M,7.232,M,1.2,2589*76
$GPRMC,053541.25,A,3010.98637833,N,12008.33964698,E,0.06,324.51,181017,5.5,W,D,S*5B
$GPHDT,,T*1B
$GPGGA,053541.30,3010.98637835,N,12008.33964631,E,4,20,0.7,9.055,M,7.232,M,0.3,2589*74
$GPRMC,053541.30,A,3010.98637835,N,12008.33964631,E,0.03,219.78,181017,5.5,W,D,S*5B
$GPHDT,,T*1B
$GPGGA,053541.35,3010.98637818,N,12008.33964637,E,4,20,0.7,9.055,M,7.232,M,0.3,2589*78
$GPRMC,053541.35,A,3010.98637818,N,12008.33964637,E,0.04,58.06,181017,5.5,W,D,S*6E
$GPHDT,,T*1B
$GPGGA,053541.40,3010.98637840,N,12008.33964660,E,4,20,0.7,9.056,M,7.232,M,0.4,2589*71
$GPRMC,053541.40,A,3010.98637840,N,12008.33964660,E,0.03,43.84,181017,5.5,W,D,S*64
$GPHDT,,T*1B
$GPGGA,053541.45,3010.98637838,N,12008.33964674,E,4,20,0.7,9.057,M,7.232,M,0.4,2589*7F
$GPRMC,053541.45,A,3010.98637838,N,12008.33964674,E,0.02,69.52,181017,5.5,W,D,S*69
$GPHDT,,T*1B
$GPGGA,053541.50,3010.98637830,N,12008.33964707,E,4,20,0.7,9.058,M,7.232,M,0.5,2589*78
$GPRMC,053541.50,A,3010.98637830,N,12008.33964707,E,0.03,86.46,181017,5.5,W,D,S*65
$GPHDT,,T*1B
$GPGGA,053541.55,3010.98637857,N,12008.33964632,E,4,20,0.7,9.055,M,7.232,M,0.5,2589*76
$GPRMC,053541.55,A,3010.98637857,N,12008.33964632,E,0.08,301.50,181017,5.5,W,D,S*56
$GPHDT,,T*1B
$GPGGA,053541.60,3010.98637859,N,12008.33964606,E,4,20,0.7,9.057,M,7.232,M,0.6,2589*78
$GPRMC,053541.60,A,3010.98637859,N,12008.33964606,E,0.03,114.04,181017,5.5,W,D,S*55
$GPHDT,,T*1B
$GPGGA,053541.65,3010.98637857,N,12008.33964582,E,4,20,0.7,9.058,M,7.232,M,0.6,2589*73
$GPRMC,053541.65,A,3010.98637857,N,12008.33964582,E,0.05,303.00,181017,5.5,W,D,S*57
$GPHDT,,T*1B
$GPGGA,053541.70,3010.98637913,N,12008.33964539,E,4,20,0.7,9.057,M,7.232,M,0.7,2589*78
$GPRMC,053541.70,A,3010.98637913,N,12008.33964539,E,0.05,358.40,181017,5.5,W,D,S*58
$GPHDT,,T*1B
$GPGGA,053541.75,3010.98637915,N,12008.33964557,E,4,20,0.7,9.057,M,7.232,M,0.7,2589*73
$GPRMC,053541.75,A,3010.98637915,N,12008.33964557,E,0.02,159.42,181017,5.5,W,D,S*55
$GPHDT,,T*1B
$GPGGA,053541.80,3010.98637880,N,12008.33964541,E,4,20,0.7,9.058,M,7.232,M,0.8,2589*73
$GPRMC,053541.80,A,3010.98637880,N,12008.33964541,E,0.03,265.16,181017,5.5,W,D,S*59
$GPHDT,,T*1B
$GPGGA,053541.85,3010.98637873,N,12008.33964516,E,4,20,0.7,9.057,M,7.232,M,0.8,2589*77
$GPRMC,053541.85,A,3010.98637873,N,12008.33964516,E,0.01,157.10,181017,5.5,W,D,S*54
$GPHDT,,T*1B
$GPGGA,053541.90,3010.98637840,N,12008.33964494,E,4,20,0.7,9.058,M,7.232,M,0.9,2589*76
$GPRMC,053541.90,A,3010.98637840,N,12008.33964494,E,0.06,244.06,181017,5.5,W,D,S*5A
$GPHDT,,T*1B
$GPGGA,053541.95,3010.98637805,N,12008.33964464,E,4,20,0.7,9.058,M,7.232,M,0.9,2589*7D
$GPRMC,053541.95,A,3010.98637805,N,12008.33964464,E,0.03,162.58,181017,5.5,W,D,S*58
$GPHDT,,T*1B
$GPGGA,053542.00,3010.98637802,N,12008.33964476,E,4,20,0.7,9.056,M,7.232,M,1.0,2589*70
$GPRMC,053542.00,A,3010.98637802,N,12008.33964476,E,0.01,351.59,181017,5.5,W,D,S*52
$GPHDT,,T*1B
$GPGGA,053542.05,3010.98637796,N,12008.33964456,E,4,20,0.7,9.054,M,7.232,M,1.0,2589*77
$GPRMC,053542.05,A,3010.98637796,N,12008.33964456,E,0.04,228.75,181017,5.5,W,D,S*53
$GPHDT,,T*1B
$GPGGA,053542.10,3010.98637789,N,12008.33964435,E,4,20,0.7,9.057,M,7.232,M,1.1,2589*7A
$GPRMC,053542.10,A,3010.98637789,N,12008.33964435,E,0.03,311.24,181017,5.5,W,D,S*54
$GPHDT,,T*1B
$GPGGA,053542.15,3010.98637817,N,12008.33964516,E,4,20,0.7,9.058,M,7.232,M,1.1,2589*78
$GPRMC,053542.15,A,3010.98637817,N,12008.33964516,E,0.11,86.41,181017,5.5,W,D,S*64
$GPHDT,,T*1B
$GPGGA,053542.20,3010.98637859,N,12008.33964573,E,4,20,0.7,9.058,M,7.232,M,1.2,2589*74
$GPRMC,053542.20,A,3010.98637859,N,12008.33964573,E,0.05,320.68,181017,5.5,W,D,S*5A
$GPHDT,,T*1B
$GPGGA,053542.25,3010.98637853,N,12008.33964503,E,4,20,0.7,9.057,M,7.232,M,1.2,2589*73
$GPRMC,053542.25,A,3010.98637853,N,12008.33964503,E,0.07,225.92,181017,5.5,W,D,S*51
$GPHDT,,T*1B
$GPGGA,053542.30,3010.98637876,N,12008.33964509,E,4,20,0.7,9.055,M,7.232,M,0.3,2589*78
$GPRMC,053542.30,A,3010.98637876,N,12008.33964509,E,0.09,29.67,181017,5.5,W,D,S*62
$GPHDT,,T*1B
$GPGGA,053542.35,3010.98637864,N,12008.33964564,E,4,20,0.7,9.057,M,7.232,M,0.3,2589*77
$GPRMC,053542.35,A,3010.98637864,N,12008.33964564,E,0.06,171.38,181017,5.5,W,D,S*56
$GPHDT,,T*1B
$GPGGA,053542.40,3010.98637789,N,12008.33964577,E,4,20,0.7,9.057,M,7.232,M,0.4,2589*7C
$GPRMC,053542.40,A,3010.98637789,N,12008.33964577,E,0.05,152.46,181017,5.5,W,D,S*51
$GPHDT,,T*1B
$GPGGA,053542.45,3010.98637771,N,12008.33964520,E,4,20,0.7,9.054,M,7.232,M,0.4,2589*7F
$GPRMC,053542.45,A,3010.98637771,N,12008.33964520,E,0.07,272.58,181017,5.5,W,D,S*5D
$GPHDT,,T*1B
$GPGGA,053542.50,3010.98637795,N,12008.33964513,E,4,20,0.7,9.054,M,7.232,M,0.5,2589*70
$GPRMC,053542.50,A,3010.98637795,N,12008.33964513,E,0.05,49.08,181017,5.5,W,D,S*6E
$GPHDT,,T*1B
$GPGGA,053542.55,3010.98637773,N,12008.33964561,E,4,20,0.7,9.056,M,7.232,M,0.5,2589*7A
$GPRMC,053542.55,A,3010.98637773,N,12008.33964561,E,0.05,173.37,181017,5.5,W,D,S*52
$GPHDT,,T*1B
$GPGGA,053542.60,3010.98637769,N,12008.33964512,E,4,20,0.7,9.054,M,7.232,M,0.6,2589*72
$GPRMC,053542.60,A,3010.98637769,N,12008.33964512,E,0.07,298.32,181017,5.5,W,D,S*5A
$GPHDT,,T*1B
$GPGGA,053542.65,3010.98637784,N,12008.33964478,E,4,20,0.7,9.057,M,7.232,M,0.6,2589*7A
$GPRMC,053542.65,A,3010.98637784,N,12008.33964478,E,0.01,243.21,181017,5.5,W,D,S*53
$GPHDT,,T*1B
$GPGGA,053542.70,3010.98637799,N,12008.33964492,E,4,20,0.7,9.054,M,7.232,M,0.7,2589*74
$GPRMC,053542.70,A,3010.98637799,N,12008.33964492,E,0.04,79.83,181017,5.5,W,D,S*69
$GPHDT,,T*1B
$GPGGA,053542.75,3010.98637797,N,12008.33964512,E,4,20,0.7,9.055,M,7.232,M,0.7,2589*77
$GPRMC,053542.75,A,3010.98637797,N,12008.33964512,E,0.03,263.11,181017,5.5,W,D,S*5E
$GPHDT,,T*1B
$GPGGA,053542.80,3010.98637787,N,12008.33964501,E,4,20,0.7,9.053,M,7.232,M,0.8,2589*77
$GPRMC,053542.80,A,3010.98637787,N,12008.33964501,E,0.02,131.23,181017,5.5,W,D,S*53
$GPHDT,,T*1B
$GPGGA,053542.85,3010.98637846,N,12008.33964490,E,4,20,0.7,9.053,M,7.232,M,0.8,2589*79
$GPRMC,053542.85,A,3010.98637846,N,12008.33964490,E,0.10,333.19,181017,5.5,W,D,S*57
$GPHDT,,T*1B
$GPGGA,053542.90,3010.98637833,N,12008.33964502,E,4,20,0.7,9.053,M,7.232,M,0.9,2589*74
$GPRMC,053542.90,A,3010.98637833,N,12008.33964502,E,0.08,153.78,181017,5.5,W,D,S*51
$GPHDT,,T*1B
$GPGGA,053542.95,3010.98637771,N,12008.33964544,E,4,20,0.7,9.052,M,7.232,M,0.9,2589*7B
$GPRMC,053542.95,A,3010.98637771,N,12008.33964544,E,0.02,161.57,181017,5.5,W,D,S*59
$GPHDT,,T*1B
$GPGGA,053543.00,3010.98637786,N,12008.33964512,E,4,20,0.7,9.053,M,7.232,M,1.0,2589*74
$GPRMC,053543.00,A,3010.98637786,N,12008.33964512,E,0.08,306.60,181017,5.5,W,D,S*52
$GPHDT,,T*1B
$GPGGA,053543.05,3010.98637786,N,12008.33964433,E,4,20,0.7,9.052,M,7.232,M,1.0,2589*72
$GPRMC,053543.05,A,3010.98637786,N,12008.33964433,E,0.06,209.53,181017,5.5,W,D,S*55
$GPHDT,,T*1B
$GPGGA,053543.10,3010.98637757,N,12008.33964437,E,4,20,0.7,9.051,M,7.232,M,1.1,2589*7C
$GPRMC,053543.10,A,3010.98637757,N,12008.33964437,E,0.02,49.58,181017,5.5,W,D,S*60
$GPHDT,,T*1B
$GPGGA,053543.15,3010.98637770,N,12008.33964468,E,4,20,0.7,9.053,M,7.232,M,1.1,2589*74
$GPRMC,053543.15,A,3010.98637770,N,12008.33964468,E,0.02,330.05,181017,5.5,W,D,S*5F
$GPHDT,,T*1B
$GPGGA,053543.20,3010.98637765,N,12008.33964512,E,4,20,0.7,9.055,M,7.232,M,1.2,2589*7F
$GPRMC,053543.20,A,3010.98637765,N,12008.33964512,E,0.04,112.63,181017,5.5,W,D,S*55
$GPHDT,,T*1B
$GPGGA,053543.25,3010.98637745,N,12008.33964503,E,4,20,0.7,9.053,M,7.232,M,1.2,2589*7E
$GPRMC,053543.25,A,3010.98637745,N,12008.33964503,E,0.06,245.57,181017,5.5,W,D,S*56
$GPHDT,,T*1B
$GPGGA,053543.30,3010.98637775,N,12008.33964439,E,4,20,0.7,9.053,M,7.232,M,0.3,2589*71
$GPRMC,053543.30,A,3010.98637775,N,12008.33964439,E,0.07,320.21,181017,5.5,W,D,S*5B
$GPHDT,,T*1B
$GPGGA,053543.35,3010.98637732,N,12008.33964482,E,4,20,0.7,9.053,M,7.232,M,0.3,2589*77
$GPRMC,053543.35,A,3010.98637732,N,12008.33964482,E,0.13,142.38,181017,5.5,W,D,S*56
$GPHDT,,T*1B
$GPGGA,053543.40,3010.98637767,N,12008.33964514,E,4,20,0.7,9.054,M,7.232,M,0.4,2589*7B
$GPRMC,053543.40,A,3010.98637767,N,12008.33964514,E,0.13,338.33,181017,5.5,W,D,S*5E
$GPHDT,,T*1B
$GPGGA,053543.45,3010.98637840,N,12008.33964485,E,4,20,0.7,9.053,M,7.232,M,0.4,2589*7A
$GPRMC,053543.45,A,3010.98637840,N,12008.33964485,E,0.02,157.14,181017,5.5,W,D,S*56
$GPHDT,,T*1B
$GPGGA,053543.50,3010.98637813,N,12008.33964547,E,4,20,0.7,9.053,M,7.232,M,0.5,2589*76
$GPRMC,053543.50,A,3010.98637813,N,12008.33964547,E,0.06,112.34,181017,5.5,W,D,S*5C
$GPHDT,,T*1B
$GPGGA,053543.55,3010.98637848,N,12008.33964565,E,4,20,0.7,9.054,M,7.232,M,0.5,2589*7A
$GPRMC,053543.55,A,3010.98637848,N,12008.33964565,E,0.07,329.90,181017,5.5,W,D,S*52
$GPHDT,,T*1B
$GPGGA,053543.60,3010.98637857,N,12008.33964531,E,4,20,0.7,9.050,M,7.232,M,0.6,2589*74
$GPRMC,053543.60,A,3010.98637857,N,12008.33964531,E,0.05,170.80,181017,5.5,W,D,S*56
$GPHDT,,T*1B
$GPGGA,053543.65,3010.98637846,N,12008.33964577,E,4,20,0.7,9.051,M,7.232,M,0.6,2589*72
$GPRMC,053543.65,A,3010.98637846,N,12008.33964577,E,0.04,33.60,181017,5.5,W,D,S*68
$GPHDT,,T*1B
$GPGGA,053543.70,3010.98637873,N,12008.33964587,E,4,20,0.7,9.051,M,7.232,M,0.7,2589*7E
$GPRMC,053543.70,A,3010.98637873,N,12008.33964587,E,0.02,311.14,181017,5.5,W,D,S*53
$GPHDT,,T*1B
$GPGGA,053543.75,3010.98637902,N,12008.33964551,E,4,20,0.7,9.050,M,7.232,M,0.7,2589*76
$GPRMC,053543.75,A,3010.98637902,N,12008.33964551,E,0.05,299.03,181017,5.5,W,D,S*5A
$GPHDT,,T*1B
$GPGGA,053543.80,3010.98637923,N,12008.33964517,E,4,20,0.7,9.049,M,7.232,M,0.8,2589*7A
$GPRMC,053543.80,A,3010.98637923,N,12008.33964517,E,0.02,287.33,181017,5.5,W,D,S*5A
$GPHDT,,T*1B
$GPGGA,053543.85,3010.98637910,N,12008.33964509,E,4,20,0.7,9.049,M,7.232,M,0.8,2589*70
$GPRMC,053543.85,A,3010.98637910,N,12008.33964509,E,0.02,202.67,181017,5.5,W,D,S*5C
$GPHDT,,T*1B
$GPGGA,053543.90,3010.98637904,N,12008.33964526,E,4,20,0.7,9.049,M,7.232,M,0.9,2589*7D
$GPRMC,053543.90,A,3010.98637904,N,12008.33964526,E,0.02,55.91,181017,5.5,W,D,S*69
$GPHDT,,T*1B
$GPGGA,053543.95,3010.98637921,N,12008.33964539,E,4,20,0.7,9.051,M,7.232,M,0.9,2589*78
$GPRMC,053543.95,A,3010.98637921,N,12008.33964539,E,0.04,335.52,181017,5.5,W,D,S*59
$GPHDT,,T*1B
$GPGGA,053544.00,3010.98637936,N,12008.33964591,E,4,20,0.7,9.051,M,7.232,M,1.0,2589*7F
$GPRMC,053544.00,A,3010.98637936,N,12008.33964591,E,0.07,100.36,181017,5.5,W,D,S*53
$GPHDT,,T*1B
$GPGGA,053544.05,3010.98637911,N,12008.33964586,E,4,20,0.7,9.051,M,7.232,M,1.0,2589*79
$GPRMC,053544.05,A,3010.98637911,N,12008.33964586,E,0.08,254.43,181017,5.5,W,D,S*5A
$GPHDT,,T*1B
$GPGGA,053544.10,3010.98637924,N,12008.33964544,E,4,20,0.7,9.049,M,7.232,M,1.1,2589*7D
$GPRMC,053544.10,A,3010.98637924,N,12008.33964544,E,0.03,24.56,181017,5.5,W,D,S*6C
$GPHDT,,T*1B
$GPGGA,053544.15,3010.98637880,N,12008.33964569,E,4,20,0.7,9.052,M,7.232,M,1.1,2589*72
$GPRMC,053544.15,A,3010.98637880,N,12008.33964569,E,0.07,184.64,181017,5.5,W,D,S*57
$GPHDT,,T*1B
$GPGGA,053544.20,3010.98637857,N,12008.33964572,E,4,20,0.7,9.053,M,7.232,M,1.2,2589*76
$GPRMC,053544.20,A,3010.98637857,N,12008.33964572,E,0.03,8.18,181017,5.5,W,D,S*5B
$GPHDT,,T*1B
$GPGGA,053544.25,3010.98637915,N,12008.33964610,E,4,20,0.7,9.051,M,7.232,M,1.2,2589*71
$GPRMC,053544.25,A,3010.98637915,N,12008.33964610,E,0.07,42.54,181017,5.5,W,D,S*6C
$GPHDT,,T*1B
$GPGGA,053544.30,3010.98637919,N,12008.33964621,E,4,20,0.7,9.052,M,7.232,M,0.3,2589*78
$GPRMC,053544.30,A,3010.98637919,N,12008.33964621,E,0.03,234.31,181017,5.5,W,D,S*52
$GPHDT,,T*1B
$GPGGA,053544.35,3010.98637886,N,12008.33964592,E,4,20,0.7,9.052,M,7.232,M,0.3,2589*71
$GPRMC,053544.35,A,3010.98637886,N,12008.33964592,E,0.00,141.67,181017,5.5,W,D,S*5A
$GPHDT,,T*1B
$GPGGA,053544.40,3010.98637882,N,12008.33964607,E,4,20,0.7,9.055,M,7.232,M,0.4,2589*78
$GPRMC,053544.40,A,3010.98637882,N,12008.33964607,E,0.02,18.17,181017,5.5,W,D,S*6B
$GPHDT,,T*1B
$GPGGA,053544.45,3010.98637832,N,12008.33964574,E,4,20,0.7,9.054,M,7.232,M,0.4,2589*70
$GPRMC,053544.45,A,3010.98637832,N,12008.33964574,E,0.07,207.97,181017,5.5,W,D,S*53
$GPHDT,,T*1B
$GPGGA,053544.50,3010.98637791,N,12008.33964579,E,4,20,0.7,9.054,M,7.232,M,0.5,2589*7E
$GPRMC,053544.50,A,3010.98637791,N,12008.33964579,E,0.04,79.23,181017,5.5,W,D,S*6B
$GPHDT,,T*1B
$GPGGA,053544.55,3010.98637805,N,12008.33964626,E,4,20,0.7,9.057,M,7.232,M,0.5,2589*73
$GPRMC,053544.55,A,3010.98637805,N,12008.33964626,E,0.04,11.48,181017,5.5,W,D,S*66
$GPHDT,,T*1B
$GPGGA,053544.60,3010.98637840,N,12008.33964639,E,4,20,0.7,9.056,M,7.232,M,0.6,2589*78
$GPRMC,053544.60,A,3010.98637840,N,12008.33964639,E,0.03,44.03,181017,5.5,W,D,S*67
$GPHDT,,T*1B
$GPGGA,053544.65,3010.98637807,N,12008.33964606,E,4,20,0.7,9.057,M,7.232,M,0.6,2589*73
$GPRMC,053544.65,A,3010.98637807,N,12008.33964606,E,0.08,234.73,181017,5.5,W,D,S*54
$GPHDT,,T*1B
$GPGGA,053544.70,3010.98637796,N,12008.33964602,E,4,20,0.7,9.060,M,7.232,M,0.7,2589*71
$GPRMC,053544.70,A,3010.98637796,N,12008.33964602,E,0.05,48.08,181017,5.5,W,D,S*6B
$GPHDT,,T*1B
$GPGGA,053544.75,3010.98637837,N,12008.33964623,E,4,20,0.7,9.058,M,7.232,M,0.7,2589*78
$GPRMC,053544.75,A,3010.98637837,N,12008.33964623,E,0.03,10.17,181017,5.5,W,D,S*6C
$GPHDT,,T*1B
$GPGGA,053544.80,3010.98637817,N,12008.33964588,E,4,20,0.7,9.059,M,7.232,M,0.8,2589*7C
$GPRMC,053544.80,A,3010.98637817,N,12008.33964588,E,0.06,232.34,181017,5.5,W,D,S*50
$GPHDT,,T*1B
$GPGGA,053544.85,3010.98637793,N,12008.33964593,E,4,20,0.7,9.057,M,7.232,M,0.8,2589*7E
$GPRMC,053544.85,A,3010.98637793,N,12008.33964593,E,0.05,83.35,181017,5.5,W,D,S*66
$GPHDT,,T*1B
$GPGGA,053544.90,3010.98637788,N,12008.33964603,E,4,20,0.7,9.058,M,7.232,M,0.9,2589*74
$GPRMC,053544.90,A,3010.98637788,N,12008.33964603,E,0.03,279.28,181017,5.5,W,D,S*5F
$GPHDT,,T*1B
$GPGGA,053544.95,3010.98637782,N,12008.33964535,E,4,20,0.7,9.058,M,7.232,M,0.9,2589*7D
$GPRMC,053544.95,A,3010.98637782,N,12008.33964535,E,0.06,263.45,181017,5.5,W,D,S*53
$GPHDT,,T*1B
$GPGGA,053545.00,3010.98637765,N,12008.33964542,E,4,20,0.7,9.055,M,7.232,M,1.0,2589*7C
$GPRMC,053545.00,A,3010.98637765,N,12008.33964542,E,0.07,106.51,181017,5.5,W,D,S*53
$GPHDT,,T*1B
$GPGGA,053545.05,3010.98637761,N,12008.33964573,E,4,20,0.7,9.056,M,7.232,M,1.0,2589*7C
$GPRMC,053545.05,A,3010.98637761,N,12008.33964573,E,0.04,309.43,181017,5.5,W,D,S*5D
$GPHDT,,T*1B
$GPGGA,053545.10,3010.98637787,N,12008.33964584,E,4,20,0.7,9.057,M,7.232,M,1.1,2589*78
$GPRMC,053545.10,A,3010.98637787,N,12008.33964584,E,0.03,63.76,181017,5.5,W,D,S*67
$GPHDT,,T*1B
$GPGGA,053545.15,3010.98637775,N,12008.33964531,E,4,20,0.7,9.053,M,7.232,M,1.1,2589*7A
$GPRMC,053545.15,A,3010.98637775,N,12008.33964531,E,0.09,246.62,181017,5.5,W,D,S*5B
$GPHDT,,T*1B
$GPGGA,053545.20,3010.98637750,N,12008.33964555,E,4,20,0.7,9.056,M,7.232,M,1.2,2589*7F
$GPRMC,053545.20,A,3010.98637750,N,12008.33964555,E,0.07,81.77,181017,5.5,W,D,S*6B
$GPHDT,,T*1B
$GPGGA,053545.25,3010.98637736,N,12008.33964631,E,4,20,0.7,9.055,M,7.232,M,1.2,2589*78
$GPRMC,053545.25,A,3010.98637736,N,12008.33964631,E,0.03,140.71,181017,5.5,W,D,S*51
$GPHDT,,T*1B
$GPGGA,053545.30,3010.98637712,N,12008.33964615,E,4,20,0.7,9.056,M,7.232,M,0.3,2589*7F
$GPRMC,053545.30,A,3010.98637712,N,12008.33964615,E,0.03,273.29,181017,5.5,W,D,S*5B
$GPHDT,,T*1B
$GPGGA,053545.35,3010.98637775,N,12008.33964581,E,4,20,0.7,9.053,M,7.232,M,0.3,2589*70
$GPRMC,053545.35,A,3010.98637775,N,12008.33964581,E,0.07,346.43,181017,5.5,W,D,S*5E
$GPHDT,,T*1B
$GPGGA,053545.40,3010.98637819,N,12008.33964622,E,4,20,0.7,9.054,M,7.232,M,0.4,2589*7D
$GPRMC,053545.40,A,3010.98637819,N,12008.33964622,E,0.06,77.49,181017,5.5,W,D,S*69
$GPHDT,,T*1B
$GPGGA,053545.45,3010.98637787,N,12008.33964608,E,4,20,0.7,9.052,M,7.232,M,0.4,2589*7E
$GPRMC,053545.45,A,3010.98637787,N,12008.33964608,E,0.08,231.40,181017,5.5,W,D,S*5B
$GPHDT,,T*1B
$GPGGA,053545.50,3010.98637766,N,12008.33964596,E,4,20,0.7,9.054,M,7.232,M,0.5,2589*76
$GPRMC,053545.50,A,3010.98637766,N,12008.33964596,E,0.03,65.58,181017,5.5,W,D,S*65
$GPHDT,,T*1B
$GPGGA,053545.55,3010.98637791,N,12008.33964593,E,4,20,0.7,9.054,M,7.232,M,0.5,2589*7E
$GPRMC,053545.55,A,3010.98637791,N,12008.33964593,E,0.03,294.99,181017,5.5,W,D,S*5C
$GPHDT,,T*1B
$GPGGA,053545.60,3010.98637778,N,12008.33964598,E,4,20,0.7,9.057,M,7.232,M,0.6,2589*74
$GPRMC,053545.60,A,3010.98637778,N,12008.33964598,E,0.03,145.30,181017,5.5,W,D,S*5A
$GPHDT,,T*1B
$GPGGA,053545.65,3010.98637797,N,12008.33964608,E,4,20,0.7,9.054,M,7.232,M,0.6,2589*79
$GPRMC,053545.65,A,3010.98637797,N,12008.33964608,E,0.03,10.16,181017,5.5,W,D,S*61
$GPHDT,,T*1B
$GPGGA,053545.70,3010.98637783,N,12008.33964644,E,4,20,0.7,9.058,M,7.232,M,0.7,2589*7D
$GPRMC,053545.70,A,3010.98637783,N,12008.33964644,E,0.05,148.80,181017,5.5,W,D,S*5D
$GPHDT,,T*1B
$GPGGA,053545.75,3010.98637760,N,12008.33964629,E,4,20,0.7,9.056,M,7.232,M,0.7,2589*70
$GPRMC,053545.75,A,3010.98637760,N,12008.33964629,E,0.02,269.99,181017,5.5,W,D,S*51
$GPHDT,,T*1B
$GPGGA,053545.80,3010.98637761,N,12008.33964661,E,4,20,0.7,9.056,M,7.232,M,0.8,2589*78
$GPRMC,053545.80,A,3010.98637761,N,12008.33964661,E,0.07,89.35,181017,5.5,W,D,S*69
$GPHDT,,T*1B
$GPGGA,053545.85,3010.98637754,N,12008.33964689,E,4,20,0.7,9.055,M,7.232,M,0.8,2589*7E
$GPRMC,053545.85,A,3010.98637754,N,12008.33964689,E,0.04,245.09,181017,5.5,W,D,S*52
$GPHDT,,T*1B
$GPGGA,053545.90,3010.98637769,N,12008.33964645,E,4,20,0.7,9.054,M,7.232,M,0.9,2589*74
$GPRMC,053545.90,A,3010.98637769,N,12008.33964645,E,0.03,329.91,181017,5.5,W,D,S*55
$GPHDT,,T*1B
$GPGGA,053545.95,3010.98637773,N,12008.33964626,E,4,20,0.7,9.055,M,7.232,M,0.9,2589*7E
$GPRMC,053545.95,A,3010.98637773,N,12008.33964626,E,0.02,198.89,181017,5.5,W,D,S*5E
$GPHDT,,T*1B
$GPGGA,053546.00,3010.98637775,N,12008.33964664,E,4,20,0.7,9.056,M,7.232,M,1.0,2589*7A
$GPRMC,053546.00,A,3010.98637775,N,12008.33964664,E,0.05,53.70,181017,5.5,W,D,S*66
$GPHDT,,T*1B
$GPGGA,053546.05,3010.98637770,N,12008.33964674,E,4,20,0.7,9.054,M,7.232,M,1.0,2589*79
$GPRMC,053546.05,A,3010.98637770,N,12008.33964674,E,0.05,205.18,181017,5.5,W,D,S*58
$GPHDT,,T*1B
$GPGGA,053546.10,3010.98637781,N,12008.33964648,E,4,20,0.7,9.052,M,7.232,M,1.1,2589*7B
$GPRMC,053546.10,A,3010.98637781,N,12008.33964648,E,0.05,359.77,181017,5.5,W,D,S*5C
$GPHDT,,T*1B
$GPGGA,053546.15,3010.98637729,N,12008.33964691,E,4,20,0.7,9.056,M,7.232,M,1.1,2589*7C
$GPRMC,053546.15,A,3010.98637729,N,12008.33964691,E,0.09,163.76,181017,5.5,W,D,S*59
$GPHDT,,T*1B
$GPGGA,053546.20,3010.98637743,N,12008.33964696,E,4,20,0.7,9.055,M,7.232,M,1.2,2589*71
$GPRMC,053546.20,A,3010.98637743,N,12008.33964696,E,0.09,354.84,181017,5.5,W,D,S*5F
$GPHDT,,T*1B
$GPGGA,053546.25,3010.98637814,N,12008.33964670,E,4,20,0.7,9.053,M,7.232,M,1.2,2589*77
$GPRMC,053546.25,A,3010.98637814,N,12008.33964670,E,0.02,330.56,181017,5.5,W,D,S*59
$GPHDT,,T*1B
$GPGGA,053546.30,3010.98637825,N,12008.33964665,E,4,20,0.7,9.055,M,7.232,M,0.3,2589*73
$GPRMC,053546.30,A,3010.98637825,N,12008.33964665,E,0.02,39.35,181017,5.5,W,D,S*64
$GPHDT,,T*1B
$GPGGA,053546.35,3010.98637831,N,12008.33964660,E,4,20,0.7,9.054,M,7.232,M,0.3,2589*77
$GPRMC,053546.35,A,3010.98637831,N,12008.33964660,E,0.02,327.96,181017,5.5,W,D,S*54
$GPHDT,,T*1B
$GPGGA,053546.40,3010.98637823,N,12008.33964659,E,4,20,0.7,9.055,M,7.232,M,0.4,2589*7A
$GPRMC,053546.40,A,3010.98637823,N,12008.33964659,E,0.01,151.17,181017,5.5,W,D,S*56
$GPHDT,,T*1B
$GPGGA,053546.45,3010.98637774,N,12008.33964680,E,4,20,0.7,9.054,M,7.232,M,0.4,2589*77
$GPRMC,053546.45,A,3010.98637774,N,12008.33964680,E,0.05,144.48,181017,5.5,W,D,S*50
$GPHDT,,T*1B
$GPGGA,053546.50,3010.98637793,N,12008.33964587,E,4,20,0.7,9.052,M,7.232,M,0.5,2589*79
$GPRMC,053546.50,A,3010.98637793,N,12008.33964587,E,0.15,295.22,181017,5.5,W,D,S*5B
$GPHDT,,T*1B
$GPGGA,053546.55,3010.98637843,N,12008.33964543,E,4,20,0.7,9.053,M,7.232,M,0.5,2589*77
$GPRMC,053546.55,A,3010.98637843,N,12008.33964543,E,0.06,66.05,181017,5.5,W,D,S*6D
$GPHDT,,T*1B
$GPGGA,053546.60,3010.98637797,N,12008.33964635,E,4,20,0.7,9.057,M,7.232,M,0.6,2589*72
$GPRMC,053546.60,A,3010.98637797,N,12008.33964635,E,0.07,142.39,181017,5.5,W,D,S*56
$GPHDT,,T*1B
$GPGGA,053546.65,3010.98637759,N,12008.33964669,E,4,20,0.7,9.055,M,7.232,M,0.6,2589*7E
$GPRMC,053546.65,A,3010.98637759,N,12008.33964669,E,0.02,131.98,181017,5.5,W,D,S*52
$GPHDT,,T*1B
$GPGGA,053546.70,3010.98637736,N,12008.33964647,E,4,20,0.7,9.057,M,7.232,M,0.7,2589*7C
$GPRMC,053546.70,A,3010.98637736,N,12008.33964647,E,0.04,242.12,181017,5.5,W,D,S*50
$GPHDT,,T*1B
$GPGGA,053546.75,3010.98637733,N,12008.33964634,E,4,20,0.7,9.055,M,7.232,M,0.7,2589*7A
$GPRMC,053546.75,A,3010.98637733,N,12008.33964634,E,0.02,72.35,181017,5.5,W,D,S*66
$GPHDT,,T*1B
$GPGGA,053546.80,3010.98637725,N,12008.33964646,E,4,20,0.7,9.055,M,7.232,M,0.8,2589*7D
$GPRMC,053546.80,A,3010.98637725,N,12008.33964646,E,0.02,180.33,181017,5.5,W,D,S*54
$GPHDT,,T*1B
$GPGGA,053546.85,3010.98637715,N,12008.33964675,E,4,20,0.7,9.057,M,7.232,M,0.8,2589*79
$GPRMC,053546.85,A,3010.98637715,N,12008.33964675,E,0.03,72.74,181017,5.5,W,D,S*6C
$GPHDT,,T*1B
$GPGGA,053546.90,3010.98637721,N,12008.33964643,E,4,20,0.7,9.056,M,7.232,M,0.9,2589*7F
$GPRMC,053546.90,A,3010.98637721,N,12008.33964643,E,0.06,261.24,181017,5.5,W,D,S*5A
$GPHDT,,T*1B
$GPGGA,053546.95,3010.98637693,N,12008.33964606,E,4,20,0.7,9.057,M,7.232,M,0.9,2589*72
$GPRMC,053546.95,A,3010.98637693,N,12008.33964606,E,0.03,160.37,181017,5.5,W,D,S*53
$GPHDT,,T*1B
$GPGGA,053547.00,3010.98637677,N,12008.33964651,E,4,20,0.7,9.056,M,7.232,M,1.0,2589*7E
$GPRMC,053547.00,A,3010.98637677,N,12008.33964651,E,0.04,98.55,181017,5.5,W,D,S*63
$GPHDT,,T*1B
$GPGGA,053547.05,3010.98637732,N,12008.33964677,E,4,20,0.7,9.057,M,7.232,M,1.0,2589*7E
$GPRMC,053547.05,A,3010.98637732,N,12008.33964677,E,0.08,350.18,181017,5.5,W,D,S*50
$GPHDT,,T*1B
$GPGGA,053547.10,3010.98637746,N,12008.33964683,E,4,20,0.7,9.057,M,7.232,M,1.1,2589*73
$GPRMC,053547.10,A,3010.98637746,N,12008.33964683,E,0.06,158.94,181017,5.5,W,D,S*5C
$GPHDT,,T*1B
$GPGGA,053547.15,3010.98637735,N,12008.33964646,E,4,20,0.7,9.056,M,7.232,M,1.1,2589*7A
$GPRMC,053547.15,A,3010.98637735,N,12008.33964646,E,0.07,288.45,181017,5.5,W,D,S*57
$GPHDT,,T*1B
$GPGGA,053547.20,3010.98637738,N,12008.33964612,E,4,20,0.7,9.058,M,7.232,M,1.2,2589*7D
$GPRMC,053547.20,A,3010.98637738,N,12008.33964612,E,0.02,134.66,181017,5.5,W,D,S*5D
$GPHDT,,T*1B
$GPGGA,053547.25,3010.98637762,N,12008.33964634,E,4,20,0.7,9.058,M,7.232,M,1.2,2589*73
$GPRMC,053547.25,A,3010.98637762,N,12008.33964634,E,0.05,5.30,181017,5.5,W,D,S*54
$GPHDT,,T*1B
$GPGGA,053547.30,3010.98637734,N,12008.33964670,E,4,20,0.7,9.059,M,7.232,M,0.3,2589*75
$GPRMC,053547.30,A,3010.98637734,N,12008.33964670,E,0.09,148.43,181017,5.5,W,D,S*53
$GPHDT,,T*1B
$GPGGA,053547.35,3010.98637722,N,12008.33964654,E,4,20,0.7,9.058,M,7.232,M,0.3,2589*70
$GPRMC,053547.35,A,3010.98637722,N,12008.33964654,E,0.06,320.50,181017,5.5,W,D,S*56
$GPHDT,,T*1B
$GPGGA,053547.40,3010.98637750,N,12008.33964626,E,4,20,0.7,9.058,M,7.232,M,0.4,2589*75
$GPRMC,053547.40,A,3010.98637750,N,12008.33964626,E,0.01,355.29,181017,5.5,W,D,S*5F
$GPHDT,,T*1B
$GPGGA,053547.45,3010.98637708,N,12008.33964652,E,4,20,0.7,9.058,M,7.232,M,0.4,2589*7E
$GPRMC,053547.45,A,3010.98637708,N,12008.33964652,E,0.06,146.65,181017,5.5,W,D,S*5B
$GPHDT,,T*1B
$GPGGA,053547.50,3010.98637682,N,12008.33964660,E,4,20,0.7,9.057,M,7.232,M,0.5,2589*76
$GPRMC,053547.50,A,3010.98637682,N,12008.33964660,E,0.01,293.02,181017,5.5,W,D,S*50
$GPHDT,,T*1B
$GPGGA,053547.55,3010.98637711,N,12008.33964654,E,4,20,0.7,9.060,M,7.232,M,0.5,2589*7B
$GPRMC,053547.55,A,3010.98637711,N,12008.33964654,E,0.04,345.05,181017,5.5,W,D,S*51
$GPHDT,,T*1B
$GPGGA,053547.60,3010.98637734,N,12008.33964627,E,4,20,0.7,9.061,M,7.232,M,0.6,2589*7C
$GPRMC,053547.60,A,3010.98637734,N,12008.33964627,E,0.02,285.11,181017,5.5,W,D,S*5A
$GPHDT,,T*1B
$GPGGA,053547.65,3010.98637739,N,12008.33964638,E,4,20,0.7,9.061,M,7.232,M,0.6,2589*7A
$GPRMC,053547.65,A,3010.98637739,N,12008.33964638,E,0.04,109.91,181017,5.5,W,D,S*55
$GPHDT,,T*1B
$GPGGA,053547.70,3010.98637733,N,12008.33964655,E,4,20,0.7,9.062,M,7.232,M,0.7,2589*7D
$GPRMC,053547.70,A,3010.98637733,N,12008.33964655,E,0.00,321.02,181017,5.5,W,D,S*56
$GPHDT,,T*1B
$GPGGA,053547.75,3010.98637681,N,12008.33964623,E,4,20,0.7,9.061,M,7.232,M,0.7,2589*72
$GPRMC,053547.75,A,3010.98637681,N,12008.33964623,E,0.08,197.64,181017,5.5,W,D,S*5D
$GPHDT,,T*1B
$GPGGA,053547.80,3010.98637671,N,12008.33964627,E,4,20,0.7,9.061,M,7.232,M,0.8,2589*7C
$GPRMC,053547.80,A,3010.98637671,N,12008.33964627,E,0.05,27.18,181017,5.5,W,D,S*60
$GPHDT,,T*1B
$GPGGA,053547.85,3010.98637719,N,12008.33964617,E,4,20,0.7,9.060,M,7.232,M,0.8,2589*74
$GPRMC,053547.85,A,3010.98637719,N,12008.33964617,E,0.03,301.55,181017,5.5,W,D,S*51
$GPHDT,,T*1B
$GPGGA,053547.90,3010.98637684,N,12008.33964609,E,4,20,0.7,9.060,M,7.232,M,0.9,2589*7B
$GPRMC,053547.90,A,3010.98637684,N,12008.33964609,E,0.06,151.91,181017,5.5,W,D,S*55
$GPHDT,,T*1B
$GPGGA,053547.95,3010.98637644,N,12008.33964607,E,4,20,0.7,9.058,M,7.232,M,0.9,2589*77
$GPRMC,053547.95,A,3010.98637644,N,12008.33964607,E,0.03,206.54,181017,5.5,W,D,S*5F
$GPHDT,,T*1B
$GPGGA,053548.00,3010.98637723,N,12008.33964602,E,4,20,0.7,9.060,M,7.232,M,1.0,2589*72
$GPRMC,053548.00,A,3010.98637723,N,12008.33964602,E,0.13,357.93,181017,5.5,W,D,S*56
$GPHDT,,T*1B
$GPGGA,053548.05,3010.98637793,N,12008.33964626,E,4,20,0.7,9.062,M,7.232,M,1.0,2589*78
$GPRMC,053548.05,A,3010.98637793,N,12008.33964626,E,0.04,109.38,181017,5.5,W,D,S*50
$GPHDT,,T*1B
$GPGGA,053548.10,3010.98637771,N,12008.33964658,E,4,20,0.7,9.060,M,7.232,M,1.1,2589*7A
$GPRMC,053548.10,A,3010.98637771,N,12008.33964658,E,0.03,130.98,181017,5.5,W,D,S*56
$GPHDT,,T*1B
$GPGGA,053548.15,3010.98637735,N,12008.33964665,E,4,20,0.7,9.062,M,7.232,M,1.1,2589*73
$GPRMC,053548.15,A,3010.98637735,N,12008.33964665,E,0.03,194.05,181017,5.5,W,D,S*57
$GPHDT,,T*1B
$GPGGA,053548.20,3010.98637730,N,12008.33964644,E,4,20,0.7,9.060,M,7.232,M,1.2,2589*72
$GPRMC,053548.20,A,3010.98637730,N,12008.33964644,E,0.01,356.01,181017,5.5,W,D,S*5D
$GPHDT,,T*1B
$GPGGA,053548.25,3010.98637710,N,12008.33964669,E,4,20,0.7,9.060,M,7.232,M,1.2,2589*7A
$GPRMC,053548.25,A,3010.98637710,N,12008.33964669,E,0.05,127.55,181017,5.5,W,D,S*54
$GPHDT,,T*1B
$GPGGA,053548.30,3010.98637725,N,12008.33964626,E,4,20,0.7,9.061,M,7.232,M,0.3,2589*72
$GPRMC,053548.30,A,3010.98637725,N,12008.33964626,E,0.08,293.40,181017,5.5,W,D,S*58
$GPHDT,,T*1B
$GPGGA,053548.35,3010.98637768,N,12008.33964598,E,4,20,0.7,9.058,M,7.232,M,0.3,2589*72
$GPRMC,053548.35,A,3010.98637768,N,12008.33964598,E,0.05,90.13,181017,5.5,W,D,S*68
$GPHDT,,T*1B
$GPGGA,053548.40,3010.98637796,N,12008.33964612,E,4,20,0.7,9.061,M,7.232,M,0.4,2589*7D
$GPRMC,053548.40,A,3010.98637796,N,12008.33964612,E,0.05,307.36,181017,5.5,W,D,S*50
$GPHDT,,T*1B
$GPGGA,053548.45,3010.98637805,N,12008.33964585,E,4,20,0.7,9.060,M,7.232,M,0.4,2589*71
$GPRMC,053548.45,A,3010.98637805,N,12008.33964585,E,0.04,165.76,181017,5.5,W,D,S*5E
$GPHDT,,T*1B
$GPGGA,053548.50,3010.98637787,N,12008.33964549,E,4,20,0.7,9.059,M,7.232,M,0.5,2589*7B
$GPRMC,053548.50,A,3010.98637787,N,12008.33964549,E,0.05,263.16,181017,5.5,W,D,S*5D
$GPHDT,,T*1B
$GPGGA,053548.55,3010.98637765,N,12008.33964596,E,4,20,0.7,9.062,M,7.232,M,0.5,2589*78
$GPRMC,053548.55,A,3010.98637765,N,12008.33964596,E,0.09,110.16,181017,5.5,W,D,S*5D
$GPHDT,,T*1B
$GPGGA,053548.60,3010.98637749,N,12008.33964639,E,4,20,0.7,9.060,M,7.232,M,0.6,2589*77
$GPRMC,053548.60,A,3010.98637749,N,12008.33964639,E,0.02,259.70,181017,5.5,W,D,S*56
$GPHDT,,T*1B
$GPGGA,053548.65,3010.98637757,N,12008.33964588,E,4,20,0.7,9.059,M,7.232,M,0.6,2589*7E
$GPRMC,053548.65,A,3010.98637757,N,12008.33964588,E,0.03,267.15,181017,5.5,W,D,S*5A
$GPHDT,,T*1B
$GPGGA,053548.70,3010.98637753,N,12008.33964540,E,4,20,0.7,9.057,M,7.232,M,0.7,2589*75
$GPRMC,053548.70,A,3010.98637753,N,12008.33964540,E,0.03,206.94,181017,5.5,W,D,S*50
$GPHDT,,T*1B
$GPGGA,053548.75,3010.98637767,N,12008.33964545,E,4,20,0.7,9.059,M,7.232,M,0.7,2589*7C
$GPRMC,053548.75,A,3010.98637767,N,12008.33964545,E,0.03,352.69,181017,5.5,W,D,S*55
$GPHDT,,T*1B
$GPGGA,053548.80,3010.98637837,N,12008.33964533,E,4,20,0.7,9.058,M,7.232,M,0.8,2589*73
$GPRMC,053548.80,A,3010.98637837,N,12008.33964533,E,0.05,352.95,181017,5.5,W,D,S*51
$GPHDT,,T*1B
$GPGGA,053548.85,3010.98637847,N,12008.33964549,E,4,20,0.7,9.059,M,7.232,M,0.8,2589*7D
$GPRMC,053548.85,A,3010.98637847,N,12008.33964549,E,0.05,156.86,181017,5.5,W,D,S*5A
$GPHDT,,T*1B
$GPGGA,053548.90,3010.98637780,N,12008.33964575,E,4,20,0.7,9.061,M,7.232,M,0.9,2589*78
$GPRMC,053548.90,A,3010.98637780,N,12008.33964575,E,0.05,172.35,181017,5.5,W,D,S*5B
$GPHDT,,T*1B
$GPGGA,053548.95,3010.98637804,N,12008.33964613,E,4,20,0.7,9.060,M,7.232,M,0.9,2589*7C
$GPRMC,053548.95,A,3010.98637804,N,12008.33964613,E,0.07,35.43,181017,5.5,W,D,S*6F
$GPHDT,,T*1B
$GPGGA,053549.00,3010.98637814,N,12008.33964654,E,4,20,0.7,9.060,M,7.232,M,1.0,2589*7B
$GPRMC,053549.00,A,3010.98637814,N,12008.33964654,E,0.04,163.46,181017,5.5,W,D,S*54
$GPHDT,,T*1B
$GPGGA,053549.05,3010.98637794,N,12008.33964647,E,4,20,0.7,9.060,M,7.232,M,1.0,2589*7B
$GPRMC,053549.05,A,3010.98637794,N,12008.33964647,E,0.02,274.95,181017,5.5,W,D,S*59
$GPHDT,,T*1B
$GPGGA,053549.10,3010.98637812,N,12008.33964609,E,4,20,0.7,9.058,M,7.232,M,1.1,2589*7E
$GPRMC,053549.10,A,3010.98637812,N,12008.33964609,E,0.03,283.40,181017,5.5,W,D,S*57
$GPHDT,,T*1B
$GPGGA,053549.15,3010.98637841,N,12008.33964562,E,4,20,0.7,9.059,M,7.232,M,1.1,2589*72
$GPRMC,053549.15,A,3010.98637841,N,12008.33964562,E,0.06,299.83,181017,5.5,W,D,S*5B
$GPHDT,,T*1B
$GPGGA,053549.20,3010.98637848,N,12008.33964554,E,4,20,0.7,9.058,M,7.232,M,1.2,2589*7A
$GPRMC,053549.20,A,3010.98637848,N,12008.33964554,E,0.03,119.11,181017,5.5,W,D,S*54
$GPHDT,,T*1B
$GPGGA,053549.25,3010.98637817,N,12008.33964613,E,4,20,0.7,9.059,M,7.232,M,1.2,2589*74
$GPRMC,053549.25,A,3010.98637817,N,12008.33964613,E,0.03,141.49,181017,5.5,W,D,S*5B
$GPHDT,,T*1B
$GPGGA,053549.30,3010.98637791,N,12008.33964577,E,4,20,0.7,9.056,M,7.232,M,0.3,2589*7F
$GPRMC,053549.30,A,3010.98637791,N,12008.33964577,E,0.05,253.20,181017,5.5,W,D,S*56
$GPHDT,,T*1B
$GPGGA,053549.35,3010.98637776,N,12008.33964592,E,4,20,0.7,9.056,M,7.232,M,0.3,2589*78
$GPRMC,053549.35,A,3010.98637776,N,12008.33964592,E,0.05,94.49,181017,5.5,W,D,S*67
$GPHDT,,T*1B
$GPGGA,053549.40,3010.98637738,N,12008.33964622,E,4,20,0.7,9.055,M,7.232,M,0.4,2589*7C
$GPRMC,053549.40,A,3010.98637738,N,12008.33964622,E,0.05,193.98,181017,5.5,W,D,S*5D
$GPHDT,,T*1B
$GPGGA,053549.45,3010.98637750,N,12008.33964618,E,4,20,0.7,9.054,M,7.232,M,0.4,2589*7F
$GPRMC,053549.45,A,3010.98637750,N,12008.33964618,E,0.05,16.03,181017,5.5,W,D,S*61
$GPHDT,,T*1B
$GPGGA,053549.50,3010.98637798,N,12008.33964554,E,4,20,0.7,9.053,M,7.232,M,0.5,2589*72
$GPRMC,053549.50,A,3010.98637798,N,12008.33964554,E,0.09,274.94,181017,5.5,W,D,S*5E
$GPHDT,,T*1B
$GPGGA,053549.55,3010.98637812,N,12008.33964549,E,4,20,0.7,9.054,M,7.232,M,0.5,2589*71
$GPRMC,053549.55,A,3010.98637812,N,12008.33964549,E,0.05,68.15,181017,5.5,W,D,S*60
$GPHDT,,T*1B
$GPGGA,053549.60,3010.98637851,N,12008.33964568,E,4,20,0.7,9.053,M,7.232,M,0.6,2589*77
$GPRMC,053549.60,A,3010.98637851,N,12008.33964568,E,0.04,322.42,181017,5.5,W,D,S*5C
$GPHDT,,T*1B
$GPGGA,053549.65,3010.98637860,N,12008.33964513,E,4,20,0.7,9.051,M,7.232,M,0.6,2589*7E
$GPRMC,053549.65,A,3010.98637860,N,12008.33964513,E,0.06,254.80,181017,5.5,W,D,S*5B
$GPHDT,,T*1B
$GPGGA,053549.70,3010.98637822,N,12008.33964535,E,4,20,0.7,9.054,M,7.232,M,0.7,2589*7C
$GPRMC,053549.70,A,3010.98637822,N,12008.33964535,E,0.05,114.84,181017,5.5,W,D,S*5D
$GPHDT,,T*1B
$GPGGA,053549.75,3010.98637831,N,12008.33964545,E,4,20,0.7,9.053,M,7.232,M,0.7,2589*7B
$GPRMC,053549.75,A,3010.98637831,N,12008.33964545,E,0.06,319.53,181017,5.5,W,D,S*5B
$GPHDT,,T*1B
$GPGGA,053549.80,3010.98637831,N,12008.33964515,E,4,20,0.7,9.053,M,7.232,M,0.8,2589*7B
$GPRMC,053549.80,A,3010.98637831,N,12008.33964515,E,0.04,220.78,181017,5.5,W,D,S*54
$GPHDT,,T*1B
