$GPHDT,,T*1B
$GPGGA,060249.25,3010.88824165,N,12008.35072407,E,4,19,0.9,9.440,M,7.233,M,1.3,2589*75
$GPRMC,060249.25,A,3010.88824165,N,12008.35072407,E,0.05,220.84,181017,5.5,W,D,S*51
$GPHDT,,T*1B
$GPGGA,060249.30,3010.88824168,N,12008.35072402,E,4,19,0.9,9.439,M,7.233,M,0.3,2589*76
$GPRMC,060249.30,A,3010.88824168,N,12008.35072402,E,0.01,81.77,181017,5.5,W,D,S*6C
$GPHDT,,T*1B
$GPGGA,060249.35,3010.88824214,N,12008.35072387,E,4,19,0.9,9.440,M,7.233,M,0.4,2589*78
$GPRMC,060249.35,A,3010.88824214,N,12008.35072387,E,0.07,4.26,181017,5.5,W,D,S*54
$GPHDT,,T*1B
$GPGGA,060249.40,3010.88824143,N,12008.35072304,E,4,19,0.9,9.441,M,7.233,M,0.4,2589*71
$GPRMC,060249.40,A,3010.88824143,N,12008.35072304,E,0.16,207.45,181017,5.5,W,D,S*58
$GPHDT,,T*1B
$GPGGA,060249.45,3010.88824079,N,12008.35072246,E,4,19,0.9,9.443,M,7.233,M,0.5,2589*78
$GPRMC,060249.45,A,3010.88824079,N,12008.35072246,E,0.04,32.91,181017,5.5,W,D,S*6C
$GPHDT,,T*1B
$GPGGA,060249.50,3010.88824131,N,12008.35072259,E,4,19,0.9,9.445,M,7.233,M,0.5,2589*79
$GPRMC,060249.50,A,3010.88824131,N,12008.35072259,E,0.04,21.41,181017,5.5,W,D,S*64
$GPHDT,,T*1B
$GPGGA,060249.55,3010.88824170,N,12008.35072309,E,4,19,0.9,9.443,M,7.233,M,0.6,2589*78
$GPRMC,060249.55,A,3010.88824170,N,12008.35072309,E,0.04,124.55,181017,5.5,W,D,S*51
$GPHDT,,T*1B
$GPGGA,060249.60,3010.88824173,N,12008.35072286,E,4,19,0.9,9.446,M,7.233,M,0.6,2589*7E
$GPRMC,060249.60,A,3010.88824173,N,12008.35072286,E,0.04,354.03,181017,5.5,W,D,S*54
$GPHDT,,T*1B
$GPGGA,060249.65,3010.88824212,N,12008.35072242,E,4,19,0.9,9.449,M,7.233,M,0.7,2589*79
$GPRMC,060249.65,A,3010.88824212,N,12008.35072242,E,0.03,327.57,181017,5.5,W,D,S*5F
$GPHDT,,T*1B
$GPGGA,060249.70,3010.88824220,N,12008.35072313,E,4,19,0.9,9.448,M,7.233,M,0.7,2589*78
$GPRMC,060249.70,A,3010.88824220,N,12008.35072313,E,0.08,112.05,181017,5.5,W,D,S*57
$GPHDT,,T*1B
$GPGGA,060249.75,3010.88824182,N,12008.35072295,E,4,19,0.9,9.446,M,7.233,M,0.8,2589*78
$GPRMC,060249.75,A,3010.88824182,N,12008.35072295,E,0.11,241.34,181017,5.5,W,D,S*59
$GPHDT,,T*1B
$GPGGA,060249.80,3010.88824123,N,12008.35072187,E,4,19,0.9,9.446,M,7.233,M,0.8,2589*79
$GPRMC,060249.80,A,3010.88824123,N,12008.35072187,E,0.06,207.90,181017,5.5,W,D,S*52
$GPHDT,,T*1B
$GPGGA,060249.85,3010.88824162,N,12008.35072194,E,4,19,0.9,9.446,M,7.233,M,0.9,2589*7A
$GPRMC,060249.85,A,3010.88824162,N,12008.35072194,E,0.08,20.24,181017,5.5,W,D,S*66
$GPHDT,,T*1B
$GPGGA,060249.90,3010.88824175,N,12008.35072207,E,4,19,0.9,9.448,M,7.233,M,0.9,2589*7F
$GPRMC,060249.90,A,3010.88824175,N,12008.35072207,E,0.04,161.72,181017,5.5,W,D,S*56
$GPHDT,,T*1B
$GPGGA,060249.95,3010.88824151,N,12008.35072187,E,4,19,0.9,9.448,M,7.233,M,1.0,2589*7F
$GPRMC,060249.95,A,3010.88824151,N,12008.35072187,E,0.02,265.91,181017,5.5,W,D,S*52
$GPHDT,,T*1B
$GPGGA,060250.00,3010.88824226,N,12008.35072161,E,4,19,0.9,9.453,M,7.233,M,1.0,2589*7A
$GPRMC,060250.00,A,3010.88824226,N,12008.35072161,E,0.13,13.12,181017,5.5,W,D,S*65
$GPHDT,,T*1B
$GPGGA,060250.05,3010.88824316,N,12008.35072220,E,4,19,0.9,9.450,M,7.233,M,1.1,2589*79
$GPRMC,060250.05,A,3010.88824316,N,12008.35072220,E,0.04,163.26,181017,5.5,W,D,S*53
$GPHDT,,T*1B
$GPGGA,060250.10,3010.88824269,N,12008.35072249,E,4,19,0.9,9.450,M,7.233,M,1.1,2589*7B
$GPRMC,060250.10,A,3010.88824269,N,12008.35072249,E,0.05,113.24,181017,5.5,W,D,S*55
$GPHDT,,T*1B
$GPGGA,060250.15,3010.88824225,N,12008.35072275,E,4,19,0.9,9.450,M,7.233,M,1.2,2589*7A
$GPRMC,060250.15,A,3010.88824225,N,12008.35072275,E,0.04,174.24,181017,5.5,W,D,S*57
$GPHDT,,T*1B
$GPGGA,060250.20,3010.88824263,N,12008.35072245,E,4,19,0.9,9.450,M,7.233,M,1.2,2589*7D
$GPRMC,060250.20,A,3010.88824263,N,12008.35072245,E,0.09,351.00,181017,5.5,W,D,S*5E
$GPHDT,,T*1B
$GPGGA,060250.25,3010.88824267,N,12008.35072202,E,4,19,0.9,9.452,M,7.233,M,1.3,2589*7C
$GPRMC,060250.25,A,3010.88824267,N,12008.35072202,E,0.05,195.75,181017,5.5,W,D,S*58
$GPHDT,,T*1B
$GPGGA,060250.30,3010.88824194,N,12008.35072187,E,4,19,0.9,9.451,M,7.233,M,0.3,2589*7B
$GPRMC,060250.30,A,3010.88824194,N,12008.35072187,E,0.04,213.97,181017,5.5,W,D,S*5D
$GPHDT,,T*1B
$GPGGA,060250.35,3010.88824166,N,12008.35072164,E,4,19,0.9,9.451,M,7.233,M,0.4,2589*79
$GPRMC,060250.35,A,3010.88824166,N,12008.35072164,E,0.03,313.43,181017,5.5,W,D,S*57
$GPHDT,,T*1B
$GPGGA,060250.40,3010.88824210,N,12008.35072206,E,4,19,0.9,9.450,M,7.233,M,0.4,2589*7F
$GPRMC,060250.40,A,3010.88824210,N,12008.35072206,E,0.06,27.36,181017,5.5,W,D,S*63
$GPHDT,,T*1B
$GPGGA,060250.45,3010.88824224,N,12008.35072263,E,4,19,0.9,9.449,M,7.233,M,0.5,2589*77
$GPRMC,060250.45,A,3010.88824224,N,12008.35072263,E,0.03,108.18,181017,5.5,W,D,S*57
$GPHDT,,T*1B
$GPGGA,060250.50,3010.88824150,N,12008.35072266,E,4,19,0.9,9.448,M,7.233,M,0.5,2589*77
$GPRMC,060250.50,A,3010.88824150,N,12008.35072266,E,0.08,203.94,181017,5.5,W,D,S*51
$GPHDT,,T*1B
$GPGGA,060250.55,3010.88824080,N,12008.35072252,E,4,19,0.9,9.448,M,7.233,M,0.6,2589*7A
$GPRMC,060250.55,A,3010.88824080,N,12008.35072252,E,0.03,194.52,181017,5.5,W,D,S*53
$GPHDT,,T*1B
$GPGGA,060250.60,3010.88824053,N,12008.35072252,E,4,19,0.9,9.450,M,7.233,M,0.6,2589*7B
$GPRMC,060250.60,A,3010.88824053,N,12008.35072252,E,0.03,46.19,181017,5.5,W,D,S*6A
$GPHDT,,T*1B
$GPGGA,060250.65,3010.88824038,N,12008.35072272,E,4,19,0.9,9.454,M,7.233,M,0.7,2589*74
$GPRMC,060250.65,A,3010.88824038,N,12008.35072272,E,0.02,85.50,181017,5.5,W,D,S*63
$GPHDT,,T*1B
$GPGGA,060250.70,3010.88824068,N,12008.35072294,E,4,19,0.9,9.448,M,7.233,M,0.7,2589*70
$GPRMC,060250.70,A,3010.88824068,N,12008.35072294,E,0.07,248.02,181017,5.5,W,D,S*5B
$GPHDT,,T*1B
$GPGGA,060250.75,3010.88824047,N,12008.35072254,E,4,19,0.9,9.449,M,7.233,M,0.8,2589*7A
$GPRMC,060250.75,A,3010.88824047,N,12008.35072254,E,0.04,42.59,181017,5.5,W,D,S*6A
$GPHDT,,T*1B
$GPGGA,060250.80,3010.88824064,N,12008.35072280,E,4,19,0.9,9.451,M,7.233,M,0.8,2589*71
$GPRMC,060250.80,A,3010.88824064,N,12008.35072280,E,0.04,24.32,181017,5.5,W,D,S*65
$GPHDT,,T*1B
$GPGGA,060250.85,3010.88824113,N,12008.35072354,E,4,19,0.9,9.449,M,7.233,M,0.9,2589*75
$GPRMC,060250.85,A,3010.88824113,N,12008.35072354,E,0.05,44.40,181017,5.5,W,D,S*6B
$GPHDT,,T*1B
$GPGGA,060250.90,3010.88824062,N,12008.35072334,E,4,19,0.9,9.452,M,7.233,M,0.9,2589*7A
$GPRMC,060250.90,A,3010.88824062,N,12008.35072334,E,0.06,206.06,181017,5.5,W,D,S*5B
$GPHDT,,T*1B
$GPGGA,060250.95,3010.88824012,N,12008.35072320,E,4,19,0.9,9.449,M,7.233,M,1.0,2589*7F
$GPRMC,060250.95,A,3010.88824012,N,12008.35072320,E,0.06,207.76,181017,5.5,W,D,S*5A
$GPHDT,,T*1B
$GPGGA,060251.00,3010.88824046,N,12008.35072343,E,4,19,0.9,9.450,M,7.233,M,1.0,2589*7E
$GPRMC,060251.00,A,3010.88824046,N,12008.35072343,E,0.13,26.29,181017,5.5,W,D,S*6C
$GPHDT,,T*1B
$GPGGA,060251.05,3010.88824141,N,12008.35072355,E,4,19,0.9,9.450,M,7.233,M,1.1,2589*7B
$GPRMC,060251.05,A,3010.88824141,N,12008.35072355,E,0.05,309.54,181017,5.5,W,D,S*5B
$GPHDT,,T*1B
$GPGGA,060251.10,3010.88824067,N,12008.35072324,E,4,19,0.9,9.450,M,7.233,M,1.1,2589*7C
$GPRMC,060251.10,A,3010.88824067,N,12008.35072324,E,0.09,176.03,181017,5.5,W,D,S*58
$GPHDT,,T*1B
$GPGGA,060251.15,3010.88824059,N,12008.35072371,E,4,19,0.9,9.449,M,7.233,M,1.2,2589*7F
$GPRMC,060251.15,A,3010.88824059,N,12008.35072371,E,0.07,27.23,181017,5.5,W,D,S*69
$GPHDT,,T*1B
$GPGGA,060251.20,3010.88824126,N,12008.35072400,E,4,19,0.9,9.448,M,7.233,M,1.2,2589*70
$GPRMC,060251.20,A,3010.88824126,N,12008.35072400,E,0.03,356.29,181017,5.5,W,D,S*5C
$GPHDT,,T*1B
$GPGGA,060251.25,3010.88824090,N,12008.35072422,E,4,19,0.9,9.449,M,7.233,M,1.3,2589*79
$GPRMC,060251.25,A,3010.88824090,N,12008.35072422,E,0.06,130.67,181017,5.5,W,D,S*58
$GPHDT,,T*1B
$GPGGA,060251.30,3010.88824119,N,12008.35072460,E,4,19,0.9,9.448,M,7.233,M,0.3,2589*7B
$GPRMC,060251.30,A,3010.88824119,N,12008.35072460,E,0.03,356.72,181017,5.5,W,D,S*59
$GPHDT,,T*1B
$GPGGA,060251.35,3010.88824102,N,12008.35072421,E,4,19,0.9,9.448,M,7.233,M,0.4,2589*76
$GPRMC,060251.35,A,3010.88824102,N,12008.35072421,E,0.08,203.23,181017,5.5,W,D,S*5D
$GPHDT,,T*1B
$GPGGA,060251.40,3010.88824124,N,12008.35072408,E,4,19,0.9,9.449,M,7.233,M,0.4,2589*7A
$GPRMC,060251.40,A,3010.88824124,N,12008.35072408,E,0.08,19.43,181017,5.5,W,D,S*6F
$GPHDT,,T*1B
$GPGGA,060251.45,3010.88824184,N,12008.35072445,E,4,19,0.9,9.447,M,7.233,M,0.5,2589*73
$GPRMC,060251.45,A,3010.88824184,N,12008.35072445,E,0.01,104.51,181017,5.5,W,D,S*5E
$GPHDT,,T*1B
$GPGGA,060251.50,3010.88824211,N,12008.35072444,E,4,19,0.9,9.448,M,7.233,M,0.5,2589*76
$GPRMC,060251.50,A,3010.88824211,N,12008.35072444,E,0.05,16.82,181017,5.5,W,D,S*6C
$GPHDT,,T*1B
$GPGGA,060251.55,3010.88824232,N,12008.35072433,E,4,19,0.9,9.449,M,7.233,M,0.6,2589*70
$GPRMC,060251.55,A,3010.88824232,N,12008.35072433,E,0.02,220.03,181017,5.5,W,D,S*51
$GPHDT,,T*1B
$GPGGA,060251.60,3010.88824210,N,12008.35072411,E,4,19,0.9,9.448,M,7.233,M,0.6,2589*77
$GPRMC,060251.60,A,3010.88824210,N,12008.35072411,E,0.04,206.07,181017,5.5,W,D,S*51
$GPHDT,,T*1B
$GPGGA,060251.65,3010.88824280,N,12008.35072398,E,4,19,0.9,9.448,M,7.233,M,0.7,2589*7C
$GPRMC,060251.65,A,3010.88824280,N,12008.35072398,E,0.12,2.56,181017,5.5,W,D,S*5E
$GPHDT,,T*1B
$GPGGA,060251.70,3010.88824312,N,12008.35072398,E,4,19,0.9,9.450,M,7.233,M,0.7,2589*7B
$GPRMC,060251.70,A,3010.88824312,N,12008.35072398,E,0.04,168.10,181017,5.5,W,D,S*58
$GPHDT,,T*1B
$GPGGA,060251.75,3010.88824298,N,12008.35072443,E,4,19,0.9,9.446,M,7.233,M,0.8,2589*74
$GPRMC,060251.75,A,3010.88824298,N,12008.35072443,E,0.03,148.20,181017,5.5,W,D,S*59
$GPHDT,,T*1B
$GPGGA,060251.80,3010.88824276,N,12008.35072442,E,4,19,0.9,9.447,M,7.233,M,0.8,2589*7E
$GPRMC,060251.80,A,3010.88824276,N,12008.35072442,E,0.02,48.31,181017,5.5,W,D,S*62
$GPHDT,,T*1B
$GPGGA,060251.85,3010.88824261,N,12008.35072411,E,4,19,0.9,9.448,M,7.233,M,0.8,2589*74
$GPRMC,060251.85,A,3010.88824261,N,12008.35072411,E,0.03,236.76,181017,5.5,W,D,S*5E
$GPHDT,,T*1B
$GPGGA,060251.90,3010.88824267,N,12008.35072363,E,4,19,0.9,9.451,M,7.233,M,0.9,2589*7D
$GPRMC,060251.90,A,3010.88824267,N,12008.35072363,E,0.04,347.53,181017,5.5,W,D,S*59
$GPHDT,,T*1B
$GPGGA,060251.95,3010.88824260,N,12008.35072401,E,4,19,0.9,9.450,M,7.233,M,1.0,2589*75
$GPRMC,060251.95,A,3010.88824260,N,12008.35072401,E,0.07,143.49,181017,5.5,W,D,S*56
$GPHDT,,T*1B
$GPGGA,060252.00,3010.88824279,N,12008.35072436,E,4,19,0.9,9.448,M,7.233,M,1.0,2589*7F
$GPRMC,060252.00,A,3010.88824279,N,12008.35072436,E,0.05,341.64,181017,5.5,W,D,S*58
$GPHDT,,T*1B
$GPGGA,060252.05,3010.88824312,N,12008.35072412,E,4,19,0.9,9.445,M,7.233,M,1.1,2589*7C
$GPRMC,060252.05,A,3010.88824312,N,12008.35072412,E,0.03,258.21,181017,5.5,W,D,S*59
$GPHDT,,T*1B
$GPGGA,060252.10,3010.88824284,N,12008.35072389,E,4,19,0.9,9.445,M,7.233,M,1.1,2589*73
$GPRMC,060252.10,A,3010.88824284,N,12008.35072389,E,0.03,129.52,181017,5.5,W,D,S*57
$GPHDT,,T*1B
$GPGGA,060252.15,3010.88824272,N,12008.35072453,E,4,19,0.9,9.444,M,7.233,M,1.2,2589*7D
$GPRMC,060252.15,A,3010.88824272,N,12008.35072453,E,0.05,102.08,181017,5.5,W,D,S*5B
$GPHDT,,T*1B
$GPGGA,060252.20,3010.88824266,N,12008.35072421,E,4,19,0.9,9.449,M,7.233,M,1.2,2589*76
$GPRMC,060252.20,A,3010.88824266,N,12008.35072421,E,0.06,308.69,181017,5.5,W,D,S*51
$GPHDT,,T*1B
$GPGGA,060252.25,3010.88824269,N,12008.35072442,E,4,19,0.9,9.446,M,7.233,M,1.3,2589*77
$GPRMC,060252.25,A,3010.88824269,N,12008.35072442,E,0.08,165.90,181017,5.5,W,D,S*5F
$GPHDT,,T*1B
$GPGGA,060252.30,3010.88824183,N,12008.35072450,E,4,19,0.9,9.446,M,7.233,M,0.3,2589*76
$GPRMC,060252.30,A,3010.88824183,N,12008.35072450,E,0.03,146.62,181017,5.5,W,D,S*58
$GPHDT,,T*1B
$GPGGA,060252.35,3010.88824141,N,12008.35072419,E,4,19,0.9,9.447,M,7.233,M,0.4,2589*76
$GPRMC,060252.35,A,3010.88824141,N,12008.35072419,E,0.04,237.36,181017,5.5,W,D,S*5D
$GPHDT,,T*1B
$GPGGA,060252.40,3010.88824147,N,12008.35072370,E,4,19,0.9,9.450,M,7.233,M,0.4,2589*7C
$GPRMC,060252.40,A,3010.88824147,N,12008.35072370,E,0.08,6.84,181017,5.5,W,D,S*54
$GPHDT,,T*1B
$GPGGA,060252.45,3010.88824228,N,12008.35072432,E,4,19,0.9,9.447,M,7.233,M,0.5,2589*75
$GPRMC,060252.45,A,3010.88824228,N,12008.35072432,E,0.06,69.42,181017,5.5,W,D,S*67
$GPHDT,,T*1B
$GPGGA,060252.50,3010.88824197,N,12008.35072435,E,4,19,0.9,9.449,M,7.233,M,0.5,2589*7F
$GPRMC,060252.50,A,3010.88824197,N,12008.35072435,E,0.03,210.32,181017,5.5,W,D,S*5D
$GPHDT,,T*1B
$GPGGA,060252.55,3010.88824178,N,12008.35072412,E,4,19,0.9,9.447,M,7.233,M,0.6,2589*73
$GPRMC,060252.55,A,3010.88824178,N,12008.35072412,E,0.02,231.05,181017,5.5,W,D,S*5A
$GPHDT,,T*1B
$GPGGA,060252.60,3010.88824166,N,12008.35072422,E,4,19,0.9,9.450,M,7.233,M,0.6,2589*7F
$GPRMC,060252.60,A,3010.88824166,N,12008.35072422,E,0.06,65.31,181017,5.5,W,D,S*60
$GPHDT,,T*1B
$GPGGA,060252.65,3010.88824135,N,12008.35072415,E,4,19,0.9,9.448,M,7.233,M,0.7,2589*70
$GPRMC,060252.65,A,3010.88824135,N,12008.35072415,E,0.09,223.77,181017,5.5,W,D,S*5A
$GPHDT,,T*1B
$GPGGA,060252.70,3010.88824086,N,12008.35072350,E,4,19,0.9,9.447,M,7.233,M,0.7,2589*74
$GPRMC,060252.70,A,3010.88824086,N,12008.35072350,E,0.03,258.58,181017,5.5,W,D,S*5A
$GPHDT,,T*1B
$GPGGA,060252.75,3010.88824079,N,12008.35072301,E,4,19,0.9,9.447,M,7.233,M,0.8,2589*7A
$GPRMC,060252.75,A,3010.88824079,N,12008.35072301,E,0.03,292.89,181017,5.5,W,D,S*51
$GPHDT,,T*1B
$GPGGA,060252.80,3010.88824112,N,12008.35072327,E,4,19,0.9,9.449,M,7.233,M,0.8,2589*76
$GPRMC,060252.80,A,3010.88824112,N,12008.35072327,E,0.09,45.88,181017,5.5,W,D,S*60
$GPHDT,,T*1B
$GPGGA,060252.85,3010.88824129,N,12008.35072392,E,4,19,0.9,9.448,M,7.233,M,0.9,2589*75
$GPRMC,060252.85,A,3010.88824129,N,12008.35072392,E,0.04,158.81,181017,5.5,W,D,S*5A
$GPHDT,,T*1B
$GPGGA,060252.90,3010.88824060,N,12008.35072359,E,4,19,0.9,9.446,M,7.233,M,0.9,2589*74
$GPRMC,060252.90,A,3010.88824060,N,12008.35072359,E,0.07,222.12,181017,5.5,W,D,S*52
$GPHDT,,T*1B
$GPGGA,060252.95,3010.88824018,N,12008.35072277,E,4,19,0.9,9.445,M,7.233,M,1.0,2589*78
$GPRMC,060252.95,A,3010.88824018,N,12008.35072277,E,0.05,265.62,181017,5.5,W,D,S*53
$GPHDT,,T*1B
$GPGGA,060253.00,3010.88824042,N,12008.35072253,E,4,19,0.9,9.444,M,7.233,M,1.0,2589*7D
$GPRMC,060253.00,A,3010.88824042,N,12008.35072253,E,0.07,26.60,181017,5.5,W,D,S*62
$GPHDT,,T*1B
$GPGGA,060253.05,3010.88824032,N,12008.35072281,E,4,19,0.9,9.446,M,7.233,M,1.1,2589*73
$GPRMC,060253.05,A,3010.88824032,N,12008.35072281,E,0.04,126.72,181017,5.5,W,D,S*5E
$GPHDT,,T*1B
$GPGGA,060253.10,3010.88824013,N,12008.35072284,E,4,19,0.9,9.446,M,7.233,M,1.1,2589*71
$GPRMC,060253.10,A,3010.88824013,N,12008.35072284,E,0.01,299.69,181017,5.5,W,D,S*54
$GPHDT,,T*1B
$GPGGA,060253.15,3010.88823980,N,12008.35072292,E,4,19,0.9,9.443,M,7.233,M,1.1,2589*72
$GPRMC,060253.15,A,3010.88823980,N,12008.35072292,E,0.07,193.82,181017,5.5,W,D,S*58
$GPHDT,,T*1B
$GPGGA,060253.20,3010.88823889,N,12008.35072198,E,4,19,0.9,9.445,M,7.233,M,1.2,2589*70
$GPRMC,060253.20,A,3010.88823889,N,12008.35072198,E,0.06,246.57,181017,5.5,W,D,S*5D
$GPHDT,,T*1B
$GPGGA,060253.25,3010.88823883,N,12008.35072221,E,4,19,0.9,9.443,M,7.233,M,1.3,2589*79
$GPRMC,060253.25,A,3010.88823883,N,12008.35072221,E,0.07,80.98,181017,5.5,W,D,S*69
$GPHDT,,T*1B
$GPGGA,060253.30,3010.88823833,N,12008.35072224,E,4,19,0.9,9.448,M,7.233,M,0.3,2589*79
$GPRMC,060253.30,A,3010.88823833,N,12008.35072224,E,0.04,170.97,181017,5.5,W,D,S*51
$GPHDT,,T*1B
$GPGGA,060253.35,3010.88823886,N,12008.35072252,E,4,19,0.9,9.444,M,7.233,M,0.4,2589*78
$GPRMC,060253.35,A,3010.88823886,N,12008.35072252,E,0.05,339.42,181017,5.5,W,D,S*5D
$GPHDT,,T*1B
$GPGGA,060253.40,3010.88823931,N,12008.35072229,E,4,19,0.9,9.447,M,7.233,M,0.4,2589*78
$GPRMC,060253.40,A,3010.88823931,N,12008.35072229,E,0.06,47.93,181017,5.5,W,D,S*6B
$GPHDT,,T*1B
$GPGGA,060253.45,3010.88823955,N,12008.35072277,E,4,19,0.9,9.444,M,7.233,M,0.5,2589*76
$GPRMC,060253.45,A,3010.88823955,N,12008.35072277,E,0.05,189.05,181017,5.5,W,D,S*58
$GPHDT,,T*1B
$GPGGA,060253.50,3010.88823918,N,12008.35072200,E,4,19,0.9,9.450,M,7.233,M,0.5,2589*7E
$GPRMC,060253.50,A,3010.88823918,N,12008.35072200,E,0.04,355.68,181017,5.5,W,D,S*5C
$GPHDT,,T*1B
$GPGGA,060253.55,3010.88823960,N,12008.35072221,E,4,19,0.9,9.448,M,7.233,M,0.6,2589*7D
$GPRMC,060253.55,A,3010.88823960,N,12008.35072221,E,0.02,178.90,181017,5.5,W,D,S*59
$GPHDT,,T*1B
$GPGGA,060253.60,3010.88823864,N,12008.35072138,E,4,19,0.9,9.451,M,7.233,M,0.6,2589*7D
$GPRMC,060253.60,A,3010.88823864,N,12008.35072138,E,0.07,215.97,181017,5.5,W,D,S*5B
$GPHDT,,T*1B
$GPGGA,060253.65,3010.88823888,N,12008.35072137,E,4,19,0.9,9.451,M,7.233,M,0.7,2589*74
$GPRMC,060253.65,A,3010.88823888,N,12008.35072137,E,0.07,19.07,181017,5.5,W,D,S*64
$GPHDT,,T*1B
$GPGGA,060253.70,3010.88823960,N,12008.35072137,E,4,19,0.9,9.453,M,7.233,M,0.7,2589*75
$GPRMC,060253.70,A,3010.88823960,N,12008.35072137,E,0.05,353.86,181017,5.5,W,D,S*51
$GPHDT,,T*1B
$GPGGA,060253.75,3010.88824036,N,12008.35072156,E,4,19,0.9,9.453,M,7.233,M,0.8,2589*75
$GPRMC,060253.75,A,3010.88824036,N,12008.35072156,E,0.04,15.81,181017,5.5,W,D,S*69
$GPHDT,,T*1B
$GPGGA,060253.80,3010.88823990,N,12008.35072182,E,4,19,0.9,9.452,M,7.233,M,0.8,2589*75
$GPRMC,060253.80,A,3010.88823990,N,12008.35072182,E,0.10,175.74,181017,5.5,W,D,S*50
$GPHDT,,T*1B
$GPGGA,060253.85,3010.88823984,N,12008.35072175,E,4,19,0.9,9.452,M,7.233,M,0.9,2589*7C
$GPRMC,060253.85,A,3010.88823984,N,12008.35072175,E,0.08,355.44,181017,5.5,W,D,S*52
$GPHDT,,T*1B
$GPGGA,060253.90,3010.88824082,N,12008.35072257,E,4,19,0.9,9.452,M,7.233,M,0.9,2589*73
$GPRMC,060253.90,A,3010.88824082,N,12008.35072257,E,0.11,58.41,181017,5.5,W,D,S*6E
$GPHDT,,T*1B
$GPGGA,060253.95,3010.88824062,N,12008.35072241,E,4,19,0.9,9.453,M,7.233,M,1.0,2589*76
$GPRMC,060253.95,A,3010.88824062,N,12008.35072241,E,0.09,233.46,181017,5.5,W,D,S*53
$GPHDT,,T*1B
$GPGGA,060254.00,3010.88823998,N,12008.35072141,E,4,19,0.9,9.456,M,7.233,M,1.0,2589*70
$GPRMC,060254.00,A,3010.88823998,N,12008.35072141,E,0.04,256.48,181017,5.5,W,D,S*50
$GPHDT,,T*1B
$GPGGA,060254.05,3010.88823980,N,12008.35072054,E,4,19,0.9,9.457,M,7.233,M,1.1,2589*79
$GPRMC,060254.05,A,3010.88823980,N,12008.35072054,E,0.08,258.79,181017,5.5,W,D,S*59
$GPHDT,,T*1B
$GPGGA,060254.10,3010.88823949,N,12008.35072053,E,4,19,0.9,9.455,M,7.233,M,1.1,2589*7D
$GPRMC,060254.10,A,3010.88823949,N,12008.35072053,E,0.07,152.16,181017,5.5,W,D,S*50
$GPHDT,,T*1B
$GPGGA,060254.15,3010.88823951,N,12008.35072103,E,4,19,0.9,9.456,M,7.233,M,1.2,2589*75
$GPRMC,060254.15,A,3010.88823951,N,12008.35072103,E,0.06,25.23,181017,5.5,W,D,S*6E
$GPHDT,,T*1B
$GPGGA,060254.20,3010.88823979,N,12008.35072166,E,4,19,0.9,9.453,M,7.233,M,1.2,2589*7F
$GPRMC,060254.20,A,3010.88823979,N,12008.35072166,E,0.04,158.06,181017,5.5,W,D,S*5F
$GPHDT,,T*1B
$GPGGA,060254.25,3010.88823989,N,12008.35072142,E,4,19,0.9,9.454,M,7.233,M,1.3,2589*75
$GPRMC,060254.25,A,3010.88823989,N,12008.35072142,E,0.07,327.69,181017,5.5,W,D,S*53
$GPHDT,,T*1B
$GPGGA,060254.30,3010.88823977,N,12008.35072096,E,4,19,0.9,9.454,M,7.233,M,0.3,2589*79
$GPRMC,060254.30,A,3010.88823977,N,12008.35072096,E,0.09,210.24,181017,5.5,W,D,S*5C
$GPHDT,,T*1B
$GPGGA,060254.35,3010.88824032,N,12008.35072114,E,4,19,0.9,9.454,M,7.233,M,0.4,2589*7F
$GPRMC,060254.35,A,3010.88824032,N,12008.35072114,E,0.13,18.84,181017,5.5,W,D,S*66
$GPHDT,,T*1B
$GPGGA,060254.40,3010.88824098,N,12008.35072193,E,4,19,0.9,9.452,M,7.233,M,0.4,2589*74
$GPRMC,060254.40,A,3010.88824098,N,12008.35072193,E,0.05,172.55,181017,5.5,W,D,S*5D
$GPHDT,,T*1B
$GPGGA,060254.45,3010.88824089,N,12008.35072271,E,4,19,0.9,9.449,M,7.233,M,0.5,2589*75
$GPRMC,060254.45,A,3010.88824089,N,12008.35072271,E,0.04,89.99,181017,5.5,W,D,S*63
$GPHDT,,T*1B
$GPGGA,060254.50,3010.88824037,N,12008.35072276,E,4,19,0.9,9.451,M,7.233,M,0.5,2589*7A
$GPRMC,060254.50,A,3010.88824037,N,12008.35072276,E,0.04,195.95,181017,5.5,W,D,S*55
$GPHDT,,T*1B
$GPGGA,060254.55,3010.88824005,N,12008.35072275,E,4,19,0.9,9.452,M,7.233,M,0.6,2589*7D
$GPRMC,060254.55,A,3010.88824005,N,12008.35072275,E,0.04,211.75,181017,5.5,W,D,S*53
$GPHDT,,T*1B
$GPGGA,060254.60,3010.88823965,N,12008.35072266,E,4,19,0.9,9.451,M,7.233,M,0.6,2589*72
$GPRMC,060254.60,A,3010.88823965,N,12008.35072266,E,0.05,200.87,181017,5.5,W,D,S*53
$GPHDT,,T*1B
$GPGGA,060254.65,3010.88824115,N,12008.35072398,E,4,19,0.9,9.448,M,7.233,M,0.7,2589*76
$GPRMC,060254.65,A,3010.88824115,N,12008.35072398,E,0.22,30.55,181017,5.5,W,D,S*65
$GPHDT,,T*1B
$GPGGA,060254.70,3010.88824079,N,12008.35072361,E,4,19,0.9,9.450,M,7.233,M,0.7,2589*76
$GPRMC,060254.70,A,3010.88824079,N,12008.35072361,E,0.19,213.33,181017,5.5,W,D,S*57
$GPHDT,,T*1B
$GPGGA,060254.75,3010.88824047,N,12008.35072359,E,4,19,0.9,9.449,M,7.233,M,0.8,2589*72
$GPRMC,060254.75,A,3010.88824047,N,12008.35072359,E,0.09,42.76,181017,5.5,W,D,S*62
$GPHDT,,T*1B
$GPGGA,060254.80,3010.88824049,N,12008.35072356,E,4,19,0.9,9.453,M,7.233,M,0.8,2589*72
$GPRMC,060254.80,A,3010.88824049,N,12008.35072356,E,0.01,304.17,181017,5.5,W,D,S*57
$GPHDT,,T*1B
$GPGGA,060254.85,3010.88824135,N,12008.35072402,E,4,19,0.9,9.451,M,7.233,M,0.9,2589*78
$GPRMC,060254.85,A,3010.88824135,N,12008.35072402,E,0.05,22.01,181017,5.5,W,D,S*6A
$GPHDT,,T*1B
$GPGGA,060254.90,3010.88824085,N,12008.35072388,E,4,19,0.9,9.448,M,7.233,M,0.9,2589*7B
$GPRMC,060254.90,A,3010.88824085,N,12008.35072388,E,0.14,206.82,181017,5.5,W,D,S*5E
$GPHDT,,T*1B
$GPGGA,060254.95,3010.88824018,N,12008.35072360,E,4,19,0.9,9.450,M,7.233,M,1.0,2589*7D
$GPRMC,060254.95,A,3010.88824018,N,12008.35072360,E,0.05,49.63,181017,5.5,W,D,S*6F
$GPHDT,,T*1B
$GPGGA,060255.00,3010.88824044,N,12008.35072432,E,4,19,0.9,9.449,M,7.233,M,1.0,2589*71
$GPRMC,060255.00,A,3010.88824044,N,12008.35072432,E,0.03,117.15,181017,5.5,W,D,S*56
$GPHDT,,T*1B
$GPGGA,060255.05,3010.88824027,N,12008.35072406,E,4,19,0.9,9.447,M,7.233,M,1.1,2589*79
$GPRMC,060255.05,A,3010.88824027,N,12008.35072406,E,0.07,255.09,181017,5.5,W,D,S*5D
$GPHDT,,T*1B
$GPGGA,060255.10,3010.88824041,N,12008.35072366,E,4,19,0.9,9.450,M,7.233,M,1.1,2589*7A
$GPRMC,060255.10,A,3010.88824041,N,12008.35072366,E,0.04,52.27,181017,5.5,W,D,S*62
$GPHDT,,T*1B
$GPGGA,060255.15,3010.88824058,N,12008.35072384,E,4,19,0.9,9.447,M,7.233,M,1.2,2589*7E
$GPRMC,060255.15,A,3010.88824058,N,12008.35072384,E,0.04,230.51,181017,5.5,W,D,S*54
$GPHDT,,T*1B
$GPGGA,060255.20,3010.88823968,N,12008.35072270,E,4,19,0.9,9.451,M,7.233,M,1.2,2589*78
$GPRMC,060255.20,A,3010.88823968,N,12008.35072270,E,0.09,219.25,181017,5.5,W,D,S*50
$GPHDT,,T*1B
$GPGGA,060255.25,3010.88824010,N,12008.35072331,E,4,19,0.9,9.450,M,7.233,M,1.3,2589*78
$GPRMC,060255.25,A,3010.88824010,N,12008.35072331,E,0.12,47.37,181017,5.5,W,D,S*60
$GPHDT,,T*1B
$GPGGA,060255.30,3010.88824026,N,12008.35072353,E,4,19,0.9,9.448,M,7.233,M,0.3,2589*75
$GPRMC,060255.30,A,3010.88824026,N,12008.35072353,E,0.08,210.04,181017,5.5,W,D,S*5E
$GPHDT,,T*1B
$GPGGA,060255.35,3010.88823972,N,12008.35072261,E,4,19,0.9,9.452,M,7.233,M,0.4,2589*73
$GPRMC,060255.35,A,3010.88823972,N,12008.35072261,E,0.03,308.99,181017,5.5,W,D,S*53
$GPHDT,,T*1B
$GPGGA,060255.40,3010.88823994,N,12008.35072219,E,4,19,0.9,9.454,M,7.233,M,0.4,2589*70
$GPRMC,060255.40,A,3010.88823994,N,12008.35072219,E,0.01,283.07,181017,5.5,W,D,S*51
$GPHDT,,T*1B
$GPGGA,060255.45,3010.88824089,N,12008.35072294,E,4,19,0.9,9.449,M,7.233,M,0.5,2589*7F
$GPRMC,060255.45,A,3010.88824089,N,12008.35072294,E,0.05,40.92,181017,5.5,W,D,S*66
$GPHDT,,T*1B
$GPGGA,060255.50,3010.88824050,N,12008.35072273,E,4,19,0.9,9.448,M,7.233,M,0.5,2589*77
$GPRMC,060255.50,A,3010.88824050,N,12008.35072273,E,0.08,207.96,181017,5.5,W,D,S*57
$GPHDT,,T*1B
$GPGGA,060255.55,3010.88823968,N,12008.35072202,E,4,19,0.9,9.452,M,7.233,M,0.6,2589*79
$GPRMC,060255.55,A,3010.88823968,N,12008.35072202,E,0.01,91.82,181017,5.5,W,D,S*60
$GPHDT,,T*1B
$GPGGA,060255.60,3010.88823999,N,12008.35072202,E,4,19,0.9,9.451,M,7.233,M,0.6,2589*72
$GPRMC,060255.60,A,3010.88823999,N,12008.35072202,E,0.03,315.17,181017,5.5,W,D,S*59
$GPHDT,,T*1B
$GPGGA,060255.65,3010.88824043,N,12008.35072284,E,4,19,0.9,9.449,M,7.233,M,0.7,2589*78
$GPRMC,060255.65,A,3010.88824043,N,12008.35072284,E,0.10,78.97,181017,5.5,W,D,S*69
$GPHDT,,T*1B
$GPGGA,060255.70,3010.88824036,N,12008.35072287,E,4,19,0.9,9.454,M,7.233,M,0.7,2589*71
$GPRMC,060255.70,A,3010.88824036,N,12008.35072287,E,0.04,333.71,181017,5.5,W,D,S*5D
$GPHDT,,T*1B
$GPGGA,060255.75,3010.88824078,N,12008.35072246,E,4,19,0.9,9.453,M,7.233,M,0.8,2589*7B
$GPRMC,060255.75,A,3010.88824078,N,12008.35072246,E,0.06,265.55,181017,5.5,W,D,S*59
$GPHDT,,T*1B
$GPGGA,060255.80,3010.88823997,N,12008.35072161,E,4,19,0.9,9.456,M,7.233,M,0.8,2589*7D
$GPRMC,060255.80,A,3010.88823997,N,12008.35072161,E,0.06,184.52,181017,5.5,W,D,S*51
$GPHDT,,T*1B
$GPGGA,060255.85,3010.88824034,N,12008.35072242,E,4,19,0.9,9.454,M,7.233,M,0.9,2589*7E
$GPRMC,060255.85,A,3010.88824034,N,12008.35072242,E,0.08,49.34,181017,5.5,W,D,S*6F
$GPHDT,,T*1B
$GPGGA,060255.90,3010.88824028,N,12008.35072268,E,4,19,0.9,9.455,M,7.233,M,0.9,2589*7E
$GPRMC,060255.90,A,3010.88824028,N,12008.35072268,E,0.04,176.97,181017,5.5,W,D,S*56
$GPHDT,,T*1B
$GPGGA,060255.95,3010.88823986,N,12008.35072222,E,4,19,0.9,9.456,M,7.233,M,1.0,2589*74
$GPRMC,060255.95,A,3010.88823986,N,12008.35072222,E,0.05,237.08,181017,5.5,W,D,S*56
$GPHDT,,T*1B
$GPGGA,060256.00,3010.88823972,N,12008.35072221,E,4,19,0.9,9.454,M,7.233,M,1.0,2589*71
$GPRMC,060256.00,A,3010.88823972,N,12008.35072221,E,0.02,135.06,181017,5.5,W,D,S*59
$GPHDT,,T*1B
$GPGGA,060256.05,3010.88823978,N,12008.35072244,E,4,19,0.9,9.455,M,7.233,M,1.1,2589*7D
$GPRMC,060256.05,A,3010.88823978,N,12008.35072244,E,0.05,38.61,181017,5.5,W,D,S*6F
$GPHDT,,T*1B
$GPGGA,060256.10,3010.88824030,N,12008.35072242,E,4,19,0.9,9.457,M,7.233,M,1.1,2589*7F
$GPRMC,060256.10,A,3010.88824030,N,12008.35072242,E,0.05,339.72,181017,5.5,W,D,S*5F
$GPHDT,,T*1B
$GPGGA,060256.15,3010.88824073,N,12008.35072212,E,4,19,0.9,9.454,M,7.233,M,1.2,2589*78
$GPRMC,060256.15,A,3010.88824073,N,12008.35072212,E,0.04,274.49,181017,5.5,W,D,S*59
$GPHDT,,T*1B
$GPGGA,060256.20,3010.88824004,N,12008.35072133,E,4,19,0.9,9.458,M,7.233,M,1.2,2589*72
$GPRMC,060256.20,A,3010.88824004,N,12008.35072133,E,0.03,178.55,181017,5.5,W,D,S*5A
$GPHDT,,T*1B
$GPGGA,060256.25,3010.88824045,N,12008.35072161,E,4,19,0.9,9.457,M,7.233,M,1.3,2589*7B
$GPRMC,060256.25,A,3010.88824045,N,12008.35072161,E,0.08,11.59,181017,5.5,W,D,S*64
$GPHDT,,T*1B
$GPGGA,060256.30,3010.88824100,N,12008.35072240,E,4,19,0.9,9.453,M,7.233,M,0.3,2589*7A
$GPRMC,060256.30,A,3010.88824100,N,12008.35072240,E,0.04,98.18,181017,5.5,W,D,S*68
$GPHDT,,T*1B
$GPGGA,060256.35,3010.88824027,N,12008.35072166,E,4,19,0.9,9.456,M,7.233,M,0.4,2589*7E
$GPRMC,060256.35,A,3010.88824027,N,12008.35072166,E,0.07,263.17,181017,5.5,W,D,S*54
$GPHDT,,T*1B
$GPGGA,060256.40,3010.88824007,N,12008.35072141,E,4,19,0.9,9.454,M,7.233,M,0.4,2589*79
$GPRMC,060256.40,A,3010.88824007,N,12008.35072141,E,0.04,183.11,181017,5.5,W,D,S*59
$GPHDT,,T*1B
$GPGGA,060256.45,3010.88824003,N,12008.35072195,E,4,19,0.9,9.452,M,7.233,M,0.5,2589*76
$GPRMC,060256.45,A,3010.88824003,N,12008.35072195,E,0.07,59.85,181017,5.5,W,D,S*69
$GPHDT,,T*1B
$GPGGA,060256.50,3010.88823938,N,12008.35072202,E,4,19,0.9,9.453,M,7.233,M,0.5,2589*78
$GPRMC,060256.50,A,3010.88823938,N,12008.35072202,E,0.08,187.63,181017,5.5,W,D,S*53
$GPHDT,,T*1B
$GPGGA,060256.55,3010.88823849,N,12008.35072132,E,4,19,0.9,9.454,M,7.233,M,0.6,2589*7E
$GPRMC,060256.55,A,3010.88823849,N,12008.35072132,E,0.05,248.53,181017,5.5,W,D,S*5F
$GPHDT,,T*1B
$GPGGA,060256.60,3010.88823873,N,12008.35072123,E,4,19,0.9,9.450,M,7.233,M,0.6,2589*75
$GPRMC,060256.60,A,3010.88823873,N,12008.35072123,E,0.01,311.66,181017,5.5,W,D,S*5F
$GPHDT,,T*1B
$GPGGA,060256.65,3010.88823859,N,12008.35072097,E,4,19,0.9,9.452,M,7.233,M,0.7,2589*75
$GPRMC,060256.65,A,3010.88823859,N,12008.35072097,E,0.00,97.76,181017,5.5,W,D,S*61
$GPHDT,,T*1B
$GPGGA,060256.70,3010.88823873,N,12008.35072071,E,4,19,0.9,9.451,M,7.233,M,0.7,2589*72
$GPRMC,060256.70,A,3010.88823873,N,12008.35072071,E,0.05,298.68,181017,5.5,W,D,S*52
$GPHDT,,T*1B
$GPGGA,060256.75,3010.88823823,N,12008.35072003,E,4,19,0.9,9.455,M,7.233,M,0.8,2589*7C
$GPRMC,060256.75,A,3010.88823823,N,12008.35072003,E,0.06,184.42,181017,5.5,W,D,S*52
$GPHDT,,T*1B
$GPGGA,060256.80,3010.88823794,N,12008.35072088,E,4,19,0.9,9.452,M,7.233,M,0.8,2589*71
$GPRMC,060256.80,A,3010.88823794,N,12008.35072088,E,0.06,113.18,181017,5.5,W,D,S*59
$GPHDT,,T*1B
$GPGGA,060256.85,3010.88823798,N,12008.35072089,E,4,19,0.9,9.454,M,7.233,M,0.9,2589*7E
$GPRMC,060256.85,A,3010.88823798,N,12008.35072089,E,0.06,329.95,181017,5.5,W,D,S*5F
$GPHDT,,T*1B
$GPGGA,060256.90,3010.88823858,N,12008.35072097,E,4,19,0.9,9.453,M,7.233,M,0.9,2589*71
$GPRMC,060256.90,A,3010.88823858,N,12008.35072097,E,0.01,83.13,181017,5.5,W,D,S*6D
$GPHDT,,T*1B
$GPGGA,060256.95,3010.88823855,N,12008.35072122,E,4,19,0.9,9.451,M,7.233,M,1.0,2589*7C
$GPRMC,060256.95,A,3010.88823855,N,12008.35072122,E,0.02,150.99,181017,5.5,W,D,S*54
$GPHDT,,T*1B
$GPGGA,060257.00,3010.88823856,N,12008.35072107,E,4,19,0.9,9.451,M,7.233,M,1.0,2589*75
$GPRMC,060257.00,A,3010.88823856,N,12008.35072107,E,0.04,334.11,181017,5.5,W,D,S*5B
$GPHDT,,T*1B
$GPGGA,060257.05,3010.88823849,N,12008.35072107,E,4,19,0.9,9.448,M,7.233,M,1.1,2589*77
$GPRMC,060257.05,A,3010.88823849,N,12008.35072107,E,0.06,184.10,181017,5.5,W,D,S*5A
$GPHDT,,T*1B
$GPGGA,060257.10,3010.88823837,N,12008.35072112,E,4,19,0.9,9.451,M,7.233,M,1.1,2589*76
$GPRMC,060257.10,A,3010.88823837,N,12008.35072112,E,0.10,33.27,181017,5.5,W,D,S*6D
$GPHDT,,T*1B
$GPGGA,060257.15,3010.88823940,N,12008.35072130,E,4,19,0.9,9.452,M,7.233,M,1.2,2589*72
$GPRMC,060257.15,A,3010.88823940,N,12008.35072130,E,0.06,337.60,181017,5.5,W,D,S*5A
$GPHDT,,T*1B
$GPGGA,060257.20,3010.88823929,N,12008.35072099,E,4,19,0.9,9.451,M,7.233,M,1.2,2589*7A
$GPRMC,060257.20,A,3010.88823929,N,12008.35072099,E,0.07,193.13,181017,5.5,W,D,S*58
$GPHDT,,T*1B
$GPGGA,060257.25,3010.88823901,N,12008.35072091,E,4,19,0.9,9.450,M,7.233,M,1.3,2589*7D
$GPRMC,060257.25,A,3010.88823901,N,12008.35072091,E,0.01,221.52,181017,5.5,W,D,S*56
$GPHDT,,T*1B
$GPGGA,060257.30,3010.88823891,N,12008.35072154,E,4,19,0.9,9.451,M,7.233,M,0.3,2589*79
$GPRMC,060257.30,A,3010.88823891,N,12008.35072154,E,0.10,117.10,181017,5.5,W,D,S*52
$GPHDT,,T*1B
$GPGGA,060257.35,3010.88823998,N,12008.35072195,E,4,19,0.9,9.449,M,7.233,M,0.3,2589*70
$GPRMC,060257.35,A,3010.88823998,N,12008.35072195,E,0.11,331.11,181017,5.5,W,D,S*54
$GPHDT,,T*1B
$GPGGA,060257.40,3010.88824004,N,12008.35072078,E,4,19,0.9,9.452,M,7.233,M,0.4,2589*76
$GPRMC,060257.40,A,3010.88824004,N,12008.35072078,E,0.06,220.03,181017,5.5,W,D,S*5B
$GPHDT,,T*1B
$GPGGA,060257.45,3010.88824088,N,12008.35072134,E,4,19,0.9,9.450,M,7.233,M,0.5,2589*7D
$GPRMC,060257.45,A,3010.88824088,N,12008.35072134,E,0.12,35.12,181017,5.5,W,D,S*60
$GPHDT,,T*1B
$GPGGA,060257.50,3010.88824178,N,12008.35072154,E,4,19,0.9,9.449,M,7.233,M,0.5,2589*79
$GPRMC,060257.50,A,3010.88824178,N,12008.35072154,E,0.05,326.17,181017,5.5,W,D,S*5E
$GPHDT,,T*1B
$GPGGA,060257.55,3010.88824273,N,12008.35072163,E,4,19,0.9,9.449,M,7.233,M,0.6,2589*73
$GPRMC,060257.55,A,3010.88824273,N,12008.35072163,E,0.10,29.66,181017,5.5,W,D,S*69
$GPHDT,,T*1B
$GPGGA,060257.60,3010.88824223,N,12008.35072218,E,4,18,0.9,9.450,M,7.233,M,0.6,2589*76
$GPRMC,060257.60,A,3010.88824223,N,12008.35072218,E,0.12,162.11,181017,5.5,W,D,S*59
$GPHDT,,T*1B
$GPGGA,060257.65,3010.88824182,N,12008.35072152,E,4,18,1.0,9.450,M,7.233,M,0.7,2589*7F
$GPRMC,060257.65,A,3010.88824182,N,12008.35072152,E,0.10,301.01,181017,5.5,W,D,S*5D
$GPHDT,,T*1B
$GPGGA,060257.70,3010.88824163,N,12008.35072092,E,4,18,1.0,9.450,M,7.233,M,0.7,2589*79
$GPRMC,060257.70,A,3010.88824163,N,12008.35072092,E,0.08,174.90,181017,5.5,W,D,S*5A
$GPHDT,,T*1B
$GPGGA,060257.75,3010.88824185,N,12008.35072129,E,4,18,1.0,9.448,M,7.233,M,0.8,2589*73
$GPRMC,060257.75,A,3010.88824185,N,12008.35072129,E,0.07,11.65,181017,5.5,W,D,S*61
$GPHDT,,T*1B
$GPGGA,060257.80,3010.88824257,N,12008.35072175,E,4,18,1.0,9.448,M,7.233,M,0.8,2589*7C
$GPRMC,060257.80,A,3010.88824257,N,12008.35072175,E,0.08,45.48,181017,5.5,W,D,S*6F
$GPHDT,,T*1B
$GPGGA,060257.85,3010.88824241,N,12008.35072189,E,4,18,1.0,9.447,M,7.233,M,0.9,2589*73
$GPRMC,060257.85,A,3010.88824241,N,12008.35072189,E,0.07,201.49,181017,5.5,W,D,S*52
$GPHDT,,T*1B
$GPGGA,060257.90,3010.88824134,N,12008.35072145,E,4,18,1.0,9.447,M,7.233,M,0.9,2589*76
$GPRMC,060257.90,A,3010.88824134,N,12008.35072145,E,0.07,192.97,181017,5.5,W,D,S*5D
$GPHDT,,T*1B
$GPGGA,060257.95,3010.88824131,N,12008.35072036,E,4,18,1.0,9.450,M,7.233,M,1.0,2589*7D
$GPRMC,060257.95,A,3010.88824131,N,12008.35072036,E,0.12,329.45,181017,5.5,W,D,S*51
$GPHDT,,T*1B
$GPGGA,060258.00,3010.88824210,N,12008.35071989,E,4,18,1.0,9.452,M,7.233,M,1.0,2589*72
$GPRMC,060258.00,A,3010.88824210,N,12008.35071989,E,0.03,23.61,181017,5.5,W,D,S*63
$GPHDT,,T*1B
$GPGGA,060258.05,3010.88824315,N,12008.35072002,E,4,18,1.0,9.449,M,7.233,M,1.1,2589*71
$GPRMC,060258.05,A,3010.88824315,N,12008.35072002,E,0.08,335.88,181017,5.5,W,D,S*53
$GPHDT,,T*1B
$GPGGA,060258.10,3010.88824292,N,12008.35071924,E,4,18,1.0,9.448,M,7.233,M,1.1,2589*74
$GPRMC,060258.10,A,3010.88824292,N,12008.35071924,E,0.11,213.63,181017,5.5,W,D,S*5F
$GPHDT,,T*1B
$GPGGA,060258.15,3010.88824368,N,12008.35071799,E,4,18,1.0,9.445,M,7.233,M,1.2,2589*73
$GPRMC,060258.15,A,3010.88824368,N,12008.35071799,E,0.17,325.54,181017,5.5,W,D,S*50
$GPHDT,,T*1B
$GPGGA,060258.20,3010.88824373,N,12008.35071648,E,4,18,1.0,9.449,M,7.233,M,1.2,2589*7E
$GPRMC,060258.20,A,3010.88824373,N,12008.35071648,E,0.08,210.74,181017,5.5,W,D,S*5A
$GPHDT,,T*1B
$GPGGA,060258.25,3010.88824311,N,12008.35071512,E,4,18,1.0,9.446,M,7.233,M,1.3,2589*7D
$GPRMC,060258.25,A,3010.88824311,N,12008.35071512,E,0.15,248.62,181017,5.5,W,D,S*51
$GPHDT,,T*1B
$GPGGA,060258.30,3010.88824391,N,12008.35071381,E,4,18,1.0,9.445,M,7.233,M,0.3,2589*7F
$GPRMC,060258.30,A,3010.88824391,N,12008.35071381,E,0.15,349.65,181017,5.5,W,D,S*56
$GPHDT,,T*1B
$GPGGA,060258.35,3010.88824465,N,12008.35071151,E,4,18,1.0,9.444,M,7.233,M,0.4,2589*7F
$GPRMC,060258.35,A,3010.88824465,N,12008.35071151,E,0.22,267.37,181017,5.5,W,D,S*5E
$GPHDT,,T*1B
$GPGGA,060258.40,3010.88824478,N,12008.35070827,E,4,18,1.0,9.445,M,7.233,M,0.4,2589*79
$GPRMC,060258.40,A,3010.88824478,N,12008.35070827,E,0.16,284.72,181017,5.5,W,D,S*52
$GPHDT,,T*1B
$GPGGA,060258.45,3010.88824573,N,12008.35070622,E,4,18,1.0,9.445,M,7.233,M,0.5,2589*7C
$GPRMC,060258.45,A,3010.88824573,N,12008.35070622,E,0.14,318.81,181017,5.5,W,D,S*5C
$GPHDT,,T*1B
$GPGGA,060258.50,3010.88824700,N,12008.35070335,E,4,18,1.0,9.446,M,7.233,M,0.5,2589*7E
$GPRMC,060258.50,A,3010.88824700,N,12008.35070335,E,0.25,293.08,181017,5.5,W,D,S*5C
$GPHDT,,T*1B
$GPGGA,060258.55,3010.88824841,N,12008.35069941,E,4,18,1.0,9.445,M,7.233,M,0.6,2589*70
$GPRMC,060258.55,A,3010.88824841,N,12008.35069941,E,0.26,294.78,181017,5.5,W,D,S*51
$GPHDT,,T*1B
$GPGGA,060258.60,3010.88824923,N,12008.35069574,E,4,18,1.0,9.447,M,7.233,M,0.6,2589*7B
$GPRMC,060258.60,A,3010.88824923,N,12008.35069574,E,0.20,286.01,181017,5.5,W,D,S*53
$GPHDT,,T*1B
$GPGGA,060258.65,3010.88825037,N,12008.35069175,E,4,18,1.0,9.446,M,7.233,M,0.7,2589*76
$GPRMC,060258.65,A,3010.88825037,N,12008.35069175,E,0.32,293.28,181017,5.5,W,D,S*52
$GPHDT,,T*1B
$GPGGA,060258.70,3010.88825197,N,12008.35068638,E,4,18,1.0,9.447,M,7.233,M,0.7,2589*77
$GPRMC,060258.70,A,3010.88825197,N,12008.35068638,E,0.37,292.16,181017,5.5,W,D,S*5B
$GPHDT,,T*1B
$GPGGA,060258.75,3010.88825364,N,12008.35068108,E,4,18,1.0,9.448,M,7.233,M,0.8,2589*78
$GPRMC,060258.75,A,3010.88825364,N,12008.35068108,E,0.32,295.67,181017,5.5,W,D,S*50
$GPHDT,,T*1B
$GPGGA,060258.80,3010.88825628,N,12008.35067578,E,4,18,1.0,9.447,M,7.233,M,0.8,2589*7C
$GPRMC,060258.80,A,3010.88825628,N,12008.35067578,E,0.43,301.24,181017,5.5,W,D,S*56
$GPHDT,,T*1B
$GPGGA,060258.85,3010.88825936,N,12008.35066878,E,4,18,1.0,9.450,M,7.233,M,0.9,2589*72
$GPRMC,060258.85,A,3010.88825936,N,12008.35066878,E,0.51,299.07,181017,5.5,W,D,S*5D
$GPHDT,,T*1B
$GPGGA,060258.90,3010.88826084,N,12008.35066173,E,4,18,1.0,9.450,M,7.233,M,0.9,2589*77
$GPRMC,060258.90,A,3010.88826084,N,12008.35066173,E,0.43,267.59,181017,5.5,W,D,S*51
$GPHDT,,T*1B
$GPGGA,060258.95,3010.88826351,N,12008.35065466,E,4,18,1.0,9.450,M,7.233,M,1.0,2589*73
$GPRMC,060258.95,A,3010.88826351,N,12008.35065466,E,0.56,304.95,181017,5.5,W,D,S*5D
$GPHDT,,T*1B
$GPGGA,060259.00,3010.88826704,N,12008.35064608,E,4,18,1.0,9.451,M,7.233,M,1.0,2589*70
$GPRMC,060259.00,A,3010.88826704,N,12008.35064608,E,0.60,288.35,181017,5.5,W,D,S*55
$GPHDT,,T*1B
$GPGGA,060259.05,3010.88827081,N,12008.35063677,E,4,18,1.0,9.455,M,7.233,M,1.1,2589*74
$GPRMC,060259.05,A,3010.88827081,N,12008.35063677,E,0.64,303.54,181017,5.5,W,D,S*55
$GPHDT,,T*1B
$GPGGA,060259.10,3010.88827570,N,12008.35062897,E,4,17,1.0,9.451,M,7.233,M,1.1,2589*71
$GPRMC,060259.10,A,3010.88827570,N,12008.35062897,E,0.56,294.66,181017,5.5,W,D,S*54
$GPHDT,,T*1B
$GPGGA,060259.15,3010.88827901,N,12008.35061875,E,4,17,1.2,9.455,M,7.233,M,1.2,2589*74
$GPRMC,060259.15,A,3010.88827901,N,12008.35061875,E,0.74,291.96,181017,5.5,W,D,S*5E
$GPHDT,,T*1B
$GPGGA,060259.20,3010.88828403,N,12008.35060795,E,4,17,1.2,9.451,M,7.233,M,1.2,2589*76
$GPRMC,060259.20,A,3010.88828403,N,12008.35060795,E,0.77,296.97,181017,5.5,W,D,S*5D
$GPHDT,,T*1B
$GPGGA,060259.25,3010.88828836,N,12008.35059586,E,4,17,1.2,9.451,M,7.233,M,1.3,2589*72
$GPRMC,060259.25,A,3010.88828836,N,12008.35059586,E,0.81,290.94,181017,5.5,W,D,S*54
$GPHDT,,T*1B
$GPGGA,060259.30,3010.88829191,N,12008.35058246,E,4,17,1.2,9.452,M,7.233,M,0.3,2589*7B
$GPRMC,060259.30,A,3010.88829191,N,12008.35058246,E,0.88,285.43,181017,5.5,W,D,S*58
$GPHDT,,T*1B
$GPGGA,060259.35,3010.88829540,N,12008.35056803,E,4,17,1.2,9.452,M,7.233,M,0.4,2589*74
$GPRMC,060259.35,A,3010.88829540,N,12008.35056803,E,0.94,286.10,181017,5.5,W,D,S*58
$GPHDT,,T*1B
$GPGGA,060259.40,3010.88829926,N,12008.35055294,E,4,17,1.2,9.450,M,7.233,M,0.4,2589*7F
$GPRMC,060259.40,A,3010.88829926,N,12008.35055294,E,0.98,284.46,181017,5.5,W,D,S*5C
$GPHDT,,T*1B
$GPGGA,060259.45,3010.88830533,N,12008.35053730,E,4,17,1.2,9.454,M,7.233,M,0.5,2589*72
$GPRMC,060259.45,A,3010.88830533,N,12008.35053730,E,1.10,302.91,181017,5.5,W,D,S*50
$GPHDT,,T*1B
$GPGGA,060259.50,3010.88831336,N,12008.35052316,E,4,17,1.2,9.451,M,7.233,M,0.5,2589*70
$GPRMC,060259.50,A,3010.88831336,N,12008.35052316,E,0.98,297.49,181017,5.5,W,D,S*5E
$GPHDT,,T*1B
$GPGGA,060259.55,3010.88831969,N,12008.35050829,E,4,17,1.2,9.449,M,7.233,M,0.6,2589*7A
$GPRMC,060259.55,A,3010.88831969,N,12008.35050829,E,1.05,294.13,181017,5.5,W,D,S*57
$GPHDT,,T*1B
$GPGGA,060259.60,3010.88832527,N,12008.35049192,E,4,17,1.2,9.448,M,7.233,M,0.6,2589*79
$GPRMC,060259.60,A,3010.88832527,N,12008.35049192,E,1.11,288.50,181017,5.5,W,D,S*5A
$GPHDT,,T*1B
$GPGGA,060259.65,3010.88832984,N,12008.35047370,E,4,17,1.2,9.451,M,7.233,M,0.7,2589*70
$GPRMC,060259.65,A,3010.88832984,N,12008.35047370,E,1.18,287.72,181017,5.5,W,D,S*5C
$GPHDT,,T*1B
$GPGGA,060259.70,3010.88833513,N,12008.35045563,E,4,17,1.2,9.451,M,7.233,M,0.7,2589*71
$GPRMC,060259.70,A,3010.88833513,N,12008.35045563,E,1.15,289.20,181017,5.5,W,D,S*59
$GPHDT,,T*1B
$GPGGA,060259.75,3010.88834167,N,12008.35043719,E,4,17,1.2,9.452,M,7.233,M,0.8,2589*71
$GPRMC,060259.75,A,3010.88834167,N,12008.35043719,E,1.27,294.91,181017,5.5,W,D,S*52
$GPHDT,,T*1B
$GPGGA,060259.80,3010.88834854,N,12008.35041786,E,4,17,1.2,9.452,M,7.233,M,0.8,2589*76
$GPRMC,060259.80,A,3010.88834854,N,12008.35041786,E,1.29,289.49,181017,5.5,W,D,S*52
$GPHDT,,T*1B
$GPGGA,060259.85,3010.88835443,N,12008.35039759,E,4,17,1.2,9.455,M,7.233,M,0.9,2589*73
$GPRMC,060259.85,A,3010.88835443,N,12008.35039759,E,1.31,289.96,181017,5.5,W,D,S*5A
$GPHDT,,T*1B
$GPGGA,060259.90,3010.88836204,N,12008.35037752,E,4,17,1.2,9.455,M,7.233,M,0.9,2589*74
$GPRMC,060259.90,A,3010.88836204,N,12008.35037752,E,1.37,295.25,181017,5.5,W,D,S*5E
$GPHDT,,T*1B
$GPGGA,060259.95,3010.88836850,N,12008.35035662,E,4,17,1.2,9.454,M,7.233,M,1.0,2589*73
$GPRMC,060259.95,A,3010.88836850,N,12008.35035662,E,1.36,285.33,181017,5.5,W,D,S*57
$GPHDT,,T*1B
$GPGGA,060300.00,3010.88837486,N,12008.35033541,E,4,17,1.2,9.451,M,7.233,M,1.0,2589*75
$GPRMC,060300.00,A,3010.88837486,N,12008.35033541,E,1.41,291.78,181017,5.5,W,D,S*5E
$GPHDT,,T*1B
$GPGGA,060300.05,3010.88837983,N,12008.35031180,E,4,17,1.2,9.455,M,7.233,M,1.1,2589*76
$GPRMC,060300.05,A,3010.88837983,N,12008.35031180,E,1.53,281.76,181017,5.5,W,D,S*54
$GPHDT,,T*1B
$GPGGA,060300.10,3010.88838707,N,12008.35028837,E,4,17,1.2,9.454,M,7.233,M,1.1,2589*73
$GPRMC,060300.10,A,3010.88838707,N,12008.35028837,E,1.55,295.57,181017,5.5,W,D,S*50
$GPHDT,,T*1B
$GPGGA,060300.15,3010.88839592,N,12008.35026492,E,4,17,1.2,9.456,M,7.233,M,1.2,2589*75
$GPRMC,060300.15,A,3010.88839592,N,12008.35026492,E,1.58,292.89,181017,5.5,W,D,S*5E
$GPHDT,,T*1B
$GPGGA,060300.20,3010.88840334,N,12008.35024064,E,4,17,1.2,9.456,M,7.233,M,1.2,2589*78
$GPRMC,060300.20,A,3010.88840334,N,12008.35024064,E,1.60,286.99,181017,5.5,W,D,S*5C
$GPHDT,,T*1B
$GPGGA,060300.25,3010.88841093,N,12008.35021588,E,4,17,1.2,9.454,M,7.233,M,1.2,2589*72
$GPRMC,060300.25,A,3010.88841093,N,12008.35021588,E,1.66,290.64,181017,5.5,W,D,S*57
$GPHDT,,T*1B
$GPGGA,060300.30,3010.88841865,N,12008.35018974,E,4,17,1.2,9.456,M,7.233,M,0.3,2589*70
$GPRMC,060300.30,A,3010.88841865,N,12008.35018974,E,1.73,287.98,181017,5.5,W,D,S*56
$GPHDT,,T*1B
$GPGGA,060300.35,3010.88842493,N,12008.35016299,E,4,17,1.2,9.458,M,7.233,M,0.4,2589*7C
$GPRMC,060300.35,A,3010.88842493,N,12008.35016299,E,1.70,283.76,181017,5.5,W,D,S*54
$GPHDT,,T*1B
$GPGGA,060300.40,3010.88843169,N,12008.35013653,E,4,17,1.2,9.456,M,7.233,M,0.4,2589*76
$GPRMC,060300.40,A,3010.88843169,N,12008.35013653,E,1.71,285.96,181017,5.5,W,D,S*59
$GPHDT,,T*1B
$GPGGA,060300.45,3010.88843614,N,12008.35010821,E,4,17,1.2,9.458,M,7.233,M,0.5,2589*79
$GPRMC,060300.45,A,3010.88843614,N,12008.35010821,E,1.84,274.54,181017,5.5,W,D,S*53
$GPHDT,,T*1B
$GPGGA,060300.50,3010.88844238,N,12008.35007885,E,4,17,1.2,9.460,M,7.233,M,0.5,2589*73
$GPRMC,060300.50,A,3010.88844238,N,12008.35007885,E,1.91,288.85,181017,5.5,W,D,S*59
$GPHDT,,T*1B
$GPGGA,060300.55,3010.88845102,N,12008.35004897,E,4,17,1.2,9.463,M,7.233,M,0.6,2589*7D
$GPRMC,060300.55,A,3010.88845102,N,12008.35004897,E,1.95,288.42,181017,5.5,W,D,S*58
$GPHDT,,T*1B
$GPGGA,060300.60,3010.88845868,N,12008.35001926,E,4,17,1.2,9.456,M,7.233,M,0.6,2589*76
$GPRMC,060300.60,A,3010.88845868,N,12008.35001926,E,1.95,280.02,181017,5.5,W,D,S*59
$GPHDT,,T*1B
$GPGGA,060300.65,3010.88846824,N,12008.34998975,E,4,17,1.2,9.455,M,7.233,M,0.7,2589*74
$GPRMC,060300.65,A,3010.88846824,N,12008.34998975,E,1.98,296.95,181017,5.5,W,D,S*5D
$GPHDT,,T*1B
$GPGGA,060300.70,3010.88847685,N,12008.34996006,E,4,17,1.2,9.455,M,7.233,M,0.7,2589*77
$GPRMC,060300.70,A,3010.88847685,N,12008.34996006,E,1.91,282.46,181017,5.5,W,D,S*5C
$GPHDT,,T*1B
$GPGGA,060300.75,3010.88848395,N,12008.34992869,E,4,17,1.2,9.453,M,7.233,M,0.8,2589*75
$GPRMC,060300.75,A,3010.88848395,N,12008.34992869,E,2.07,286.19,181017,5.5,W,D,S*55
$GPHDT,,T*1B
$GPGGA,060300.80,3010.88849382,N,12008.34989840,E,4,17,1.2,9.452,M,7.233,M,0.8,2589*78
$GPRMC,060300.80,A,3010.88849382,N,12008.34989840,E,1.95,294.05,181017,5.5,W,D,S*5F
$GPHDT,,T*1B
$GPGGA,060300.85,3010.88850408,N,12008.34986829,E,4,17,1.2,9.452,M,7.233,M,0.9,2589*71
$GPRMC,060300.85,A,3010.88850408,N,12008.34986829,E,2.04,291.16,181017,5.5,W,D,S*5B
$GPHDT,,T*1B
$GPGGA,060300.90,3010.88851329,N,12008.34983758,E,4,17,1.2,9.453,M,7.233,M,0.9,2589*7D
$GPRMC,060300.90,A,3010.88851329,N,12008.34983758,E,1.98,289.17,181017,5.5,W,D,S*58
$GPHDT,,T*1B
$GPGGA,060300.95,3010.88852298,N,12008.34980710,E,4,17,1.2,9.456,M,7.233,M,1.0,2589*72
$GPRMC,060300.95,A,3010.88852298,N,12008.34980710,E,2.01,293.51,181017,5.5,W,D,S*50
$GPHDT,,T*1B
$GPGGA,060301.00,3010.88853264,N,12008.34977667,E,4,17,1.2,9.455,M,7.233,M,1.0,2589*77
$GPRMC,060301.00,A,3010.88853264,N,12008.34977667,E,2.02,288.09,181017,5.5,W,D,S*52
$GPHDT,,T*1B
$GPGGA,060301.05,3010.88854216,N,12008.34974631,E,4,17,1.2,9.454,M,7.233,M,1.1,2589*70
$GPRMC,060301.05,A,3010.88854216,N,12008.34974631,E,1.99,291.88,181017,5.5,W,D,S*55
$GPHDT,,T*1B
$GPGGA,060301.10,3010.88855148,N,12008.34971419,E,4,17,1.2,9.456,M,7.233,M,1.1,2589*72
$GPRMC,060301.10,A,3010.88855148,N,12008.34971419,E,2.17,288.26,181017,5.5,W,D,S*5C
$GPHDT,,T*1B
$GPGGA,060301.15,3010.88856033,N,12008.34968295,E,4,17,1.2,9.454,M,7.233,M,1.2,2589*72
$GPRMC,060301.15,A,3010.88856033,N,12008.34968295,E,1.93,288.52,181017,5.5,W,D,S*51
$GPHDT,,T*1B
$GPGGA,060301.20,3010.88856776,N,12008.34965160,E,4,17,1.2,9.456,M,7.233,M,1.2,2589*74
$GPRMC,060301.20,A,3010.88856776,N,12008.34965160,E,2.07,285.02,181017,5.5,W,D,S*53
$GPHDT,,T*1B
$GPGGA,060301.25,3010.88857561,N,12008.34962042,E,4,17,1.2,9.458,M,7.233,M,1.3,2589*7D
$GPRMC,060301.25,A,3010.88857561,N,12008.34962042,E,1.97,288.33,181017,5.5,W,D,S*50
$GPHDT,,T*1B
$GPGGA,060301.30,3010.88858450,N,12008.34958907,E,4,17,1.2,9.455,M,7.233,M,0.3,2589*78
$GPRMC,060301.30,A,3010.88858450,N,12008.34958907,E,2.13,287.16,181017,5.5,W,D,S*5E
$GPHDT,,T*1B
$GPGGA,060301.35,3010.88859416,N,12008.34955609,E,4,17,1.2,9.457,M,7.233,M,0.4,2589*77
$GPRMC,060301.35,A,3010.88859416,N,12008.34955609,E,2.16,291.07,181017,5.5,W,D,S*56
$GPHDT,,T*1B
$GPGGA,060301.40,3010.88860246,N,12008.34952357,E,4,17,1.2,9.457,M,7.233,M,0.4,2589*75
$GPRMC,060301.40,A,3010.88860246,N,12008.34952357,E,2.07,283.02,181017,5.5,W,D,S*52
$GPHDT,,T*1B
$GPGGA,060301.45,3010.88861164,N,12008.34949195,E,4,17,1.2,9.452,M,7.233,M,0.5,2589*70
$GPRMC,060301.45,A,3010.88861164,N,12008.34949195,E,2.11,290.80,181017,5.5,W,D,S*5C
$GPHDT,,T*1B
$GPGGA,060301.50,3010.88862084,N,12008.34945929,E,4,17,1.2,9.456,M,7.233,M,0.5,2589*7F
$GPRMC,060301.50,A,3010.88862084,N,12008.34945929,E,2.13,287.85,181017,5.5,W,D,S*56
$GPHDT,,T*1B
$GPGGA,060301.55,3010.88863015,N,12008.34942611,E,4,17,1.2,9.459,M,7.233,M,0.6,2589*7C
$GPRMC,060301.55,A,3010.88863015,N,12008.34942611,E,2.19,289.03,181017,5.5,W,D,S*53
$GPHDT,,T*1B
$GPGGA,060301.60,3010.88863946,N,12008.34939165,E,4,17,1.2,9.459,M,7.233,M,0.6,2589*7D
$GPRMC,060301.60,A,3010.88863946,N,12008.34939165,E,2.28,286.33,181017,5.5,W,D,S*5C
$GPHDT,,T*1B
$GPGGA,060301.65,3010.88864671,N,12008.34935613,E,4,17,1.2,9.462,M,7.233,M,0.7,2589*77
$GPRMC,060301.65,A,3010.88864671,N,12008.34935613,E,2.24,282.27,181017,5.5,W,D,S*52
$GPHDT,,T*1B
$GPGGA,060301.70,3010.88865691,N,12008.34932185,E,4,17,1.2,9.463,M,7.233,M,0.7,2589*72
$GPRMC,060301.70,A,3010.88865691,N,12008.34932185,E,2.27,294.01,181017,5.5,W,D,S*56
$GPHDT,,T*1B
$GPGGA,060301.75,3010.88866681,N,12008.34928764,E,4,17,1.2,9.469,M,7.233,M,0.8,2589*72
$GPRMC,060301.75,A,3010.88866681,N,12008.34928764,E,2.19,286.85,181017,5.5,W,D,S*51
$GPHDT,,T*1B
$GPGGA,060301.80,3010.88867527,N,12008.34925287,E,4,17,1.2,9.470,M,7.233,M,0.8,2589*7B
$GPRMC,060301.80,A,3010.88867527,N,12008.34925287,E,2.24,286.82,181017,5.5,W,D,S*59
$GPHDT,,T*1B
$GPGGA,060301.85,3010.88868477,N,12008.34921795,E,4,17,1.2,9.473,M,7.233,M,0.8,2589*74
$GPRMC,060301.85,A,3010.88868477,N,12008.34921795,E,2.25,289.70,181017,5.5,W,D,S*56
$GPHDT,,T*1B
$GPGGA,060301.90,3010.88869487,N,12008.34918209,E,4,17,1.2,9.464,M,7.233,M,0.9,2589*73
$GPRMC,060301.90,A,3010.88869487,N,12008.34918209,E,2.42,285.50,181017,5.5,W,D,S*59
$GPHDT,,T*1B
$GPGGA,060301.95,3010.88870380,N,12008.34914390,E,4,17,1.2,9.469,M,7.233,M,1.0,2589*76
$GPRMC,060301.95,A,3010.88870380,N,12008.34914390,E,2.42,288.94,181017,5.5,W,D,S*5C
$GPHDT,,T*1B
$GPGGA,060302.00,3010.88871411,N,12008.34910706,E,4,17,1.2,9.466,M,7.233,M,1.0,2589*77
$GPRMC,060302.00,A,3010.88871411,N,12008.34910706,E,2.39,288.13,181017,5.5,W,D,S*51
$GPHDT,,T*1B
$GPGGA,060302.05,3010.88872312,N,12008.34906849,E,4,17,1.2,9.466,M,7.233,M,1.1,2589*77
$GPRMC,060302.05,A,3010.88872312,N,12008.34906849,E,2.53,284.69,181017,5.5,W,D,S*5D
$GPHDT,,T*1B
$GPGGA,060302.10,3010.88873096,N,12008.34903033,E,4,17,1.2,9.463,M,7.233,M,1.1,2589*78
$GPRMC,060302.10,A,3010.88873096,N,12008.34903033,E,2.37,281.44,181017,5.5,W,D,S*5F
$GPHDT,,T*1B
$GPGGA,060302.15,3010.88873878,N,12008.34899179,E,4,17,1.2,9.463,M,7.233,M,1.2,2589*7B
$GPRMC,060302.15,A,3010.88873878,N,12008.34899179,E,2.53,284.90,181017,5.5,W,D,S*51
$GPHDT,,T*1B
$GPGGA,060302.20,3010.88874881,N,12008.34895341,E,4,17,1.2,9.463,M,7.233,M,1.2,2589*79
$GPRMC,060302.20,A,3010.88874881,N,12008.34895341,E,2.46,287.70,181017,5.5,W,D,S*5A
$GPHDT,,T*1B
$GPGGA,060302.25,3010.88876048,N,12008.34891672,E,4,17,1.2,9.462,M,7.233,M,1.3,2589*72
$GPRMC,060302.25,A,3010.88876048,N,12008.34891672,E,2.42,291.21,181017,5.5,W,D,S*56
$GPHDT,,T*1B
$GPGGA,060302.30,3010.88877123,N,12008.34887821,E,4,17,1.2,9.462,M,7.233,M,0.3,2589*75
$GPRMC,060302.30,A,3010.88877123,N,12008.34887821,E,2.61,285.46,181017,5.5,W,D,S*55
$GPHDT,,T*1B
$GPGGA,060302.35,3010.88878142,N,12008.34883941,E,4,17,1.2,9.458,M,7.233,M,0.4,2589*75
$GPRMC,060302.35,A,3010.88878142,N,12008.34883941,E,2.49,286.33,181017,5.5,W,D,S*50
$GPHDT,,T*1B
$GPGGA,060302.40,3010.88879206,N,12008.34880094,E,4,17,1.2,9.454,M,7.233,M,0.4,2589*7B
$GPRMC,060302.40,A,3010.88879206,N,12008.34880094,E,2.57,286.86,181017,5.5,W,D,S*53
$GPHDT,,T*1B
$GPGGA,060302.45,3010.88880270,N,12008.34876120,E,4,17,1.2,9.452,M,7.233,M,0.5,2589*79
$GPRMC,060302.45,A,3010.88880270,N,12008.34876120,E,2.62,287.41,181017,5.5,W,D,S*5A
$GPHDT,,T*1B
$GPGGA,060302.50,3010.88881304,N,12008.34872223,E,4,17,1.2,9.450,M,7.233,M,0.5,2589*78
$GPRMC,060302.50,A,3010.88881304,N,12008.34872223,E,2.50,285.91,181017,5.5,W,D,S*57
$GPHDT,,T*1B
$GPGGA,060302.55,3010.88882400,N,12008.34868288,E,4,17,1.2,9.452,M,7.233,M,0.6,2589*76
$GPRMC,060302.55,A,3010.88882400,N,12008.34868288,E,2.66,291.10,181017,5.5,W,D,S*51
$GPHDT,,T*1B
$GPGGA,060302.60,3010.88883296,N,12008.34864240,E,4,17,1.2,9.454,M,7.233,M,0.6,2589*76
$GPRMC,060302.60,A,3010.88883296,N,12008.34864240,E,2.55,281.72,181017,5.5,W,D,S*52
$GPHDT,,T*1B
$GPGGA,060302.65,3010.88884165,N,12008.34860252,E,4,17,1.2,9.452,M,7.233,M,0.7,2589*7B
$GPRMC,060302.65,A,3010.88884165,N,12008.34860252,E,2.59,286.17,181017,5.5,W,D,S*50
$GPHDT,,T*1B
$GPGGA,060302.70,3010.88885075,N,12008.34856231,E,4,17,1.2,9.451,M,7.233,M,0.7,2589*7D
$GPRMC,060302.70,A,3010.88885075,N,12008.34856231,E,2.59,285.04,181017,5.5,W,D,S*54
$GPHDT,,T*1B
$GPGGA,060302.75,3010.88886130,N,12008.34852355,E,4,17,1.2,9.443,M,7.233,M,0.8,2589*70
$GPRMC,060302.75,A,3010.88886130,N,12008.34852355,E,2.56,285.57,181017,5.5,W,D,S*5C
$GPHDT,,T*1B
$GPGGA,060302.80,3010.88887157,N,12008.34848486,E,4,17,1.2,9.443,M,7.233,M,0.8,2589*78
$GPRMC,060302.80,A,3010.88887157,N,12008.34848486,E,2.51,288.33,181017,5.5,W,D,S*5C
$GPHDT,,T*1B
$GPGGA,060302.85,3010.88888244,N,12008.34844516,E,4,17,1.2,9.442,M,7.233,M,0.9,2589*77
$GPRMC,060302.85,A,3010.88888244,N,12008.34844516,E,2.65,287.94,181017,5.5,W,D,S*56
$GPHDT,,T*1B
$GPGGA,060302.90,3010.88889317,N,12008.34840408,E,4,17,1.2,9.441,M,7.233,M,0.9,2589*7C
$GPRMC,060302.90,A,3010.88889317,N,12008.34840408,E,2.68,286.34,181017,5.5,W,D,S*58
$GPHDT,,T*1B
$GPGGA,060302.95,3010.88890178,N,12008.34836372,E,4,17,1.2,9.440,M,7.233,M,1.0,2589*78
$GPRMC,060302.95,A,3010.88890178,N,12008.34836372,E,2.52,281.90,181017,5.5,W,D,S*55
$GPHDT,,T*1B
$GPGGA,060303.00,3010.88891144,N,12008.34832378,E,4,17,1.2,9.436,M,7.233,M,1.0,2589*74
$GPRMC,060303.00,A,3010.88891144,N,12008.34832378,E,2.65,287.07,181017,5.5,W,D,S*54
$GPHDT,,T*1B
$GPGGA,060303.05,3010.88892119,N,12008.34828259,E,4,17,1.2,9.439,M,7.233,M,1.1,2589*7D
$GPRMC,060303.05,A,3010.88892119,N,12008.34828259,E,2.63,285.49,181017,5.5,W,D,S*5D
$GPHDT,,T*1B
$GPGGA,060303.10,3010.88893072,N,12008.34824292,E,4,17,1.2,9.439,M,7.233,M,1.1,2589*7F
$GPRMC,060303.10,A,3010.88893072,N,12008.34824292,E,2.51,285.24,181017,5.5,W,D,S*55
$GPHDT,,T*1B
$GPGGA,060303.15,3010.88893989,N,12008.34820160,E,4,17,1.2,9.442,M,7.233,M,1.2,2589*72
$GPRMC,060303.15,A,3010.88893989,N,12008.34820160,E,2.75,284.72,181017,5.5,W,D,S*53
$GPHDT,,T*1B
$GPGGA,060303.20,3010.88895119,N,12008.34816133,E,4,17,1.2,9.442,M,7.233,M,1.2,2589*70
$GPRMC,060303.20,A,3010.88895119,N,12008.34816133,E,2.54,289.73,181017,5.5,W,D,S*5E
$GPHDT,,T*1B
$GPGGA,060303.25,3010.88896191,N,12008.34812133,E,4,17,1.2,9.446,M,7.233,M,1.3,2589*77
$GPRMC,060303.25,A,3010.88896191,N,12008.34812133,E,2.64,286.44,181017,5.5,W,D,S*54
$GPHDT,,T*1B
$GPGGA,060303.30,3010.88897068,N,12008.34807939,E,4,17,1.2,9.446,M,7.233,M,0.3,2589*72
$GPRMC,060303.30,A,3010.88897068,N,12008.34807939,E,2.70,282.07,181017,5.5,W,D,S*56
$GPHDT,,T*1B
$GPGGA,060303.35,3010.88897969,N,12008.34803708,E,4,17,1.2,9.444,M,7.233,M,0.4,2589*72
$GPRMC,060303.35,A,3010.88897969,N,12008.34803708,E,2.72,284.97,181017,5.5,W,D,S*5E
$GPHDT,,T*1B
$GPGGA,060303.40,3010.88898963,N,12008.34799453,E,4,17,1.2,9.447,M,7.233,M,0.4,2589*77
$GPRMC,060303.40,A,3010.88898963,N,12008.34799453,E,2.73,287.22,181017,5.5,W,D,S*54
$GPHDT,,T*1B
$GPGGA,060303.45,3010.88899923,N,12008.34795392,E,4,17,1.2,9.445,M,7.233,M,0.4,2589*73
$GPRMC,060303.45,A,3010.88899923,N,12008.34795392,E,2.54,282.62,181017,5.5,W,D,S*56
$GPHDT,,T*1B
$GPGGA,060303.50,3010.88900871,N,12008.34791343,E,4,17,1.2,9.446,M,7.233,M,0.5,2589*7A
$GPRMC,060303.50,A,3010.88900871,N,12008.34791343,E,2.67,287.06,181017,5.5,W,D,S*5A
$GPHDT,,T*1B
$GPGGA,060303.55,3010.88901994,N,12008.34787149,E,4,17,1.2,9.446,M,7.233,M,0.6,2589*78
$GPRMC,060303.55,A,3010.88901994,N,12008.34787149,E,2.77,287.48,181017,5.5,W,D,S*50
$GPHDT,,T*1B
$GPGGA,060303.60,3010.88903090,N,12008.34783038,E,4,17,1.2,9.447,M,7.233,M,0.6,2589*73
$GPRMC,060303.60,A,3010.88903090,N,12008.34783038,E,2.61,286.50,181017,5.5,W,D,S*55
$GPHDT,,T*1B
$GPGGA,060303.65,3010.88903914,N,12008.34779029,E,4,17,1.2,9.444,M,7.233,M,0.7,2589*74
$GPRMC,060303.65,A,3010.88903914,N,12008.34779029,E,2.56,280.92,181017,5.5,W,D,S*5C
$GPHDT,,T*1B
$GPGGA,060303.70,3010.88904741,N,12008.34775143,E,4,17,1.2,9.441,M,7.233,M,0.7,2589*7D
$GPRMC,060303.70,A,3010.88904741,N,12008.34775143,E,2.48,285.64,181017,5.5,W,D,S*53
$GPHDT,,T*1B
$GPGGA,060303.75,3010.88905614,N,12008.34771431,E,4,17,1.2,9.441,M,7.233,M,0.8,2589*73
$GPRMC,060303.75,A,3010.88905614,N,12008.34771431,E,2.35,285.14,181017,5.5,W,D,S*5F
$GPHDT,,T*1B
$GPGGA,060303.80,3010.88906255,N,12008.34767899,E,4,17,1.2,9.443,M,7.233,M,0.8,2589*70
$GPRMC,060303.80,A,3010.88906255,N,12008.34767899,E,2.19,280.36,181017,5.5,W,D,S*55
$GPHDT,,T*1B
$GPGGA,060303.85,3010.88907015,N,12008.34764693,E,4,17,1.2,9.439,M,7.233,M,0.9,2589*79
$GPRMC,060303.85,A,3010.88907015,N,12008.34764693,E,2.07,287.48,181017,5.5,W,D,S*51
$GPHDT,,T*1B
$GPGGA,060303.90,3010.88907739,N,12008.34761580,E,4,17,1.2,9.443,M,7.233,M,0.9,2589*7D
$GPRMC,060303.90,A,3010.88907739,N,12008.34761580,E,2.00,286.17,181017,5.5,W,D,S*54
$GPHDT,,T*1B
$GPGGA,060303.95,3010.88908420,N,12008.34758884,E,4,17,1.2,9.443,M,7.233,M,1.0,2589*77
$GPRMC,060303.95,A,3010.88908420,N,12008.34758884,E,1.64,287.27,181017,5.5,W,D,S*55
$GPHDT,,T*1B
$GPGGA,060304.00,3010.88908940,N,12008.34756499,E,4,17,1.2,9.443,M,7.233,M,1.0,2589*79
$GPRMC,060304.00,A,3010.88908940,N,12008.34756499,E,1.55,283.82,181017,5.5,W,D,S*52
$GPHDT,,T*1B
$GPGGA,060304.05,3010.88909313,N,12008.34754198,E,4,17,1.2,9.445,M,7.233,M,1.1,2589*70
$GPRMC,060304.05,A,3010.88909313,N,12008.34754198,E,1.47,280.55,181017,5.5,W,D,S*56
$GPHDT,,T*1B
$GPGGA,060304.10,3010.88909691,N,12008.34752220,E,4,17,1.2,9.445,M,7.233,M,1.1,2589*7D
$GPRMC,060304.10,A,3010.88909691,N,12008.34752220,E,1.21,283.07,181017,5.5,W,D,S*5F
$GPHDT,,T*1B
$GPGGA,060304.15,3010.88910211,N,12008.34750587,E,4,17,1.2,9.445,M,7.233,M,1.2,2589*77
$GPRMC,060304.15,A,3010.88910211,N,12008.34750587,E,1.12,293.79,181017,5.5,W,D,S*5E
$GPHDT,,T*1B
$GPGGA,060304.20,3010.88910653,N,12008.34749162,E,4,17,1.2,9.449,M,7.233,M,1.2,2589*78
$GPRMC,060304.20,A,3010.88910653,N,12008.34749162,E,0.91,286.64,181017,5.5,W,D,S*5F
$GPHDT,,T*1B
$GPGGA,060304.25,3010.88910930,N,12008.34748102,E,4,17,1.2,9.447,M,7.233,M,1.3,2589*7F
$GPRMC,060304.25,A,3010.88910930,N,12008.34748102,E,0.67,282.59,181017,5.5,W,D,S*54
$GPHDT,,T*1B
$GPGGA,060304.30,3010.88911111,N,12008.34747198,E,4,17,1.2,9.448,M,7.233,M,0.3,2589*73
$GPRMC,060304.30,A,3010.88911111,N,12008.34747198,E,0.66,281.20,181017,5.5,W,D,S*5A
$GPHDT,,T*1B
$GPGGA,060304.35,3010.88911399,N,12008.34746332,E,4,17,1.2,9.448,M,7.233,M,0.4,2589*70
$GPRMC,060304.35,A,3010.88911399,N,12008.34746332,E,0.65,292.70,181017,5.5,W,D,S*5A
$GPHDT,,T*1B
$GPGGA,060304.40,3010.88911682,N,12008.34745631,E,4,17,1.2,9.447,M,7.233,M,0.4,2589*77
$GPRMC,060304.40,A,3010.88911682,N,12008.34745631,E,0.47,287.28,181017,5.5,W,D,S*5B
$GPHDT,,T*1B
$GPGGA,060304.45,3010.88911733,N,12008.34744965,E,4,17,1.2,9.448,M,7.233,M,0.5,2589*78
$GPRMC,060304.45,A,3010.88911733,N,12008.34744965,E,0.51,264.98,181017,5.5,W,D,S*5B
$GPHDT,,T*1B
$GPGGA,060304.50,3010.88911874,N,12008.34744464,E,4,17,1.2,9.443,M,7.233,M,0.5,2589*77
$GPRMC,060304.50,A,3010.88911874,N,12008.34744464,E,0.35,296.78,181017,5.5,W,D,S*5E
$GPHDT,,T*1B
$GPGGA,060304.55,3010.88911988,N,12008.34744053,E,4,17,1.2,9.444,M,7.233,M,0.6,2589*74
$GPRMC,060304.55,A,3010.88911988,N,12008.34744053,E,0.30,279.25,181017,5.5,W,D,S*55
$GPHDT,,T*1B
$GPGGA,060304.60,3010.88912122,N,12008.34743719,E,4,17,1.2,9.443,M,7.233,M,0.6,2589*70
$GPRMC,060304.60,A,3010.88912122,N,12008.34743719,E,0.28,296.57,181017,5.5,W,D,S*5B
$GPHDT,,T*1B
$GPGGA,060304.65,3010.88912225,N,12008.34743526,E,4,17,1.2,9.441,M,7.233,M,0.7,2589*7C
$GPRMC,060304.65,A,3010.88912225,N,12008.34743526,E,0.13,279.47,181017,5.5,W,D,S*5C
$GPHDT,,T*1B
$GPGGA,060304.70,3010.88912332,N,12008.34743470,E,4,17,1.2,9.438,M,7.233,M,0.7,2589*73
$GPRMC,060304.70,A,3010.88912332,N,12008.34743470,E,0.14,325.24,181017,5.5,W,D,S*57
$GPHDT,,T*1B
$GPGGA,060304.75,3010.88912265,N,12008.34743394,E,4,17,1.2,9.436,M,7.233,M,0.8,2589*79
$GPRMC,060304.75,A,3010.88912265,N,12008.34743394,E,0.19,212.85,181017,5.5,W,D,S*5F
$GPHDT,,T*1B
$GPGGA,060304.80,3010.88912239,N,12008.34743408,E,4,17,1.2,9.437,M,7.233,M,0.8,2589*79
$GPRMC,060304.80,A,3010.88912239,N,12008.34743408,E,0.13,15.84,181017,5.5,W,D,S*60
$GPHDT,,T*1B
$GPGGA,060304.85,3010.88912188,N,12008.34743611,E,4,17,1.2,9.436,M,7.233,M,0.9,2589*7F
$GPRMC,060304.85,A,3010.88912188,N,12008.34743611,E,0.20,146.13,181017,5.5,W,D,S*5F
$GPHDT,,T*1B
$GPGGA,060304.90,3010.88912185,N,12008.34743852,E,4,17,1.2,9.436,M,7.233,M,0.9,2589*7F
$GPRMC,060304.90,A,3010.88912185,N,12008.34743852,E,0.19,35.65,181017,5.5,W,D,S*61
$GPHDT,,T*1B
$GPGGA,060304.95,3010.88912175,N,12008.34743972,E,4,17,1.2,9.438,M,7.233,M,1.0,2589*70
$GPRMC,060304.95,A,3010.88912175,N,12008.34743972,E,0.09,163.73,181017,5.5,W,D,S*5C
$GPHDT,,T*1B
$GPGGA,060305.00,3010.88912213,N,12008.34744037,E,4,17,1.2,9.439,M,7.233,M,1.0,2589*70
$GPRMC,060305.00,A,3010.88912213,N,12008.34744037,E,0.13,0.98,181017,5.5,W,D,S*57
$GPHDT,,T*1B
$GPGGA,060305.05,3010.88912195,N,12008.34744071,E,4,17,1.2,9.441,M,7.233,M,1.1,2589*74
$GPRMC,060305.05,A,3010.88912195,N,12008.34744071,E,0.11,177.79,181017,5.5,W,D,S*51
$GPHDT,,T*1B
$GPGGA,060305.10,3010.88912117,N,12008.34744125,E,4,17,1.2,9.436,M,7.233,M,1.1,2589*7A
$GPRMC,060305.10,A,3010.88912117,N,12008.34744125,E,0.08,208.57,181017,5.5,W,D,S*50
$GPHDT,,T*1B
$GPGGA,060305.15,3010.88912090,N,12008.34744062,E,4,17,1.2,9.438,M,7.233,M,1.2,2589*7E
$GPRMC,060305.15,A,3010.88912090,N,12008.34744062,E,0.07,332.90,181017,5.5,W,D,S*55
$GPHDT,,T*1B
$GPGGA,060305.20,3010.88912126,N,12008.34744130,E,4,17,1.2,9.436,M,7.233,M,1.2,2589*7C
$GPRMC,060305.20,A,3010.88912126,N,12008.34744130,E,0.06,121.15,181017,5.5,W,D,S*55
$GPHDT,,T*1B
$GPGGA,060305.25,3010.88912108,N,12008.34744185,E,4,17,1.2,9.434,M,7.233,M,1.3,2589*78
$GPRMC,060305.25,A,3010.88912108,N,12008.34744185,E,0.02,246.36,181017,5.5,W,D,S*55
$GPHDT,,T*1B
