$GPHDT,,T*1B
$GPGGA,061038.45,3010.88931180,N,12008.34822680,E,4,18,1.0,9.454,M,7.233,M,0.5,2589*72
$GPRMC,061038.45,A,3010.88931180,N,12008.34822680,E,0.09,5.35,181017,5.5,W,D,S*5E
$GPHDT,,T*1B
$GPGGA,061038.50,3010.88931303,N,12008.34822756,E,4,18,1.0,9.453,M,7.233,M,0.5,2589*72
$GPRMC,061038.50,A,3010.88931303,N,12008.34822756,E,0.08,40.49,181017,5.5,W,D,S*62
$GPHDT,,T*1B
$GPGGA,061038.55,3010.88931299,N,12008.34822771,E,4,18,1.0,9.457,M,7.233,M,0.6,2589*77
$GPRMC,061038.55,A,3010.88931299,N,12008.34822771,E,0.00,310.28,181017,5.5,W,D,S*59
$GPHDT,,T*1B
$GPGGA,061038.60,3010.88931296,N,12008.34822764,E,4,18,1.0,9.455,M,7.233,M,0.6,2589*78
$GPRMC,061038.60,A,3010.88931296,N,12008.34822764,E,0.05,231.82,181017,5.5,W,D,S*53
$GPHDT,,T*1B
$GPGGA,061038.65,3010.88931246,N,12008.34822745,E,4,18,1.0,9.456,M,7.233,M,0.7,2589*71
$GPRMC,061038.65,A,3010.88931246,N,12008.34822745,E,0.02,143.69,181017,5.5,W,D,S*5C
$GPHDT,,T*1B
$GPGGA,061038.70,3010.88931299,N,12008.34822762,E,4,18,1.0,9.456,M,7.233,M,0.7,2589*72
$GPRMC,061038.70,A,3010.88931299,N,12008.34822762,E,0.07,345.64,181017,5.5,W,D,S*53
$GPHDT,,T*1B
$GPGGA,061038.75,3010.88931301,N,12008.34822718,E,4,18,1.0,9.456,M,7.233,M,0.8,2589*75
$GPRMC,061038.75,A,3010.88931301,N,12008.34822718,E,0.06,217.47,181017,5.5,W,D,S*5D
$GPHDT,,T*1B
$GPGGA,061038.80,3010.88931291,N,12008.34822734,E,4,18,1.0,9.456,M,7.233,M,0.8,2589*79
$GPRMC,061038.80,A,3010.88931291,N,12008.34822734,E,0.05,69.04,181017,5.5,W,D,S*6E
$GPHDT,,T*1B
$GPGGA,061038.85,3010.88931323,N,12008.34822755,E,4,18,1.0,9.456,M,7.233,M,0.9,2589*72
$GPRMC,061038.85,A,3010.88931323,N,12008.34822755,E,0.03,302.55,181017,5.5,W,D,S*58
$GPHDT,,T*1B
$GPGGA,061038.90,3010.88931254,N,12008.34822746,E,4,18,1.0,9.458,M,7.233,M,0.9,2589*7B
$GPRMC,061038.90,A,3010.88931254,N,12008.34822746,E,0.07,166.66,181017,5.5,W,D,S*5B
$GPHDT,,T*1B
$GPGGA,061038.95,3010.88931236,N,12008.34822747,E,4,18,1.0,9.458,M,7.233,M,1.0,2589*73
$GPRMC,061038.95,A,3010.88931236,N,12008.34822747,E,0.04,335.77,181017,5.5,W,D,S*5C
$GPHDT,,T*1B
$GPGGA,061039.00,3010.88931241,N,12008.34822730,E,4,18,1.0,9.457,M,7.233,M,1.0,2589*71
$GPRMC,061039.00,A,3010.88931241,N,12008.34822730,E,0.05,211.63,181017,5.5,W,D,S*52
$GPHDT,,T*1B
$GPGGA,061039.05,3010.88931242,N,12008.34822714,E,4,18,1.0,9.457,M,7.233,M,1.1,2589*70
$GPRMC,061039.05,A,3010.88931242,N,12008.34822714,E,0.06,9.80,181017,5.5,W,D,S*57
$GPHDT,,T*1B
$GPGGA,061039.10,3010.88931248,N,12008.34822730,E,4,18,1.0,9.457,M,7.233,M,1.1,2589*78
$GPRMC,061039.10,A,3010.88931248,N,12008.34822730,E,0.03,179.82,181017,5.5,W,D,S*5E
$GPHDT,,T*1B
$GPGGA,061039.15,3010.88931353,N,12008.34822749,E,4,18,1.0,9.456,M,7.233,M,1.2,2589*7A
$GPRMC,061039.15,A,3010.88931353,N,12008.34822749,E,0.15,1.13,181017,5.5,W,D,S*5F
$GPHDT,,T*1B
$GPGGA,061039.20,3010.88931318,N,12008.34822735,E,4,18,1.0,9.458,M,7.233,M,1.2,2589*76
$GPRMC,061039.20,A,3010.88931318,N,12008.34822735,E,0.13,179.57,181017,5.5,W,D,S*55
$GPHDT,,T*1B
$GPGGA,061039.25,3010.88931246,N,12008.34822733,E,4,18,1.0,9.459,M,7.233,M,1.3,2589*7F
$GPRMC,061039.25,A,3010.88931246,N,12008.34822733,E,0.03,344.40,181017,5.5,W,D,S*57
$GPHDT,,T*1B
$GPGGA,061039.30,3010.88931226,N,12008.34822729,E,4,18,1.0,9.459,M,7.233,M,0.3,2589*77
$GPRMC,061039.30,A,3010.88931226,N,12008.34822729,E,0.05,183.57,181017,5.5,W,D,S*57
$GPHDT,,T*1B
$GPGGA,061039.35,3010.88931221,N,12008.34822705,E,4,18,1.0,9.458,M,7.233,M,0.4,2589*7D
$GPRMC,061039.35,A,3010.88931221,N,12008.34822705,E,0.05,324.86,181017,5.5,W,D,S*58
$GPHDT,,T*1B
$GPGGA,061039.40,3010.88931249,N,12008.34822727,E,4,18,1.0,9.460,M,7.233,M,0.4,2589*7A
$GPRMC,061039.40,A,3010.88931249,N,12008.34822727,E,0.09,56.66,181017,5.5,W,D,S*60
$GPHDT,,T*1B
$GPGGA,061039.45,3010.88931295,N,12008.34822811,E,4,18,1.0,9.457,M,7.233,M,0.5,2589*71
$GPRMC,061039.45,A,3010.88931295,N,12008.34822811,E,0.03,198.96,181017,5.5,W,D,S*58
$GPHDT,,T*1B
$GPGGA,061039.50,3010.88931272,N,12008.34822796,E,4,18,1.0,9.453,M,7.233,M,0.5,2589*78
$GPRMC,061039.50,A,3010.88931272,N,12008.34822796,E,0.03,241.86,181017,5.5,W,D,S*53
$GPHDT,,T*1B
$GPGGA,061039.55,3010.88931244,N,12008.34822739,E,4,18,1.0,9.457,M,7.233,M,0.6,2589*7A
$GPRMC,061039.55,A,3010.88931244,N,12008.34822739,E,0.05,15.11,181017,5.5,W,D,S*6D
$GPHDT,,T*1B
$GPGGA,061039.60,3010.88931280,N,12008.34822787,E,4,18,1.0,9.455,M,7.233,M,0.6,2589*73
$GPRMC,061039.60,A,3010.88931280,N,12008.34822787,E,0.03,125.73,181017,5.5,W,D,S*56
$GPHDT,,T*1B
$GPGGA,061039.65,3010.88931307,N,12008.34822794,E,4,18,1.0,9.455,M,7.233,M,0.7,2589*7B
$GPRMC,061039.65,A,3010.88931307,N,12008.34822794,E,0.05,347.40,181017,5.5,W,D,S*5F
$GPHDT,,T*1B
$GPGGA,061039.70,3010.88931295,N,12008.34822820,E,4,18,1.0,9.454,M,7.233,M,0.7,2589*74
$GPRMC,061039.70,A,3010.88931295,N,12008.34822820,E,0.06,146.39,181017,5.5,W,D,S*5F
$GPHDT,,T*1B
$GPGGA,061039.75,3010.88931246,N,12008.34822764,E,4,18,1.0,9.455,M,7.233,M,0.8,2589*7E
$GPRMC,061039.75,A,3010.88931246,N,12008.34822764,E,0.07,275.65,181017,5.5,W,D,S*50
$GPHDT,,T*1B
$GPGGA,061039.80,3010.88931256,N,12008.34822699,E,4,18,1.0,9.454,M,7.233,M,0.8,2589*77
$GPRMC,061039.80,A,3010.88931256,N,12008.34822699,E,0.02,261.43,181017,5.5,W,D,S*5C
$GPHDT,,T*1B
$GPGGA,061039.85,3010.88931248,N,12008.34822690,E,4,18,1.0,9.456,M,7.233,M,0.9,2589*77
$GPRMC,061039.85,A,3010.88931248,N,12008.34822690,E,0.03,50.81,181017,5.5,W,D,S*60
$GPHDT,,T*1B
$GPGGA,061039.90,3010.88931265,N,12008.34822727,E,4,18,1.0,9.454,M,7.233,M,0.9,2589*73
$GPRMC,061039.90,A,3010.88931265,N,12008.34822727,E,0.01,139.94,181017,5.5,W,D,S*5E
$GPHDT,,T*1B
$GPGGA,061039.95,3010.88931258,N,12008.34822749,E,4,18,1.0,9.452,M,7.233,M,1.0,2589*7E
$GPRMC,061039.95,A,3010.88931258,N,12008.34822749,E,0.01,141.51,181017,5.5,W,D,S*5B
$GPHDT,,T*1B
$GPGGA,061040.00,3010.88931307,N,12008.34822764,E,4,18,1.0,9.452,M,7.233,M,1.0,2589*78
$GPRMC,061040.00,A,3010.88931307,N,12008.34822764,E,0.09,12.07,181017,5.5,W,D,S*61
$GPHDT,,T*1B
$GPGGA,061040.05,3010.88931351,N,12008.34822759,E,4,18,1.0,9.451,M,7.233,M,1.1,2589*72
$GPRMC,061040.05,A,3010.88931351,N,12008.34822759,E,0.02,252.02,181017,5.5,W,D,S*51
$GPHDT,,T*1B
$GPGGA,061040.10,3010.88931337,N,12008.34822724,E,4,18,1.0,9.449,M,7.233,M,1.1,2589*75
$GPRMC,061040.10,A,3010.88931337,N,12008.34822724,E,0.03,240.91,181017,5.5,W,D,S*57
$GPHDT,,T*1B
$GPGGA,061040.15,3010.88931320,N,12008.34822740,E,4,18,1.0,9.451,M,7.233,M,1.2,2589*7E
$GPRMC,061040.15,A,3010.88931320,N,12008.34822740,E,0.07,67.57,181017,5.5,W,D,S*6F
$GPHDT,,T*1B
$GPGGA,061040.20,3010.88931314,N,12008.34822771,E,4,18,1.0,9.451,M,7.233,M,1.2,2589*7D
$GPRMC,061040.20,A,3010.88931314,N,12008.34822771,E,0.03,197.52,181017,5.5,W,D,S*53
$GPHDT,,T*1B
$GPGGA,061040.25,3010.88931330,N,12008.34822751,E,4,18,1.0,9.450,M,7.233,M,1.3,2589*7C
$GPRMC,061040.25,A,3010.88931330,N,12008.34822751,E,0.04,326.25,181017,5.5,W,D,S*5D
$GPHDT,,T*1B
$GPGGA,061040.30,3010.88931348,N,12008.34822749,E,4,18,1.0,9.450,M,7.233,M,0.3,2589*7F
$GPRMC,061040.30,A,3010.88931348,N,12008.34822749,E,0.05,43.65,181017,5.5,W,D,S*6A
$GPHDT,,T*1B
$GPGGA,061040.35,3010.88931342,N,12008.34822758,E,4,18,1.0,9.451,M,7.233,M,0.4,2589*76
$GPRMC,061040.35,A,3010.88931342,N,12008.34822758,E,0.01,30.77,181017,5.5,W,D,S*66
$GPHDT,,T*1B
$GPGGA,061040.40,3010.88931406,N,12008.34822795,E,4,18,1.0,9.449,M,7.233,M,0.4,2589*7B
$GPRMC,061040.40,A,3010.88931406,N,12008.34822795,E,0.07,15.06,181017,5.5,W,D,S*65
$GPHDT,,T*1B
$GPGGA,061040.45,3010.88931382,N,12008.34822717,E,4,18,1.0,9.450,M,7.233,M,0.5,2589*76
$GPRMC,061040.45,A,3010.88931382,N,12008.34822717,E,0.09,242.47,181017,5.5,W,D,S*5A
$GPHDT,,T*1B
$GPGGA,061040.50,3010.88931296,N,12008.34822685,E,4,18,1.0,9.449,M,7.233,M,0.5,2589*74
$GPRMC,061040.50,A,3010.88931296,N,12008.34822685,E,0.06,147.42,181017,5.5,W,D,S*5C
$GPHDT,,T*1B
$GPGGA,061040.55,3010.88931260,N,12008.34822697,E,4,18,1.0,9.449,M,7.233,M,0.6,2589*78
$GPRMC,061040.55,A,3010.88931260,N,12008.34822697,E,0.03,356.38,181017,5.5,W,D,S*59
$GPHDT,,T*1B
$GPGGA,061040.60,3010.88931306,N,12008.34822723,E,4,18,1.0,9.448,M,7.233,M,0.6,2589*70
$GPRMC,061040.60,A,3010.88931306,N,12008.34822723,E,0.06,36.62,181017,5.5,W,D,S*6F
$GPHDT,,T*1B
$GPGGA,061040.65,3010.88931331,N,12008.34822760,E,4,18,1.0,9.447,M,7.233,M,0.7,2589*78
$GPRMC,061040.65,A,3010.88931331,N,12008.34822760,E,0.02,81.24,181017,5.5,W,D,S*63
$GPHDT,,T*1B
$GPGGA,061040.70,3010.88931343,N,12008.34822793,E,4,18,1.0,9.447,M,7.233,M,0.7,2589*75
$GPRMC,061040.70,A,3010.88931343,N,12008.34822793,E,0.05,47.09,181017,5.5,W,D,S*6C
$GPHDT,,T*1B
$GPGGA,061040.75,3010.88931390,N,12008.34822802,E,4,18,1.0,9.447,M,7.233,M,0.8,2589*76
$GPRMC,061040.75,A,3010.88931390,N,12008.34822802,E,0.06,1.56,181017,5.5,W,D,S*5B
$GPHDT,,T*1B
$GPGGA,061040.80,3010.88931357,N,12008.34822767,E,4,18,1.0,9.447,M,7.233,M,0.8,2589*7B
$GPRMC,061040.80,A,3010.88931357,N,12008.34822767,E,0.09,205.46,181017,5.5,W,D,S*5E
$GPHDT,,T*1B
$GPGGA,061040.85,3010.88931322,N,12008.34822752,E,4,18,1.0,9.446,M,7.233,M,0.9,2589*7A
$GPRMC,061040.85,A,3010.88931322,N,12008.34822752,E,0.02,44.75,181017,5.5,W,D,S*63
$GPHDT,,T*1B
$GPGGA,061040.90,3010.88931322,N,12008.34822768,E,4,18,1.0,9.446,M,7.233,M,0.9,2589*77
$GPRMC,061040.90,A,3010.88931322,N,12008.34822768,E,0.02,71.77,181017,5.5,W,D,S*6A
$GPHDT,,T*1B
$GPGGA,061040.95,3010.88931255,N,12008.34822695,E,4,18,1.0,9.447,M,7.233,M,1.0,2589*79
$GPRMC,061040.95,A,3010.88931255,N,12008.34822695,E,0.11,227.18,181017,5.5,W,D,S*57
$GPHDT,,T*1B
$GPGGA,061041.00,3010.88931253,N,12008.34822668,E,4,18,1.0,9.446,M,7.233,M,1.0,2589*71
$GPRMC,061041.00,A,3010.88931253,N,12008.34822668,E,0.03,35.86,181017,5.5,W,D,S*6B
$GPHDT,,T*1B
$GPGGA,061041.05,3010.88931319,N,12008.34822729,E,4,18,1.0,9.444,M,7.233,M,1.1,2589*7C
$GPRMC,061041.05,A,3010.88931319,N,12008.34822729,E,0.07,44.24,181017,5.5,W,D,S*6F
$GPHDT,,T*1B
$GPGGA,061041.10,3010.88931458,N,12008.34822812,E,4,18,1.0,9.444,M,7.233,M,1.1,2589*7D
$GPRMC,061041.10,A,3010.88931458,N,12008.34822812,E,0.20,22.92,181017,5.5,W,D,S*66
$GPHDT,,T*1B
$GPGGA,061041.15,3010.88931489,N,12008.34822819,E,4,18,1.0,9.444,M,7.233,M,1.2,2589*7C
$GPRMC,061041.15,A,3010.88931489,N,12008.34822819,E,0.08,209.15,181017,5.5,W,D,S*5A
$GPHDT,,T*1B
$GPGGA,061041.20,3010.88931349,N,12008.34822713,E,4,18,1.0,9.446,M,7.233,M,1.2,2589*76
$GPRMC,061041.20,A,3010.88931349,N,12008.34822713,E,0.09,213.17,181017,5.5,W,D,S*5A
$GPHDT,,T*1B
$GPGGA,061041.25,3010.88931324,N,12008.34822722,E,4,18,1.0,9.444,M,7.233,M,1.3,2589*79
$GPRMC,061041.25,A,3010.88931324,N,12008.34822722,E,0.05,75.00,181017,5.5,W,D,S*6E
$GPHDT,,T*1B
$GPGGA,061041.30,3010.88931255,N,12008.34822763,E,4,18,1.0,9.445,M,7.233,M,0.3,2589*7F
$GPRMC,061041.30,A,3010.88931255,N,12008.34822763,E,0.06,135.48,181017,5.5,W,D,S*52
$GPHDT,,T*1B
$GPGGA,061041.35,3010.88931176,N,12008.34822741,E,4,18,1.0,9.445,M,7.233,M,0.4,2589*7F
$GPRMC,061041.35,A,3010.88931176,N,12008.34822741,E,0.04,226.25,181017,5.5,W,D,S*5D
$GPHDT,,T*1B
$GPGGA,061041.40,3010.88931163,N,12008.34822587,E,4,18,1.0,9.448,M,7.233,M,0.4,2589*7C
$GPRMC,061041.40,A,3010.88931163,N,12008.34822587,E,0.10,291.53,181017,5.5,W,D,S*5B
$GPHDT,,T*1B
$GPGGA,061041.45,3010.88931128,N,12008.34822543,E,4,18,1.0,9.446,M,7.233,M,0.5,2589*71
$GPRMC,061041.45,A,3010.88931128,N,12008.34822543,E,0.08,153.46,181017,5.5,W,D,S*59
$GPHDT,,T*1B
$GPGGA,061041.50,3010.88931138,N,12008.34822576,E,4,18,1.0,9.448,M,7.233,M,0.5,2589*7C
$GPRMC,061041.50,A,3010.88931138,N,12008.34822576,E,0.10,22.78,181017,5.5,W,D,S*69
$GPHDT,,T*1B
$GPGGA,061041.55,3010.88931206,N,12008.34822630,E,4,18,1.0,9.448,M,7.233,M,0.6,2589*75
$GPRMC,061041.55,A,3010.88931206,N,12008.34822630,E,0.05,68.38,181017,5.5,W,D,S*6D
$GPHDT,,T*1B
$GPGGA,061041.60,3010.88931176,N,12008.34822664,E,4,18,1.0,9.447,M,7.233,M,0.6,2589*79
$GPRMC,061041.60,A,3010.88931176,N,12008.34822664,E,0.06,155.98,181017,5.5,W,D,S*58
$GPHDT,,T*1B
$GPGGA,061041.65,3010.88931013,N,12008.34822599,E,4,18,1.0,9.450,M,7.233,M,0.7,2589*78
$GPRMC,061041.65,A,3010.88931013,N,12008.34822599,E,0.12,200.51,181017,5.5,W,D,S*5D
$GPHDT,,T*1B
$GPGGA,061041.70,3010.88931036,N,12008.34822529,E,4,18,1.0,9.448,M,7.233,M,0.7,2589*79
$GPRMC,061041.70,A,3010.88931036,N,12008.34822529,E,0.10,324.31,181017,5.5,W,D,S*56
$GPHDT,,T*1B
$GPGGA,061041.75,3010.88931070,N,12008.34822495,E,4,18,1.0,9.449,M,7.233,M,0.8,2589*76
$GPRMC,061041.75,A,3010.88931070,N,12008.34822495,E,0.04,117.75,181017,5.5,W,D,S*50
$GPHDT,,T*1B
$GPGGA,061041.80,3010.88931093,N,12008.34822549,E,4,18,1.0,9.448,M,7.233,M,0.8,2589*70
$GPRMC,061041.80,A,3010.88931093,N,12008.34822549,E,0.05,52.32,181017,5.5,W,D,S*65
$GPHDT,,T*1B
$GPGGA,061041.85,3010.88931072,N,12008.34822529,E,4,18,1.0,9.449,M,7.233,M,0.9,2589*7C
$GPRMC,061041.85,A,3010.88931072,N,12008.34822529,E,0.07,210.18,181017,5.5,W,D,S*57
$GPHDT,,T*1B
$GPGGA,061041.90,3010.88931009,N,12008.34822520,E,4,18,1.0,9.448,M,7.233,M,0.9,2589*7C
$GPRMC,061041.90,A,3010.88931009,N,12008.34822520,E,0.07,155.53,181017,5.5,W,D,S*5B
$GPHDT,,T*1B
$GPGGA,061041.95,3010.88931058,N,12008.34822589,E,4,18,1.0,9.446,M,7.233,M,1.0,2589*78
$GPRMC,061041.95,A,3010.88931058,N,12008.34822589,E,0.10,34.03,181017,5.5,W,D,S*6C
$GPHDT,,T*1B
$GPGGA,061042.00,3010.88931045,N,12008.34822533,E,4,18,1.0,9.449,M,7.233,M,1.0,2589*75
$GPRMC,061042.00,A,3010.88931045,N,12008.34822533,E,0.10,225.31,181017,5.5,W,D,S*5D
$GPHDT,,T*1B
$GPGGA,061042.05,3010.88931036,N,12008.34822454,E,4,18,1.0,9.449,M,7.233,M,1.1,2589*75
$GPRMC,061042.05,A,3010.88931036,N,12008.34822454,E,0.04,305.87,181017,5.5,W,D,S*57
$GPHDT,,T*1B
$GPGGA,061042.10,3010.88931001,N,12008.34822433,E,4,18,1.0,9.447,M,7.233,M,1.1,2589*7A
$GPRMC,061042.10,A,3010.88931001,N,12008.34822433,E,0.12,186.73,181017,5.5,W,D,S*53
$GPHDT,,T*1B
$GPGGA,061042.15,3010.88930948,N,12008.34822474,E,4,18,1.0,9.445,M,7.233,M,1.2,2589*78
$GPRMC,061042.15,A,3010.88930948,N,12008.34822474,E,0.04,103.86,181017,5.5,W,D,S*50
$GPHDT,,T*1B
$GPGGA,061042.20,3010.88931073,N,12008.34822471,E,4,18,1.0,9.447,M,7.233,M,1.2,2589*79
$GPRMC,061042.20,A,3010.88931073,N,12008.34822471,E,0.16,354.61,181017,5.5,W,D,S*59
$GPHDT,,T*1B
$GPGGA,061042.25,3010.88931179,N,12008.34822440,E,4,18,1.0,9.447,M,7.233,M,1.3,2589*74
$GPRMC,061042.25,A,3010.88931179,N,12008.34822440,E,0.02,237.20,181017,5.5,W,D,S*51
$GPHDT,,T*1B
$GPGGA,061042.30,3010.88931230,N,12008.34822540,E,4,18,1.0,9.447,M,7.233,M,0.3,2589*7E
$GPRMC,061042.30,A,3010.88931230,N,12008.34822540,E,0.10,62.26,181017,5.5,W,D,S*6D
$GPHDT,,T*1B
$GPGGA,061042.35,3010.88931220,N,12008.34822551,E,4,18,1.0,9.449,M,7.233,M,0.4,2589*73
$GPRMC,061042.35,A,3010.88931220,N,12008.34822551,E,0.07,241.46,181017,5.5,W,D,S*5A
$GPHDT,,T*1B
$GPGGA,061042.40,3010.88931227,N,12008.34822565,E,4,18,1.0,9.447,M,7.233,M,0.4,2589*7F
$GPRMC,061042.40,A,3010.88931227,N,12008.34822565,E,0.04,91.51,181017,5.5,W,D,S*62
$GPHDT,,T*1B
$GPGGA,061042.45,3010.88931215,N,12008.34822608,E,4,18,1.0,9.445,M,7.233,M,0.5,2589*70
$GPRMC,061042.45,A,3010.88931215,N,12008.34822608,E,0.05,190.99,181017,5.5,W,D,S*5B
$GPHDT,,T*1B
$GPGGA,061042.50,3010.88931138,N,12008.34822599,E,4,18,1.0,9.445,M,7.233,M,0.5,2589*73
$GPRMC,061042.50,A,3010.88931138,N,12008.34822599,E,0.05,176.79,181017,5.5,W,D,S*5E
$GPHDT,,T*1B
$GPGGA,061042.55,3010.88931118,N,12008.34822615,E,4,18,1.0,9.446,M,7.233,M,0.6,2589*73
$GPRMC,061042.55,A,3010.88931118,N,12008.34822615,E,0.05,37.08,181017,5.5,W,D,S*6C
$GPHDT,,T*1B
$GPGGA,061042.60,3010.88931180,N,12008.34822645,E,4,18,1.0,9.444,M,7.233,M,0.6,2589*73
$GPRMC,061042.60,A,3010.88931180,N,12008.34822645,E,0.03,328.31,181017,5.5,W,D,S*5F
$GPHDT,,T*1B
$GPGGA,061042.65,3010.88931157,N,12008.34822610,E,4,18,1.0,9.447,M,7.233,M,0.7,2589*7E
$GPRMC,061042.65,A,3010.88931157,N,12008.34822610,E,0.02,212.01,181017,5.5,W,D,S*5A
$GPHDT,,T*1B
$GPGGA,061042.70,3010.88931280,N,12008.34822645,E,4,18,1.0,9.445,M,7.233,M,0.7,2589*71
$GPRMC,061042.70,A,3010.88931280,N,12008.34822645,E,0.12,5.30,181017,5.5,W,D,S*50
$GPHDT,,T*1B
$GPGGA,061042.75,3010.88931251,N,12008.34822604,E,4,18,1.0,9.446,M,7.233,M,0.8,2589*71
$GPRMC,061042.75,A,3010.88931251,N,12008.34822604,E,0.11,194.81,181017,5.5,W,D,S*5C
$GPHDT,,T*1B
$GPGGA,061042.80,3010.88931356,N,12008.34822636,E,4,18,1.0,9.445,M,7.233,M,0.8,2589*7F
$GPRMC,061042.80,A,3010.88931356,N,12008.34822636,E,0.21,10.36,181017,5.5,W,D,S*63
$GPHDT,,T*1B
$GPGGA,061042.85,3010.88931416,N,12008.34822660,E,4,18,1.0,9.447,M,7.233,M,0.9,2589*79
$GPRMC,061042.85,A,3010.88931416,N,12008.34822660,E,0.06,165.47,181017,5.5,W,D,S*56
$GPHDT,,T*1B
$GPGGA,061042.90,3010.88931337,N,12008.34822671,E,4,18,1.0,9.448,M,7.233,M,0.9,2589*76
$GPRMC,061042.90,A,3010.88931337,N,12008.34822671,E,0.05,177.31,181017,5.5,W,D,S*57
$GPHDT,,T*1B
$GPGGA,061042.95,3010.88931319,N,12008.34822715,E,4,18,1.0,9.444,M,7.233,M,1.0,2589*78
$GPRMC,061042.95,A,3010.88931319,N,12008.34822715,E,0.02,152.00,181017,5.5,W,D,S*5F
$GPHDT,,T*1B
$GPGGA,061043.00,3010.88931339,N,12008.34822691,E,4,18,1.0,9.442,M,7.233,M,1.0,2589*7C
$GPRMC,061043.00,A,3010.88931339,N,12008.34822691,E,0.05,271.45,181017,5.5,W,D,S*59
$GPHDT,,T*1B
$GPGGA,061043.05,3010.88931323,N,12008.34822655,E,4,18,1.0,9.443,M,7.233,M,1.1,2589*7A
$GPRMC,061043.05,A,3010.88931323,N,12008.34822655,E,0.02,112.17,181017,5.5,W,D,S*59
$GPHDT,,T*1B
$GPGGA,061043.10,3010.88931336,N,12008.34822699,E,4,18,1.0,9.442,M,7.233,M,1.1,2589*7B
$GPRMC,061043.10,A,3010.88931336,N,12008.34822699,E,0.02,87.31,181017,5.5,W,D,S*60
$GPHDT,,T*1B
$GPGGA,061043.15,3010.88931377,N,12008.34822668,E,4,18,1.0,9.441,M,7.233,M,1.2,2589*75
$GPRMC,061043.15,A,3010.88931377,N,12008.34822668,E,0.07,310.90,181017,5.5,W,D,S*5D
$GPHDT,,T*1B
$GPGGA,061043.20,3010.88931332,N,12008.34822618,E,4,18,1.0,9.442,M,7.233,M,1.2,2589*76
$GPRMC,061043.20,A,3010.88931332,N,12008.34822618,E,0.07,172.07,181017,5.5,W,D,S*55
$GPHDT,,T*1B
$GPGGA,061043.25,3010.88931319,N,12008.34822658,E,4,18,1.0,9.438,M,7.233,M,1.3,2589*72
$GPRMC,061043.25,A,3010.88931319,N,12008.34822658,E,0.02,359.66,181017,5.5,W,D,S*54
$GPHDT,,T*1B
$GPGGA,061043.30,3010.88931341,N,12008.34822651,E,4,18,1.0,9.438,M,7.233,M,0.3,2589*73
$GPRMC,061043.30,A,3010.88931341,N,12008.34822651,E,0.05,16.02,181017,5.5,W,D,S*69
$GPHDT,,T*1B
$GPGGA,061043.35,3010.88931359,N,12008.34822615,E,4,18,1.0,9.440,M,7.233,M,0.4,2589*77
$GPRMC,061043.35,A,3010.88931359,N,12008.34822615,E,0.04,346.37,181017,5.5,W,D,S*54
$GPHDT,,T*1B
$GPGGA,061043.40,3010.88931293,N,12008.34822576,E,4,18,1.0,9.444,M,7.233,M,0.4,2589*70
$GPRMC,061043.40,A,3010.88931293,N,12008.34822576,E,0.04,175.95,181017,5.5,W,D,S*5D
$GPHDT,,T*1B
$GPGGA,061043.45,3010.88931280,N,12008.34822587,E,4,18,1.0,9.440,M,7.233,M,0.5,2589*7C
$GPRMC,061043.45,A,3010.88931280,N,12008.34822587,E,0.02,269.40,181017,5.5,W,D,S*54
$GPHDT,,T*1B
$GPGGA,061043.50,3010.88931251,N,12008.34822555,E,4,18,1.0,9.444,M,7.233,M,0.5,2589*7F
$GPRMC,061043.50,A,3010.88931251,N,12008.34822555,E,0.05,41.74,181017,5.5,W,D,S*6B
$GPHDT,,T*1B
$GPGGA,061043.55,3010.88931285,N,12008.34822546,E,4,18,1.0,9.443,M,7.233,M,0.6,2589*75
$GPRMC,061043.55,A,3010.88931285,N,12008.34822546,E,0.06,264.26,181017,5.5,W,D,S*54
$GPHDT,,T*1B
$GPGGA,061043.60,3010.88931219,N,12008.34822498,E,4,18,1.0,9.444,M,7.233,M,0.6,2589*73
$GPRMC,061043.60,A,3010.88931219,N,12008.34822498,E,0.06,162.02,181017,5.5,W,D,S*56
$GPHDT,,T*1B
$GPGGA,061043.65,3010.88931249,N,12008.34822581,E,4,18,1.0,9.441,M,7.233,M,0.7,2589*7E
$GPRMC,061043.65,A,3010.88931249,N,12008.34822581,E,0.05,47.74,181017,5.5,W,D,S*6B
$GPHDT,,T*1B
$GPGGA,061043.70,3010.88931240,N,12008.34822561,E,4,18,1.0,9.444,M,7.233,M,0.7,2589*78
$GPRMC,061043.70,A,3010.88931240,N,12008.34822561,E,0.02,284.10,181017,5.5,W,D,S*50
$GPHDT,,T*1B
$GPGGA,061043.75,3010.88931156,N,12008.34822542,E,4,18,1.0,9.445,M,7.233,M,0.8,2589*76
$GPRMC,061043.75,A,3010.88931156,N,12008.34822542,E,0.10,184.01,181017,5.5,W,D,S*50
$GPHDT,,T*1B
$GPGGA,061043.80,3010.88931145,N,12008.34822529,E,4,18,1.0,9.445,M,7.233,M,0.8,2589*73
$GPRMC,061043.80,A,3010.88931145,N,12008.34822529,E,0.06,350.98,181017,5.5,W,D,S*59
$GPHDT,,T*1B
$GPGGA,061043.85,3010.88931147,N,12008.34822528,E,4,18,1.0,9.446,M,7.233,M,0.9,2589*77
$GPRMC,061043.85,A,3010.88931147,N,12008.34822528,E,0.06,169.56,181017,5.5,W,D,S*55
$GPHDT,,T*1B
$GPGGA,061043.90,3010.88931193,N,12008.34822532,E,4,18,1.0,9.443,M,7.233,M,0.9,2589*74
$GPRMC,061043.90,A,3010.88931193,N,12008.34822532,E,0.08,342.88,181017,5.5,W,D,S*55
$GPHDT,,T*1B
$GPGGA,061043.95,3010.88931243,N,12008.34822552,E,4,18,1.0,9.441,M,7.233,M,1.0,2589*73
$GPRMC,061043.95,A,3010.88931243,N,12008.34822552,E,0.04,113.80,181017,5.5,W,D,S*5A
$GPHDT,,T*1B
$GPGGA,061044.00,3010.88931194,N,12008.34822528,E,4,18,1.0,9.444,M,7.233,M,1.0,2589*79
$GPRMC,061044.00,A,3010.88931194,N,12008.34822528,E,0.02,219.08,181017,5.5,W,D,S*5A
$GPHDT,,T*1B
$GPGGA,061044.05,3010.88931239,N,12008.34822520,E,4,18,1.0,9.444,M,7.233,M,1.1,2589*71
$GPRMC,061044.05,A,3010.88931239,N,12008.34822520,E,0.05,347.58,181017,5.5,W,D,S*5B
$GPHDT,,T*1B
$GPGGA,061044.10,3010.88931331,N,12008.34822587,E,4,18,1.0,9.443,M,7.233,M,1.1,2589*76
$GPRMC,061044.10,A,3010.88931331,N,12008.34822587,E,0.07,58.56,181017,5.5,W,D,S*6A
$GPHDT,,T*1B
$GPGGA,061044.15,3010.88931352,N,12008.34822645,E,4,18,1.0,9.438,M,7.233,M,1.2,2589*74
$GPRMC,061044.15,A,3010.88931352,N,12008.34822645,E,0.04,207.43,181017,5.5,W,D,S*58
$GPHDT,,T*1B
$GPGGA,061044.20,3010.88931260,N,12008.34822591,E,4,18,1.0,9.444,M,7.233,M,0.2,2589*72
$GPRMC,061044.20,A,3010.88931260,N,12008.34822591,E,0.05,47.61,181017,5.5,W,D,S*63
$GPHDT,,T*1B
$GPGGA,061044.25,3010.88931368,N,12008.34822643,E,4,18,1.0,9.443,M,7.233,M,0.3,2589*74
$GPRMC,061044.25,A,3010.88931368,N,12008.34822643,E,0.11,8.11,181017,5.5,W,D,S*5A
$GPHDT,,T*1B
$GPGGA,061044.30,3010.88931261,N,12008.34822608,E,4,18,1.0,9.446,M,7.233,M,0.3,2589*72
$GPRMC,061044.30,A,3010.88931261,N,12008.34822608,E,0.16,187.46,181017,5.5,W,D,S*5A
$GPHDT,,T*1B
$GPGGA,061044.35,3010.88931157,N,12008.34822582,E,4,18,1.0,9.446,M,7.233,M,0.4,2589*77
$GPRMC,061044.35,A,3010.88931157,N,12008.34822582,E,0.02,286.09,181017,5.5,W,D,S*54
$GPHDT,,T*1B
$GPGGA,061044.40,3010.88931231,N,12008.34822583,E,4,18,1.0,9.446,M,7.233,M,0.4,2589*77
$GPRMC,061044.40,A,3010.88931231,N,12008.34822583,E,0.10,8.28,181017,5.5,W,D,S*50
$GPHDT,,T*1B
$GPGGA,061044.45,3010.88931261,N,12008.34822598,E,4,18,1.0,9.444,M,7.233,M,0.5,2589*7E
$GPRMC,061044.45,A,3010.88931261,N,12008.34822598,E,0.05,193.38,181017,5.5,W,D,S*5C
$GPHDT,,T*1B
$GPGGA,061044.50,3010.88931256,N,12008.34822594,E,4,18,1.0,9.446,M,7.233,M,0.5,2589*70
$GPRMC,061044.50,A,3010.88931256,N,12008.34822594,E,0.06,19.16,181017,5.5,W,D,S*6C
$GPHDT,,T*1B
$GPGGA,061044.55,3010.88931280,N,12008.34822576,E,4,18,1.0,9.448,M,7.233,M,0.6,2589*7F
$GPRMC,061044.55,A,3010.88931280,N,12008.34822576,E,0.02,301.62,181017,5.5,W,D,S*53
$GPHDT,,T*1B
$GPGGA,061044.60,3010.88931262,N,12008.34822597,E,4,18,1.0,9.445,M,7.233,M,0.6,2589*77
$GPRMC,061044.60,A,3010.88931262,N,12008.34822597,E,0.06,162.27,181017,5.5,W,D,S*54
$GPHDT,,T*1B
$GPGGA,061044.65,3010.88931146,N,12008.34822599,E,4,18,1.0,9.446,M,7.233,M,0.7,2589*7B
$GPRMC,061044.65,A,3010.88931146,N,12008.34822599,E,0.08,164.58,181017,5.5,W,D,S*5A
$GPHDT,,T*1B
$GPGGA,061044.70,3010.88931146,N,12008.34822583,E,4,18,1.0,9.448,M,7.233,M,0.7,2589*7A
$GPRMC,061044.70,A,3010.88931146,N,12008.34822583,E,0.09,353.56,181017,5.5,W,D,S*5C
$GPHDT,,T*1B
$GPGGA,061044.75,3010.88931147,N,12008.34822641,E,4,18,1.0,9.447,M,7.233,M,0.8,2589*73
$GPRMC,061044.75,A,3010.88931147,N,12008.34822641,E,0.11,144.36,181017,5.5,W,D,S*5E
$GPHDT,,T*1B
$GPGGA,061044.80,3010.88931078,N,12008.34822621,E,4,18,1.0,9.447,M,7.233,M,0.8,2589*72
$GPRMC,061044.80,A,3010.88931078,N,12008.34822621,E,0.05,270.02,181017,5.5,W,D,S*59
$GPHDT,,T*1B
$GPGGA,061044.85,3010.88931105,N,12008.34822583,E,4,18,1.0,9.449,M,7.233,M,0.9,2589*78
$GPRMC,061044.85,A,3010.88931105,N,12008.34822583,E,0.05,26.48,181017,5.5,W,D,S*63
$GPHDT,,T*1B
$GPGGA,061044.90,3010.88931234,N,12008.34822621,E,4,18,1.0,9.447,M,7.233,M,0.9,2589*78
$GPRMC,061044.90,A,3010.88931234,N,12008.34822621,E,0.10,0.43,181017,5.5,W,D,S*56
$GPHDT,,T*1B
$GPGGA,061044.95,3010.88931334,N,12008.34822631,E,4,18,1.0,9.445,M,7.233,M,1.0,2589*77
$GPRMC,061044.95,A,3010.88931334,N,12008.34822631,E,0.03,356.99,181017,5.5,W,D,S*56
$GPHDT,,T*1B
$GPGGA,061045.00,3010.88931155,N,12008.34822594,E,4,18,1.0,9.448,M,7.233,M,1.0,2589*7E
$GPRMC,061045.00,A,3010.88931155,N,12008.34822594,E,0.21,179.92,181017,5.5,W,D,S*56
$GPHDT,,T*1B
$GPGGA,061045.05,3010.88931127,N,12008.34822576,E,4,18,1.0,9.449,M,7.233,M,1.1,2589*72
$GPRMC,061045.05,A,3010.88931127,N,12008.34822576,E,0.12,349.02,181017,5.5,W,D,S*52
$GPHDT,,T*1B
$GPGGA,061045.10,3010.88931199,N,12008.34822513,E,4,18,1.0,9.449,M,7.233,M,1.1,2589*70
$GPRMC,061045.10,A,3010.88931199,N,12008.34822513,E,0.05,254.99,181017,5.5,W,D,S*59
$GPHDT,,T*1B
$GPGGA,061045.15,3010.88931242,N,12008.34822578,E,4,18,1.0,9.443,M,7.233,M,1.2,2589*74
$GPRMC,061045.15,A,3010.88931242,N,12008.34822578,E,0.07,88.19,181017,5.5,W,D,S*6D
$GPHDT,,T*1B
$GPGGA,061045.20,3010.88931202,N,12008.34822538,E,4,18,1.0,9.447,M,7.233,M,1.2,2589*76
$GPRMC,061045.20,A,3010.88931202,N,12008.34822538,E,0.05,268.52,181017,5.5,W,D,S*5A
$GPHDT,,T*1B
$GPGGA,061045.25,3010.88931266,N,12008.34822412,E,4,18,1.0,9.447,M,7.233,M,1.3,2589*79
$GPRMC,061045.25,A,3010.88931266,N,12008.34822412,E,0.12,311.14,181017,5.5,W,D,S*5F
$GPHDT,,T*1B
$GPGGA,061045.30,3010.88931302,N,12008.34822336,E,4,18,1.0,9.448,M,7.233,M,0.3,2589*71
$GPRMC,061045.30,A,3010.88931302,N,12008.34822336,E,0.01,172.95,181017,5.5,W,D,S*55
$GPHDT,,T*1B
$GPGGA,061045.35,3010.88931307,N,12008.34822288,E,4,18,1.0,9.448,M,7.233,M,0.4,2589*72
$GPRMC,061045.35,A,3010.88931307,N,12008.34822288,E,0.05,288.67,181017,5.5,W,D,S*5E
$GPHDT,,T*1B
$GPGGA,061045.40,3010.88931290,N,12008.34822133,E,4,18,1.0,9.447,M,7.233,M,0.4,2589*73
$GPRMC,061045.40,A,3010.88931290,N,12008.34822133,E,0.14,252.04,181017,5.5,W,D,S*52
$GPHDT,,T*1B
$GPGGA,061045.45,3010.88931388,N,12008.34821950,E,4,18,1.0,9.447,M,7.233,M,0.5,2589*71
$GPRMC,061045.45,A,3010.88931388,N,12008.34821950,E,0.19,335.15,181017,5.5,W,D,S*5C
$GPHDT,,T*1B
$GPGGA,061045.50,3010.88931449,N,12008.34821745,E,4,18,1.0,9.449,M,7.233,M,0.5,2589*7B
$GPRMC,061045.50,A,3010.88931449,N,12008.34821745,E,0.15,256.62,181017,5.5,W,D,S*50
$GPHDT,,T*1B
$GPGGA,061045.55,3010.88931582,N,12008.34821575,E,4,18,1.0,9.446,M,7.233,M,0.6,2589*75
$GPRMC,061045.55,A,3010.88931582,N,12008.34821575,E,0.20,324.97,181017,5.5,W,D,S*5A
$GPHDT,,T*1B
$GPGGA,061045.60,3010.88931654,N,12008.34821318,E,4,18,1.0,9.447,M,7.233,M,0.6,2589*77
$GPRMC,061045.60,A,3010.88931654,N,12008.34821318,E,0.16,266.48,181017,5.5,W,D,S*59
$GPHDT,,T*1B
$GPGGA,061045.65,3010.88931658,N,12008.34821029,E,4,18,1.0,9.448,M,7.233,M,0.7,2589*71
$GPRMC,061045.65,A,3010.88931658,N,12008.34821029,E,0.18,284.59,181017,5.5,W,D,S*53
$GPHDT,,T*1B
$GPGGA,061045.70,3010.88931762,N,12008.34820699,E,4,18,1.0,9.450,M,7.233,M,0.7,2589*78
$GPRMC,061045.70,A,3010.88931762,N,12008.34820699,E,0.24,302.94,181017,5.5,W,D,S*52
$GPHDT,,T*1B
$GPGGA,061045.75,3010.88931854,N,12008.34820386,E,4,18,1.0,9.450,M,7.233,M,0.8,2589*73
$GPRMC,061045.75,A,3010.88931854,N,12008.34820386,E,0.18,276.29,181017,5.5,W,D,S*5D
$GPHDT,,T*1B
$GPGGA,061045.80,3010.88931856,N,12008.34820011,E,4,18,1.0,9.452,M,7.233,M,0.8,2589*74
$GPRMC,061045.80,A,3010.88931856,N,12008.34820011,E,0.26,272.93,181017,5.5,W,D,S*50
$GPHDT,,T*1B
$GPGGA,061045.85,3010.88931970,N,12008.34819571,E,4,18,1.0,9.452,M,7.233,M,0.9,2589*7C
$GPRMC,061045.85,A,3010.88931970,N,12008.34819571,E,0.31,295.74,181017,5.5,W,D,S*5F
$GPHDT,,T*1B
$GPGGA,061045.90,3010.88932127,N,12008.34819184,E,4,18,1.0,9.454,M,7.233,M,0.9,2589*79
$GPRMC,061045.90,A,3010.88932127,N,12008.34819184,E,0.21,299.37,181017,5.5,W,D,S*56
$GPHDT,,T*1B
$GPGGA,061045.95,3010.88932290,N,12008.34818796,E,4,18,1.0,9.453,M,7.233,M,1.0,2589*78
$GPRMC,061045.95,A,3010.88932290,N,12008.34818796,E,0.31,291.95,181017,5.5,W,D,S*59
$GPHDT,,T*1B
$GPGGA,061046.00,3010.88932438,N,12008.34818277,E,4,18,1.0,9.456,M,7.233,M,1.0,2589*7C
$GPRMC,061046.00,A,3010.88932438,N,12008.34818277,E,0.33,292.09,181017,5.5,W,D,S*5C
$GPHDT,,T*1B
$GPGGA,061046.05,3010.88932636,N,12008.34817755,E,4,18,1.0,9.455,M,7.233,M,1.1,2589*7D
$GPRMC,061046.05,A,3010.88932636,N,12008.34817755,E,0.35,292.60,181017,5.5,W,D,S*56
$GPHDT,,T*1B
$GPGGA,061046.10,3010.88932772,N,12008.34817212,E,4,18,1.0,9.453,M,7.233,M,1.1,2589*78
$GPRMC,061046.10,A,3010.88932772,N,12008.34817212,E,0.35,277.36,181017,5.5,W,D,S*5D
$GPHDT,,T*1B
$GPGGA,061046.15,3010.88932853,N,12008.34816697,E,4,18,1.0,9.451,M,7.233,M,1.2,2589*78
$GPRMC,061046.15,A,3010.88932853,N,12008.34816697,E,0.30,283.17,181017,5.5,W,D,S*51
$GPHDT,,T*1B
$GPGGA,061046.20,3010.88933061,N,12008.34816153,E,4,18,1.0,9.450,M,7.233,M,1.2,2589*78
$GPRMC,061046.20,A,3010.88933061,N,12008.34816153,E,0.43,299.21,181017,5.5,W,D,S*5A
$GPHDT,,T*1B
$GPGGA,061046.25,3010.88933281,N,12008.34815518,E,4,18,1.0,9.451,M,7.233,M,1.3,2589*79
$GPRMC,061046.25,A,3010.88933281,N,12008.34815518,E,0.40,287.55,181017,5.5,W,D,S*54
$GPHDT,,T*1B
$GPGGA,061046.30,3010.88933510,N,12008.34814856,E,4,18,1.0,9.451,M,7.233,M,0.3,2589*75
$GPRMC,061046.30,A,3010.88933510,N,12008.34814856,E,0.47,296.64,181017,5.5,W,D,S*5C
$GPHDT,,T*1B
$GPGGA,061046.35,3010.88933748,N,12008.34814163,E,4,18,1.0,9.450,M,7.233,M,0.4,2589*76
$GPRMC,061046.35,A,3010.88933748,N,12008.34814163,E,0.45,289.94,181017,5.5,W,D,S*5A
$GPHDT,,T*1B
$GPGGA,061046.40,3010.88933892,N,12008.34813384,E,4,18,1.0,9.451,M,7.233,M,0.4,2589*71
$GPRMC,061046.40,A,3010.88933892,N,12008.34813384,E,0.52,278.44,181017,5.5,W,D,S*59
$GPHDT,,T*1B
$GPGGA,061046.45,3010.88934014,N,12008.34812520,E,4,18,1.0,9.452,M,7.233,M,0.5,2589*7E
$GPRMC,061046.45,A,3010.88934014,N,12008.34812520,E,0.54,281.84,181017,5.5,W,D,S*58
$GPHDT,,T*1B
$GPGGA,061046.50,3010.88934283,N,12008.34811654,E,4,18,1.0,9.453,M,7.233,M,0.5,2589*74
$GPRMC,061046.50,A,3010.88934283,N,12008.34811654,E,0.59,295.99,181017,5.5,W,D,S*57
$GPHDT,,T*1B
$GPGGA,061046.55,3010.88934557,N,12008.34810682,E,4,18,1.0,9.452,M,7.233,M,0.6,2589*77
$GPRMC,061046.55,A,3010.88934557,N,12008.34810682,E,0.66,280.95,181017,5.5,W,D,S*52
$GPHDT,,T*1B
$GPGGA,061046.60,3010.88934679,N,12008.34809569,E,4,18,1.0,9.456,M,7.233,M,0.6,2589*74
$GPRMC,061046.60,A,3010.88934679,N,12008.34809569,E,0.67,278.46,181017,5.5,W,D,S*5D
$GPHDT,,T*1B
$GPGGA,061046.65,3010.88935048,N,12008.34808491,E,4,18,1.0,9.455,M,7.233,M,0.7,2589*71
$GPRMC,061046.65,A,3010.88935048,N,12008.34808491,E,0.76,297.37,181017,5.5,W,D,S*5D
$GPHDT,,T*1B
$GPGGA,061046.70,3010.88935360,N,12008.34807385,E,4,18,1.0,9.458,M,7.233,M,0.7,2589*7C
$GPRMC,061046.70,A,3010.88935360,N,12008.34807385,E,0.66,281.78,181017,5.5,W,D,S*50
$GPHDT,,T*1B
$GPGGA,061046.75,3010.88935592,N,12008.34806131,E,4,18,1.0,9.460,M,7.233,M,0.8,2589*7A
$GPRMC,061046.75,A,3010.88935592,N,12008.34806131,E,0.87,283.29,181017,5.5,W,D,S*5B
$GPHDT,,T*1B
$GPGGA,061046.80,3010.88935905,N,12008.34804777,E,4,18,1.0,9.462,M,7.233,M,0.8,2589*76
$GPRMC,061046.80,A,3010.88935905,N,12008.34804777,E,0.85,286.53,181017,5.5,W,D,S*5F
$GPHDT,,T*1B
$GPGGA,061046.85,3010.88936325,N,12008.34803349,E,4,18,1.0,9.464,M,7.233,M,0.9,2589*71
$GPRMC,061046.85,A,3010.88936325,N,12008.34803349,E,0.98,291.49,181017,5.5,W,D,S*5E
$GPHDT,,T*1B
$GPGGA,061046.90,3010.88936657,N,12008.34801778,E,4,18,1.0,9.462,M,7.233,M,0.9,2589*77
$GPRMC,061046.90,A,3010.88936657,N,12008.34801778,E,1.02,276.89,181017,5.5,W,D,S*59
$GPHDT,,T*1B
$GPGGA,061046.95,3010.88936924,N,12008.34800155,E,4,18,1.0,9.461,M,7.233,M,1.0,2589*7A
$GPRMC,061046.95,A,3010.88936924,N,12008.34800155,E,1.01,284.98,181017,5.5,W,D,S*51
$GPHDT,,T*1B
$GPGGA,061047.00,3010.88937199,N,12008.34798511,E,4,18,1.0,9.461,M,7.233,M,1.0,2589*72
$GPRMC,061047.00,A,3010.88937199,N,12008.34798511,E,1.04,278.33,181017,5.5,W,D,S*5E
$GPHDT,,T*1B
$GPGGA,061047.05,3010.88937570,N,12008.34796862,E,4,18,1.0,9.461,M,7.233,M,1.1,2589*72
$GPRMC,061047.05,A,3010.88937570,N,12008.34796862,E,1.07,288.34,181017,5.5,W,D,S*54
$GPHDT,,T*1B
$GPGGA,061047.10,3010.88937954,N,12008.34795157,E,4,18,1.0,9.463,M,7.233,M,1.1,2589*72
$GPRMC,061047.10,A,3010.88937954,N,12008.34795157,E,1.08,283.19,181017,5.5,W,D,S*5D
$GPHDT,,T*1B
$GPGGA,061047.15,3010.88938282,N,12008.34793312,E,4,18,1.0,9.462,M,7.233,M,1.2,2589*7F
$GPRMC,061047.15,A,3010.88938282,N,12008.34793312,E,1.21,281.20,181017,5.5,W,D,S*51
$GPHDT,,T*1B
$GPGGA,061047.20,3010.88938625,N,12008.34791351,E,4,18,1.0,9.464,M,7.233,M,1.2,2589*73
$GPRMC,061047.20,A,3010.88938625,N,12008.34791351,E,1.23,283.17,181017,5.5,W,D,S*5F
$GPHDT,,T*1B
$GPGGA,061047.25,3010.88938983,N,12008.34789313,E,4,18,1.0,9.466,M,7.233,M,1.3,2589*79
$GPRMC,061047.25,A,3010.88938983,N,12008.34789313,E,1.30,281.00,181017,5.5,W,D,S*50
$GPHDT,,T*1B
$GPGGA,061047.30,3010.88939388,N,12008.34787255,E,4,18,1.0,9.466,M,7.233,M,0.3,2589*71
$GPRMC,061047.30,A,3010.88939388,N,12008.34787255,E,1.30,286.02,181017,5.5,W,D,S*5C
$GPHDT,,T*1B
$GPGGA,061047.35,3010.88939815,N,12008.34785132,E,4,18,1.0,9.466,M,7.233,M,0.4,2589*7C
$GPRMC,061047.35,A,3010.88939815,N,12008.34785132,E,1.37,282.36,181017,5.5,W,D,S*52
$GPHDT,,T*1B
$GPGGA,061047.40,3010.88940154,N,12008.34782909,E,4,18,1.0,9.472,M,7.233,M,0.4,2589*7E
$GPRMC,061047.40,A,3010.88940154,N,12008.34782909,E,1.36,282.17,181017,5.5,W,D,S*57
$GPHDT,,T*1B
$GPGGA,061047.45,3010.88940687,N,12008.34780783,E,4,18,1.0,9.469,M,7.233,M,0.5,2589*77
$GPRMC,061047.45,A,3010.88940687,N,12008.34780783,E,1.38,287.13,181017,5.5,W,D,S*5A
$GPHDT,,T*1B
$GPGGA,061047.50,3010.88941134,N,12008.34778483,E,4,18,1.0,9.469,M,7.233,M,0.5,2589*79
$GPRMC,061047.50,A,3010.88941134,N,12008.34778483,E,1.51,279.94,181017,5.5,W,D,S*55
$GPHDT,,T*1B
$GPGGA,061047.55,3010.88941372,N,12008.34775951,E,4,18,1.0,9.473,M,7.233,M,0.6,2589*7B
$GPRMC,061047.55,A,3010.88941372,N,12008.34775951,E,1.57,276.09,181017,5.5,W,D,S*52
$GPHDT,,T*1B
$GPGGA,061047.60,3010.88941796,N,12008.34773398,E,4,18,1.0,9.469,M,7.233,M,0.6,2589*71
$GPRMC,061047.60,A,3010.88941796,N,12008.34773398,E,1.63,283.30,181017,5.5,W,D,S*54
$GPHDT,,T*1B
$GPGGA,061047.65,3010.88942373,N,12008.34770966,E,4,18,1.0,9.470,M,7.233,M,0.7,2589*79
$GPRMC,061047.65,A,3010.88942373,N,12008.34770966,E,1.47,287.03,181017,5.5,W,D,S*57
$GPHDT,,T*1B
$GPGGA,061047.70,3010.88942836,N,12008.34768424,E,4,18,1.0,9.470,M,7.233,M,0.7,2589*75
$GPRMC,061047.70,A,3010.88942836,N,12008.34768424,E,1.70,279.27,181017,5.5,W,D,S*58
$GPHDT,,T*1B
$GPGGA,061047.75,3010.88943310,N,12008.34765553,E,4,18,1.0,9.470,M,7.233,M,0.8,2589*7D
$GPRMC,061047.75,A,3010.88943310,N,12008.34765553,E,1.86,282.39,181017,5.5,W,D,S*5D
$GPHDT,,T*1B
$GPGGA,061047.80,3010.88943753,N,12008.34762678,E,4,18,1.0,9.466,M,7.233,M,0.8,2589*7E
$GPRMC,061047.80,A,3010.88943753,N,12008.34762678,E,1.76,277.39,181017,5.5,W,D,S*5C
$GPHDT,,T*1B
$GPGGA,061047.85,3010.88944161,N,12008.34759774,E,4,18,1.0,9.466,M,7.233,M,0.9,2589*7F
$GPRMC,061047.85,A,3010.88944161,N,12008.34759774,E,1.85,281.09,181017,5.5,W,D,S*5A
$GPHDT,,T*1B
$GPGGA,061047.90,3010.88944511,N,12008.34756673,E,4,18,1.0,9.469,M,7.233,M,0.9,2589*7E
$GPRMC,061047.90,A,3010.88944511,N,12008.34756673,E,1.96,275.46,181017,5.5,W,D,S*56
$GPHDT,,T*1B
$GPGGA,061047.95,3010.88944930,N,12008.34753575,E,4,18,1.0,9.469,M,7.233,M,1.0,2589*7C
$GPRMC,061047.95,A,3010.88944930,N,12008.34753575,E,1.91,280.38,181017,5.5,W,D,S*58
$GPHDT,,T*1B
$GPGGA,061048.00,3010.88945476,N,12008.34750545,E,4,18,1.0,9.467,M,7.233,M,1.0,2589*7F
$GPRMC,061048.00,A,3010.88945476,N,12008.34750545,E,1.91,280.77,181017,5.5,W,D,S*5E
$GPHDT,,T*1B
$GPGGA,061048.05,3010.88945882,N,12008.34747320,E,4,18,1.0,9.463,M,7.233,M,1.1,2589*7B
$GPRMC,061048.05,A,3010.88945882,N,12008.34747320,E,2.10,275.35,181017,5.5,W,D,S*59
$GPHDT,,T*1B
$GPGGA,061048.10,3010.88946334,N,12008.34743986,E,4,18,1.0,9.467,M,7.233,M,1.1,2589*7C
$GPRMC,061048.10,A,3010.88946334,N,12008.34743986,E,2.03,283.94,181017,5.5,W,D,S*5A
$GPHDT,,T*1B
$GPGGA,061048.15,3010.88947048,N,12008.34740802,E,4,18,1.0,9.462,M,7.233,M,1.2,2589*78
$GPRMC,061048.15,A,3010.88947048,N,12008.34740802,E,2.06,282.95,181017,5.5,W,D,S*5D
$GPHDT,,T*1B
$GPGGA,061048.20,3010.88947434,N,12008.34737484,E,4,18,1.0,9.456,M,7.233,M,1.2,2589*74
$GPRMC,061048.20,A,3010.88947434,N,12008.34737484,E,2.11,273.14,181017,5.5,W,D,S*57
$GPHDT,,T*1B
$GPGGA,061048.25,3010.88947827,N,12008.34733987,E,4,18,1.0,9.459,M,7.233,M,1.3,2589*7B
$GPRMC,061048.25,A,3010.88947827,N,12008.34733987,E,2.22,282.51,181017,5.5,W,D,S*59
$GPHDT,,T*1B
$GPGGA,061048.30,3010.88948415,N,12008.34730538,E,4,18,1.0,9.458,M,7.233,M,0.3,2589*76
$GPRMC,061048.30,A,3010.88948415,N,12008.34730538,E,2.14,280.09,181017,5.5,W,D,S*5E
$GPHDT,,T*1B
$GPGGA,061048.35,3010.88948795,N,12008.34727130,E,4,18,1.0,9.459,M,7.233,M,0.4,2589*74
$GPRMC,061048.35,A,3010.88948795,N,12008.34727130,E,2.11,277.39,181017,5.5,W,D,S*54
$GPHDT,,T*1B
$GPGGA,061048.40,3010.88949143,N,12008.34723602,E,4,18,1.0,9.458,M,7.233,M,0.4,2589*79
$GPRMC,061048.40,A,3010.88949143,N,12008.34723602,E,2.24,276.58,181017,5.5,W,D,S*58
$GPHDT,,T*1B
$GPGGA,061048.45,3010.88949434,N,12008.34720083,E,4,18,1.0,9.458,M,7.233,M,0.5,2589*74
$GPRMC,061048.45,A,3010.88949434,N,12008.34720083,E,2.12,275.60,181017,5.5,W,D,S*59
$GPHDT,,T*1B
$GPGGA,061048.50,3010.88949720,N,12008.34716535,E,4,18,1.0,9.459,M,7.233,M,0.5,2589*7A
$GPRMC,061048.50,A,3010.88949720,N,12008.34716535,E,2.25,276.32,181017,5.5,W,D,S*56
$GPHDT,,T*1B
$GPGGA,061048.55,3010.88950089,N,12008.34712900,E,4,18,1.0,9.459,M,7.233,M,0.6,2589*7E
$GPRMC,061048.55,A,3010.88950089,N,12008.34712900,E,2.27,277.43,181017,5.5,W,D,S*54
$GPHDT,,T*1B
$GPGGA,061048.60,3010.88950402,N,12008.34709282,E,4,18,1.0,9.459,M,7.233,M,0.6,2589*74
$GPRMC,061048.60,A,3010.88950402,N,12008.34709282,E,2.25,274.19,181017,5.5,W,D,S*50
$GPHDT,,T*1B
$GPGGA,061048.65,3010.88950800,N,12008.34705679,E,4,18,1.0,9.457,M,7.233,M,0.7,2589*7C
$GPRMC,061048.65,A,3010.88950800,N,12008.34705679,E,2.28,278.49,181017,5.5,W,D,S*53
$GPHDT,,T*1B
$GPGGA,061048.70,3010.88951291,N,12008.34702228,E,4,18,1.0,9.454,M,7.233,M,0.7,2589*7F
$GPRMC,061048.70,A,3010.88951291,N,12008.34702228,E,2.12,278.60,181017,5.5,W,D,S*51
$GPHDT,,T*1B
$GPGGA,061048.75,3010.88951713,N,12008.34698837,E,4,18,1.0,9.453,M,7.233,M,0.8,2589*7B
$GPRMC,061048.75,A,3010.88951713,N,12008.34698837,E,2.16,276.76,181017,5.5,W,D,S*50
$GPHDT,,T*1B
$GPGGA,061048.80,3010.88952167,N,12008.34695380,E,4,18,1.0,9.452,M,7.233,M,0.8,2589*7C
$GPRMC,061048.80,A,3010.88952167,N,12008.34695380,E,2.19,280.97,181017,5.5,W,D,S*5F
$GPHDT,,T*1B
$GPGGA,061048.85,3010.88952601,N,12008.34691910,E,4,18,1.0,9.450,M,7.233,M,0.9,2589*7A
$GPRMC,061048.85,A,3010.88952601,N,12008.34691910,E,2.18,276.90,181017,5.5,W,D,S*55
$GPHDT,,T*1B
$GPGGA,061048.90,3010.88952947,N,12008.34688502,E,4,18,1.0,9.448,M,7.233,M,0.9,2589*7D
$GPRMC,061048.90,A,3010.88952947,N,12008.34688502,E,2.09,277.61,181017,5.5,W,D,S*54
$GPHDT,,T*1B
$GPGGA,061048.95,3010.88953270,N,12008.34685022,E,4,18,1.0,9.450,M,7.233,M,1.0,2589*7D
$GPRMC,061048.95,A,3010.88953270,N,12008.34685022,E,2.24,276.88,181017,5.5,W,D,S*5C
$GPHDT,,T*1B
$GPGGA,061049.00,3010.88953715,N,12008.34681477,E,4,18,1.0,9.449,M,7.233,M,1.0,2589*7E
$GPRMC,061049.00,A,3010.88953715,N,12008.34681477,E,2.22,279.98,181017,5.5,W,D,S*5F
$GPHDT,,T*1B
$GPGGA,061049.05,3010.88954045,N,12008.34677969,E,4,18,1.0,9.453,M,7.233,M,1.1,2589*7F
$GPRMC,061049.05,A,3010.88954045,N,12008.34677969,E,2.14,275.28,181017,5.5,W,D,S*56
$GPHDT,,T*1B
$GPGGA,061049.10,3010.88954497,N,12008.34674496,E,4,18,1.0,9.452,M,7.233,M,1.1,2589*7F
$GPRMC,061049.10,A,3010.88954497,N,12008.34674496,E,2.23,281.15,181017,5.5,W,D,S*56
$GPHDT,,T*1B
$GPGGA,061049.15,3010.88954967,N,12008.34670923,E,4,18,1.0,9.451,M,7.233,M,1.2,2589*7F
$GPRMC,061049.15,A,3010.88954967,N,12008.34670923,E,2.24,277.75,181017,5.5,W,D,S*5E
$GPHDT,,T*1B
$GPGGA,061049.20,3010.88955183,N,12008.34667212,E,4,18,1.0,9.454,M,7.233,M,1.2,2589*70
$GPRMC,061049.20,A,3010.88955183,N,12008.34667212,E,2.30,274.18,181017,5.5,W,D,S*59
$GPHDT,,T*1B
$GPGGA,061049.25,3010.88955324,N,12008.34663505,E,4,18,1.0,9.457,M,7.233,M,1.3,2589*7D
$GPRMC,061049.25,A,3010.88955324,N,12008.34663505,E,2.27,273.27,181017,5.5,W,D,S*5B
$GPHDT,,T*1B
$GPGGA,061049.30,3010.88955467,N,12008.34659850,E,4,18,1.0,9.457,M,7.233,M,0.3,2589*7C
$GPRMC,061049.30,A,3010.88955467,N,12008.34659850,E,2.23,275.08,181017,5.5,W,D,S*54
$GPHDT,,T*1B
$GPGGA,061049.35,3010.88955561,N,12008.34656066,E,4,18,1.0,9.460,M,7.233,M,0.4,2589*7F
$GPRMC,061049.35,A,3010.88955561,N,12008.34656066,E,2.37,272.50,181017,5.5,W,D,S*5B
$GPHDT,,T*1B
$GPGGA,061049.40,3010.88955797,N,12008.34652366,E,4,18,1.0,9.461,M,7.233,M,0.4,2589*70
$GPRMC,061049.40,A,3010.88955797,N,12008.34652366,E,2.23,277.79,181017,5.5,W,D,S*5E
$GPHDT,,T*1B
$GPGGA,061049.45,3010.88956220,N,12008.34648788,E,4,18,1.0,9.458,M,7.233,M,0.5,2589*7B
$GPRMC,061049.45,A,3010.88956220,N,12008.34648788,E,2.25,278.59,181017,5.5,W,D,S*55
$GPHDT,,T*1B
$GPGGA,061049.50,3010.88956607,N,12008.34645183,E,4,18,1.0,9.461,M,7.233,M,0.5,2589*74
$GPRMC,061049.50,A,3010.88956607,N,12008.34645183,E,2.24,277.16,181017,5.5,W,D,S*55
$GPHDT,,T*1B
$GPGGA,061049.55,3010.88956888,N,12008.34641657,E,4,18,1.0,9.458,M,7.233,M,0.6,2589*7B
$GPRMC,061049.55,A,3010.88956888,N,12008.34641657,E,2.22,273.74,181017,5.5,W,D,S*55
$GPHDT,,T*1B
$GPGGA,061049.60,3010.88957204,N,12008.34638103,E,4,18,1.0,9.457,M,7.233,M,0.6,2589*75
$GPRMC,061049.60,A,3010.88957204,N,12008.34638103,E,2.25,278.87,181017,5.5,W,D,S*54
$GPHDT,,T*1B
$GPGGA,061049.65,3010.88957301,N,12008.34634378,E,4,18,1.0,9.451,M,7.233,M,0.7,2589*71
$GPRMC,061049.65,A,3010.88957301,N,12008.34634378,E,2.41,267.70,181017,5.5,W,D,S*53
$GPHDT,,T*1B
$GPGGA,061049.70,3010.88957287,N,12008.34630662,E,4,18,1.0,9.451,M,7.233,M,0.7,2589*70
$GPRMC,061049.70,A,3010.88957287,N,12008.34630662,E,2.20,274.39,181017,5.5,W,D,S*5A
$GPHDT,,T*1B
$GPGGA,061049.75,3010.88957551,N,12008.34627103,E,4,18,1.0,9.450,M,7.233,M,0.8,2589*71
$GPRMC,061049.75,A,3010.88957551,N,12008.34627103,E,2.29,275.79,181017,5.5,W,D,S*59
$GPHDT,,T*1B
$GPGGA,061049.80,3010.88957787,N,12008.34623487,E,4,18,1.0,9.443,M,7.233,M,0.8,2589*7D
$GPRMC,061049.80,A,3010.88957787,N,12008.34623487,E,2.26,272.70,181017,5.5,W,D,S*56
$GPHDT,,T*1B
$GPGGA,061049.85,3010.88958042,N,12008.34619930,E,4,18,1.0,9.443,M,7.233,M,0.9,2589*70
$GPRMC,061049.85,A,3010.88958042,N,12008.34619930,E,2.22,277.06,181017,5.5,W,D,S*5A
$GPHDT,,T*1B
$GPGGA,061049.90,3010.88958483,N,12008.34616425,E,4,18,1.0,9.440,M,7.233,M,0.9,2589*78
$GPRMC,061049.90,A,3010.88958483,N,12008.34616425,E,2.23,278.89,181017,5.5,W,D,S*58
$GPHDT,,T*1B
$GPGGA,061049.95,3010.88958942,N,12008.34612796,E,4,18,1.0,9.440,M,7.233,M,1.0,2589*7A
$GPRMC,061049.95,A,3010.88958942,N,12008.34612796,E,2.34,277.74,181017,5.5,W,D,S*59
$GPHDT,,T*1B
$GPGGA,061050.00,3010.88959252,N,12008.34609162,E,4,18,1.0,9.439,M,7.233,M,1.0,2589*7C
$GPRMC,061050.00,A,3010.88959252,N,12008.34609162,E,2.25,273.54,181017,5.5,W,D,S*57
$GPHDT,,T*1B
$GPGGA,061050.05,3010.88959504,N,12008.34605554,E,4,18,1.0,9.436,M,7.233,M,1.1,2589*7E
$GPRMC,061050.05,A,3010.88959504,N,12008.34605554,E,2.29,276.45,181017,5.5,W,D,S*52
$GPHDT,,T*1B
$GPGGA,061050.10,3010.88959764,N,12008.34601816,E,4,18,1.0,9.435,M,7.233,M,1.1,2589*72
$GPRMC,061050.10,A,3010.88959764,N,12008.34601816,E,2.36,275.42,181017,5.5,W,D,S*57
$GPHDT,,T*1B
$GPGGA,061050.15,3010.88959974,N,12008.34598030,E,4,18,1.0,9.436,M,7.233,M,1.2,2589*77
$GPRMC,061050.15,A,3010.88959974,N,12008.34598030,E,2.34,274.43,181017,5.5,W,D,S*50
$GPHDT,,T*1B
$GPGGA,061050.20,3010.88960258,N,12008.34594322,E,4,18,1.0,9.439,M,7.233,M,1.2,2589*7D
$GPRMC,061050.20,A,3010.88960258,N,12008.34594322,E,2.27,278.25,181017,5.5,W,D,S*5B
$GPHDT,,T*1B
$GPGGA,061050.25,3010.88960660,N,12008.34590633,E,4,18,1.0,9.443,M,7.233,M,1.3,2589*7A
$GPRMC,061050.25,A,3010.88960660,N,12008.34590633,E,2.32,278.53,181017,5.5,W,D,S*55
$GPHDT,,T*1B
$GPGGA,061050.30,3010.88961031,N,12008.34587006,E,4,18,1.0,9.439,M,7.233,M,0.3,2589*77
$GPRMC,061050.30,A,3010.88961031,N,12008.34587006,E,2.26,275.55,181017,5.5,W,D,S*5A
$GPHDT,,T*1B
$GPGGA,061050.35,3010.88961297,N,12008.34583290,E,4,18,1.0,9.442,M,7.233,M,0.4,2589*7E
$GPRMC,061050.35,A,3010.88961297,N,12008.34583290,E,2.34,276.55,181017,5.5,W,D,S*58
$GPHDT,,T*1B
$GPGGA,061050.40,3010.88961672,N,12008.34579604,E,4,18,1.0,9.439,M,7.233,M,0.4,2589*73
$GPRMC,061050.40,A,3010.88961672,N,12008.34579604,E,2.28,278.48,181017,5.5,W,D,S*56
$GPHDT,,T*1B
$GPGGA,061050.45,3010.88961894,N,12008.34575874,E,4,18,1.0,9.438,M,7.233,M,0.5,2589*75
$GPRMC,061050.45,A,3010.88961894,N,12008.34575874,E,2.34,272.84,181017,5.5,W,D,S*57
$GPHDT,,T*1B
$GPGGA,061050.50,3010.88961976,N,12008.34572095,E,4,18,1.0,9.441,M,7.233,M,0.5,2589*72
$GPRMC,061050.50,A,3010.88961976,N,12008.34572095,E,2.31,273.37,181017,5.5,W,D,S*52
$GPHDT,,T*1B
$GPGGA,061050.55,3010.88962311,N,12008.34568448,E,4,18,1.0,9.441,M,7.233,M,0.6,2589*73
$GPRMC,061050.55,A,3010.88962311,N,12008.34568448,E,2.26,280.57,181017,5.5,W,D,S*5C
$GPHDT,,T*1B
$GPGGA,061050.60,3010.88962772,N,12008.34564790,E,4,18,1.0,9.442,M,7.233,M,0.6,2589*7D
$GPRMC,061050.60,A,3010.88962772,N,12008.34564790,E,2.32,278.42,181017,5.5,W,D,S*57
$GPHDT,,T*1B
$GPGGA,061050.65,3010.88963128,N,12008.34560982,E,4,18,1.0,9.444,M,7.233,M,0.7,2589*7E
$GPRMC,061050.65,A,3010.88963128,N,12008.34560982,E,2.41,276.64,181017,5.5,W,D,S*5D
$GPHDT,,T*1B
$GPGGA,061050.70,3010.88963407,N,12008.34557155,E,4,18,1.0,9.441,M,7.233,M,0.7,2589*71
$GPRMC,061050.70,A,3010.88963407,N,12008.34557155,E,2.38,274.36,181017,5.5,W,D,S*5C
$GPHDT,,T*1B
$GPGGA,061050.75,3010.88963694,N,12008.34553302,E,4,18,1.0,9.440,M,7.233,M,0.8,2589*76
$GPRMC,061050.75,A,3010.88963694,N,12008.34553302,E,2.38,278.13,181017,5.5,W,D,S*5E
$GPHDT,,T*1B
$GPGGA,061050.80,3010.88963900,N,12008.34549489,E,4,18,1.0,9.441,M,7.233,M,0.8,2589*70
$GPRMC,061050.80,A,3010.88963900,N,12008.34549489,E,2.35,272.69,181017,5.5,W,D,S*53
$GPHDT,,T*1B
$GPGGA,061050.85,3010.88963980,N,12008.34545552,E,4,18,1.0,9.443,M,7.233,M,0.9,2589*75
$GPRMC,061050.85,A,3010.88963980,N,12008.34545552,E,2.47,273.22,181017,5.5,W,D,S*5E
$GPHDT,,T*1B
$GPGGA,061050.90,3010.88964261,N,12008.34541737,E,4,18,1.0,9.444,M,7.233,M,0.9,2589*70
$GPRMC,061050.90,A,3010.88964261,N,12008.34541737,E,2.33,277.36,181017,5.5,W,D,S*5E
$GPHDT,,T*1B
$GPGGA,061050.95,3010.88964723,N,12008.34537991,E,4,18,1.0,9.444,M,7.233,M,1.0,2589*7D
$GPRMC,061050.95,A,3010.88964723,N,12008.34537991,E,2.39,279.70,181017,5.5,W,D,S*5D
$GPHDT,,T*1B
$GPGGA,061051.00,3010.88965302,N,12008.34534311,E,4,18,1.0,9.437,M,7.233,M,1.0,2589*73
$GPRMC,061051.00,A,3010.88965302,N,12008.34534311,E,2.35,279.86,181017,5.5,W,D,S*52
$GPHDT,,T*1B
$GPGGA,061051.05,3010.88965649,N,12008.34530485,E,4,18,1.0,9.438,M,7.233,M,1.1,2589*7C
$GPRMC,061051.05,A,3010.88965649,N,12008.34530485,E,2.39,275.09,181017,5.5,W,D,S*54
$GPHDT,,T*1B
$GPGGA,061051.10,3010.88965950,N,12008.34526591,E,4,18,1.0,9.438,M,7.233,M,1.1,2589*7C
$GPRMC,061051.10,A,3010.88965950,N,12008.34526591,E,2.40,277.93,181017,5.5,W,D,S*5B
$GPHDT,,T*1B
$GPGGA,061051.15,3010.88966153,N,12008.34522665,E,4,18,1.0,9.439,M,7.233,M,1.2,2589*7F
$GPRMC,061051.15,A,3010.88966153,N,12008.34522665,E,2.42,273.93,181017,5.5,W,D,S*5C
$GPHDT,,T*1B
$GPGGA,061051.20,3010.88966349,N,12008.34518685,E,4,18,1.0,9.443,M,7.233,M,1.2,2589*7A
$GPRMC,061051.20,A,3010.88966349,N,12008.34518685,E,2.44,276.78,181017,5.5,W,D,S*52
$GPHDT,,T*1B
$GPGGA,061051.25,3010.88966678,N,12008.34514853,E,4,18,1.0,9.440,M,7.233,M,1.3,2589*73
$GPRMC,061051.25,A,3010.88966678,N,12008.34514853,E,2.36,276.75,181017,5.5,W,D,S*51
$GPHDT,,T*1B
$GPGGA,061051.30,3010.88966924,N,12008.34510980,E,4,18,1.0,9.440,M,7.233,M,0.3,2589*7B
$GPRMC,061051.30,A,3010.88966924,N,12008.34510980,E,2.46,274.03,181017,5.5,W,D,S*5C
$GPHDT,,T*1B
$GPGGA,061051.35,3010.88967088,N,12008.34507056,E,4,18,1.0,9.433,M,7.233,M,0.4,2589*77
$GPRMC,061051.35,A,3010.88967088,N,12008.34507056,E,2.45,272.62,181017,5.5,W,D,S*51
$GPHDT,,T*1B
$GPGGA,061051.40,3010.88967331,N,12008.34503213,E,4,18,1.0,9.433,M,7.233,M,0.4,2589*73
$GPRMC,061051.40,A,3010.88967331,N,12008.34503213,E,2.37,276.24,181017,5.5,W,D,S*56
$GPHDT,,T*1B
$GPGGA,061051.45,3010.88967706,N,12008.34499501,E,4,18,1.0,9.433,M,7.233,M,0.5,2589*71
$GPRMC,061051.45,A,3010.88967706,N,12008.34499501,E,2.26,279.82,181017,5.5,W,D,S*56
$GPHDT,,T*1B
$GPGGA,061051.50,3010.88967880,N,12008.34495749,E,4,18,1.0,9.430,M,7.233,M,0.5,2589*75
$GPRMC,061051.50,A,3010.88967880,N,12008.34495749,E,2.36,271.58,181017,5.5,W,D,S*5F
$GPHDT,,T*1B
$GPGGA,061051.55,3010.88968022,N,12008.34491909,E,4,18,1.0,9.430,M,7.233,M,0.6,2589*72
$GPRMC,061051.55,A,3010.88968022,N,12008.34491909,E,2.34,276.91,181017,5.5,W,D,S*5B
$GPHDT,,T*1B
$GPGGA,061051.60,3010.88968479,N,12008.34488044,E,4,18,1.0,9.430,M,7.233,M,0.6,2589*76
$GPRMC,061051.60,A,3010.88968479,N,12008.34488044,E,2.46,280.20,181017,5.5,W,D,S*59
$GPHDT,,T*1B
$GPGGA,061051.65,3010.88968909,N,12008.34484232,E,4,18,1.0,9.429,M,7.233,M,0.7,2589*7F
$GPRMC,061051.65,A,3010.88968909,N,12008.34484232,E,2.36,276.50,181017,5.5,W,D,S*50
$GPHDT,,T*1B
$GPGGA,061051.70,3010.88969055,N,12008.34480383,E,4,18,1.0,9.433,M,7.233,M,0.7,2589*7E
$GPRMC,061051.70,A,3010.88969055,N,12008.34480383,E,2.40,272.66,181017,5.5,W,D,S*5A
$GPHDT,,T*1B
$GPGGA,061051.75,3010.88969052,N,12008.34476549,E,4,18,1.0,9.429,M,7.233,M,0.8,2589*71
$GPRMC,061051.75,A,3010.88969052,N,12008.34476549,E,2.39,268.44,181017,5.5,W,D,S*54
$GPHDT,,T*1B
$GPGGA,061051.80,3010.88969187,N,12008.34472745,E,4,18,1.0,9.424,M,7.233,M,0.8,2589*75
$GPRMC,061051.80,A,3010.88969187,N,12008.34472745,E,2.35,277.37,181017,5.5,W,D,S*5B
$GPHDT,,T*1B
$GPGGA,061051.85,3010.88969365,N,12008.34468795,E,4,18,1.0,9.427,M,7.233,M,0.9,2589*7A
$GPRMC,061051.85,A,3010.88969365,N,12008.34468795,E,2.47,273.19,181017,5.5,W,D,S*5B
$GPHDT,,T*1B
$GPGGA,061051.90,3010.88969605,N,12008.34464813,E,4,18,1.0,9.429,M,7.233,M,0.9,2589*7E
$GPRMC,061051.90,A,3010.88969605,N,12008.34464813,E,2.44,277.68,181017,5.5,W,D,S*50
$GPHDT,,T*1B
$GPGGA,061051.95,3010.88970033,N,12008.34461088,E,4,17,1.0,9.428,M,7.233,M,1.0,2589*79
$GPRMC,061051.95,A,3010.88970033,N,12008.34461088,E,2.26,278.57,181017,5.5,W,D,S*56
$GPHDT,,T*1B
$GPGGA,061052.00,3010.88970374,N,12008.34457337,E,4,17,1.2,9.424,M,7.233,M,1.0,2589*7A
$GPRMC,061052.00,A,3010.88970374,N,12008.34457337,E,2.43,275.29,181017,5.5,W,D,S*5C
$GPHDT,,T*1B
$GPGGA,061052.05,3010.88970610,N,12008.34453574,E,4,17,1.2,9.427,M,7.233,M,1.1,2589*7F
$GPRMC,061052.05,A,3010.88970610,N,12008.34453574,E,2.27,275.59,181017,5.5,W,D,S*5E
$GPHDT,,T*1B
$GPGGA,061052.10,3010.88970921,N,12008.34449800,E,4,17,1.2,9.427,M,7.233,M,1.1,2589*73
$GPRMC,061052.10,A,3010.88970921,N,12008.34449800,E,2.42,276.58,181017,5.5,W,D,S*53
$GPHDT,,T*1B
$GPGGA,061052.15,3010.88971217,N,12008.34445958,E,4,18,1.2,9.421,M,7.233,M,1.2,2589*73
$GPRMC,061052.15,A,3010.88971217,N,12008.34445958,E,2.41,274.11,181017,5.5,W,D,S*55
$GPHDT,,T*1B
$GPGGA,061052.20,3010.88971316,N,12008.34441934,E,4,17,1.0,9.419,M,7.233,M,1.2,2589*7D
$GPRMC,061052.20,A,3010.88971316,N,12008.34441934,E,2.57,271.43,181017,5.5,W,D,S*58
$GPHDT,,T*1B
$GPGGA,061052.25,3010.88971424,N,12008.34437987,E,4,17,1.0,9.422,M,7.233,M,1.3,2589*7E
$GPRMC,061052.25,A,3010.88971424,N,12008.34437987,E,2.34,274.24,181017,5.5,W,D,S*53
$GPHDT,,T*1B
$GPGGA,061052.30,3010.88971721,N,12008.34434246,E,4,17,1.0,9.421,M,7.233,M,0.3,2589*7B
$GPRMC,061052.30,A,3010.88971721,N,12008.34434246,E,2.34,275.52,181017,5.5,W,D,S*54
$GPHDT,,T*1B
$GPGGA,061052.35,3010.88972226,N,12008.34430602,E,4,17,1.0,9.419,M,7.233,M,0.4,2589*73
$GPRMC,061052.35,A,3010.88972226,N,12008.34430602,E,2.27,281.41,181017,5.5,W,D,S*5B
$GPHDT,,T*1B
$GPGGA,061052.40,3010.88972922,N,12008.34426892,E,4,17,1.0,9.419,M,7.233,M,0.4,2589*7E
$GPRMC,061052.40,A,3010.88972922,N,12008.34426892,E,2.41,282.57,181017,5.5,W,D,S*52
$GPHDT,,T*1B
$GPGGA,061052.45,3010.88973351,N,12008.34423184,E,4,17,1.0,9.419,M,7.233,M,0.5,2589*7E
$GPRMC,061052.45,A,3010.88973351,N,12008.34423184,E,2.26,274.12,181017,5.5,W,D,S*5A
$GPHDT,,T*1B
$GPGGA,061052.50,3010.88973544,N,12008.34419382,E,4,17,1.0,9.417,M,7.233,M,0.5,2589*7B
$GPRMC,061052.50,A,3010.88973544,N,12008.34419382,E,2.46,273.66,181017,5.5,W,D,S*53
$GPHDT,,T*1B
$GPGGA,061052.55,3010.88973587,N,12008.34415483,E,4,17,1.0,9.420,M,7.233,M,0.6,2589*7C
$GPRMC,061052.55,A,3010.88973587,N,12008.34415483,E,2.35,270.81,181017,5.5,W,D,S*5D
$GPHDT,,T*1B
$GPGGA,061052.60,3010.88973807,N,12008.34411685,E,4,17,1.0,9.416,M,7.233,M,0.6,2589*7A
$GPRMC,061052.60,A,3010.88973807,N,12008.34411685,E,2.38,277.31,181017,5.5,W,D,S*5F
$GPHDT,,T*1B
$GPGGA,061052.65,3010.88974215,N,12008.34407860,E,4,17,1.0,9.415,M,7.233,M,0.7,2589*71
$GPRMC,061052.65,A,3010.88974215,N,12008.34407860,E,2.38,278.07,181017,5.5,W,D,S*5C
$GPHDT,,T*1B
$GPGGA,061052.70,3010.88974700,N,12008.34404098,E,4,17,1.0,9.413,M,7.233,M,0.7,2589*7E
$GPRMC,061052.70,A,3010.88974700,N,12008.34404098,E,2.34,279.89,181017,5.5,W,D,S*5E
$GPHDT,,T*1B
$GPGGA,061052.75,3010.88975068,N,12008.34400329,E,4,17,1.0,9.410,M,7.233,M,0.8,2589*72
$GPRMC,061052.75,A,3010.88975068,N,12008.34400329,E,2.40,274.44,181017,5.5,W,D,S*51
$GPHDT,,T*1B
$GPGGA,061052.80,3010.88975326,N,12008.34396367,E,4,17,1.0,9.412,M,7.233,M,0.8,2589*71
$GPRMC,061052.80,A,3010.88975326,N,12008.34396367,E,2.50,275.84,181017,5.5,W,D,S*5C
$GPHDT,,T*1B
$GPGGA,061052.85,3010.88975679,N,12008.34392492,E,4,17,1.0,9.411,M,7.233,M,0.9,2589*70
$GPRMC,061052.85,A,3010.88975679,N,12008.34392492,E,2.34,276.94,181017,5.5,W,D,S*5F
$GPHDT,,T*1B
$GPGGA,061052.90,3010.88975947,N,12008.34388664,E,4,17,1.0,9.415,M,7.233,M,0.9,2589*72
$GPRMC,061052.90,A,3010.88975947,N,12008.34388664,E,2.40,274.88,181017,5.5,W,D,S*55
$GPHDT,,T*1B
$GPGGA,061052.95,3010.88976319,N,12008.34384874,E,4,17,1.0,9.420,M,7.233,M,1.0,2589*78
$GPRMC,061052.95,A,3010.88976319,N,12008.34384874,E,2.34,279.63,181017,5.5,W,D,S*5A
$GPHDT,,T*1B
$GPGGA,061053.00,3010.88976713,N,12008.34381218,E,4,17,1.0,9.411,M,7.233,M,1.0,2589*7C
$GPRMC,061053.00,A,3010.88976713,N,12008.34381218,E,2.31,274.23,181017,5.5,W,D,S*50
$GPHDT,,T*1B
$GPGGA,061053.05,3010.88977112,N,12008.34377497,E,4,17,1.0,9.414,M,7.233,M,1.1,2589*73
$GPRMC,061053.05,A,3010.88977112,N,12008.34377497,E,2.32,282.29,181017,5.5,W,D,S*5B
$GPHDT,,T*1B
$GPGGA,061053.10,3010.88977598,N,12008.34373659,E,4,17,1.0,9.421,M,7.233,M,1.1,2589*73
$GPRMC,061053.10,A,3010.88977598,N,12008.34373659,E,2.38,279.73,181017,5.5,W,D,S*5C
$GPHDT,,T*1B
$GPGGA,061053.15,3010.88977936,N,12008.34369901,E,4,17,1.0,9.419,M,7.233,M,1.2,2589*7F
$GPRMC,061053.15,A,3010.88977936,N,12008.34369901,E,2.28,276.14,181017,5.5,W,D,S*57
$GPHDT,,T*1B
$GPGGA,061053.20,3010.88978102,N,12008.34365974,E,4,17,1.0,9.425,M,7.233,M,1.2,2589*78
$GPRMC,061053.20,A,3010.88978102,N,12008.34365974,E,2.47,274.89,181017,5.5,W,D,S*50
$GPHDT,,T*1B
$GPGGA,061053.25,3010.88978424,N,12008.34362126,E,4,17,1.0,9.423,M,7.233,M,1.3,2589*73
$GPRMC,061053.25,A,3010.88978424,N,12008.34362126,E,2.32,278.19,181017,5.5,W,D,S*5B
$GPHDT,,T*1B
$GPGGA,061053.30,3010.88978754,N,12008.34358264,E,4,17,1.0,9.424,M,7.233,M,0.3,2589*79
$GPRMC,061053.30,A,3010.88978754,N,12008.34358264,E,2.42,277.36,181017,5.5,W,D,S*52
$GPHDT,,T*1B
$GPGGA,061053.35,3010.88979110,N,12008.34354318,E,4,17,1.0,9.421,M,7.233,M,0.4,2589*7F
$GPRMC,061053.35,A,3010.88979110,N,12008.34354318,E,2.47,276.95,181017,5.5,W,D,S*5B
$GPHDT,,T*1B
$GPGGA,061053.40,3010.88979482,N,12008.34350486,E,4,17,1.0,9.416,M,7.233,M,0.4,2589*73
$GPRMC,061053.40,A,3010.88979482,N,12008.34350486,E,2.36,277.14,181017,5.5,W,D,S*5D
$GPHDT,,T*1B
$GPGGA,061053.45,3010.88979959,N,12008.34346692,E,4,17,1.0,9.416,M,7.233,M,0.5,2589*7C
$GPRMC,061053.45,A,3010.88979959,N,12008.34346692,E,2.37,281.24,181017,5.5,W,D,S*58
$GPHDT,,T*1B
$GPGGA,061053.50,3010.88980436,N,12008.34342797,E,4,17,1.0,9.415,M,7.233,M,0.5,2589*79
$GPRMC,061053.50,A,3010.88980436,N,12008.34342797,E,2.46,277.04,181017,5.5,W,D,S*53
$GPHDT,,T*1B
$GPGGA,061053.55,3010.88980760,N,12008.34339008,E,4,17,1.0,9.417,M,7.233,M,0.6,2589*70
$GPRMC,061053.55,A,3010.88980760,N,12008.34339008,E,2.27,276.38,181017,5.5,W,D,S*52
$GPHDT,,T*1B
$GPGGA,061053.60,3010.88981158,N,12008.34335234,E,4,17,1.0,9.417,M,7.233,M,0.6,2589*7B
$GPRMC,061053.60,A,3010.88981158,N,12008.34335234,E,2.42,278.46,181017,5.5,W,D,S*5D
$GPHDT,,T*1B
$GPGGA,061053.65,3010.88981647,N,12008.34331335,E,4,17,1.0,9.414,M,7.233,M,0.7,2589*71
$GPRMC,061053.65,A,3010.88981647,N,12008.34331335,E,2.46,279.50,181017,5.5,W,D,S*57
$GPHDT,,T*1B
$GPGGA,061053.70,3010.88982081,N,12008.34327330,E,4,17,1.0,9.414,M,7.233,M,0.7,2589*78
$GPRMC,061053.70,A,3010.88982081,N,12008.34327330,E,2.51,278.28,181017,5.5,W,D,S*56
$GPHDT,,T*1B
$GPGGA,061053.75,3010.88982351,N,12008.34323257,E,4,17,1.0,9.412,M,7.233,M,0.8,2589*7E
$GPRMC,061053.75,A,3010.88982351,N,12008.34323257,E,2.56,272.84,181017,5.5,W,D,S*52
$GPHDT,,T*1B
$GPGGA,061053.80,3010.88982591,N,12008.34319274,E,4,17,1.0,9.411,M,7.233,M,0.8,2589*75
$GPRMC,061053.80,A,3010.88982591,N,12008.34319274,E,2.44,275.14,181017,5.5,W,D,S*57
$GPHDT,,T*1B
$GPGGA,061053.85,3010.88983202,N,12008.34315437,E,4,17,1.0,9.406,M,7.233,M,0.9,2589*76
$GPRMC,061053.85,A,3010.88983202,N,12008.34315437,E,2.46,283.63,181017,5.5,W,D,S*58
$GPHDT,,T*1B
$GPGGA,061053.90,3010.88983809,N,12008.34311612,E,4,17,1.0,9.407,M,7.233,M,0.9,2589*73
$GPRMC,061053.90,A,3010.88983809,N,12008.34311612,E,2.41,277.92,181017,5.5,W,D,S*5E
$GPHDT,,T*1B
$GPGGA,061053.95,3010.88984258,N,12008.34307663,E,4,17,1.0,9.410,M,7.233,M,1.0,2589*70
$GPRMC,061053.95,A,3010.88984258,N,12008.34307663,E,2.55,277.35,181017,5.5,W,D,S*5B
$GPHDT,,T*1B
$GPGGA,061054.00,3010.88984755,N,12008.34303685,E,4,17,1.0,9.409,M,7.233,M,1.0,2589*77
$GPRMC,061054.00,A,3010.88984755,N,12008.34303685,E,2.49,278.73,181017,5.5,W,D,S*54
$GPHDT,,T*1B
$GPGGA,061054.05,3010.88985180,N,12008.34299742,E,4,17,1.0,9.402,M,7.233,M,1.1,2589*7F
$GPRMC,061054.05,A,3010.88985180,N,12008.34299742,E,2.52,275.02,181017,5.5,W,D,S*57
$GPHDT,,T*1B
$GPGGA,061054.10,3010.88985456,N,12008.34295711,E,4,17,1.0,9.406,M,7.233,M,1.1,2589*7B
$GPRMC,061054.10,A,3010.88985456,N,12008.34295711,E,2.50,275.93,181017,5.5,W,D,S*5D
$GPHDT,,T*1B
$GPGGA,061054.15,3010.88985797,N,12008.34291857,E,4,17,1.0,9.407,M,7.233,M,1.2,2589*7B
$GPRMC,061054.15,A,3010.88985797,N,12008.34291857,E,2.36,275.85,181017,5.5,W,D,S*58
$GPHDT,,T*1B
$GPGGA,061054.20,3010.88986238,N,12008.34288033,E,4,17,1.0,9.406,M,7.233,M,1.2,2589*7D
$GPRMC,061054.20,A,3010.88986238,N,12008.34288033,E,2.46,278.43,181017,5.5,W,D,S*5F
$GPHDT,,T*1B
$GPGGA,061054.25,3010.88986784,N,12008.34284072,E,4,17,1.0,9.407,M,7.233,M,1.3,2589*73
$GPRMC,061054.25,A,3010.88986784,N,12008.34284072,E,2.52,279.27,181017,5.5,W,D,S*57
$GPHDT,,T*1B
$GPGGA,061054.30,3010.88987183,N,12008.34280044,E,4,17,1.0,9.407,M,7.233,M,0.3,2589*77
$GPRMC,061054.30,A,3010.88987183,N,12008.34280044,E,2.52,273.89,181017,5.5,W,D,S*5C
$GPHDT,,T*1B
$GPGGA,061054.35,3010.88987683,N,12008.34276095,E,4,17,1.0,9.410,M,7.233,M,0.4,2589*71
$GPRMC,061054.35,A,3010.88987683,N,12008.34276095,E,2.44,282.11,181017,5.5,W,D,S*53
$GPHDT,,T*1B
$GPGGA,061054.40,3010.88988476,N,12008.34272354,E,4,17,1.0,9.404,M,7.233,M,0.4,2589*7B
$GPRMC,061054.40,A,3010.88988476,N,12008.34272354,E,2.39,282.45,181017,5.5,W,D,S*57
$GPHDT,,T*1B
$GPGGA,061054.45,3010.88989061,N,12008.34268496,E,4,17,1.0,9.400,M,7.233,M,0.5,2589*7A
$GPRMC,061054.45,A,3010.88989061,N,12008.34268496,E,2.48,276.92,181017,5.5,W,D,S*54
$GPHDT,,T*1B
