$GPHDT,,T*1B
$GPGGA,054331.65,3010.98654782,N,12008.33993048,E,4,22,0.6,9.067,M,7.232,M,0.6,2589*73
$GPRMC,054331.65,A,3010.98654782,N,12008.33993048,E,0.03,113.44,181017,5.5,W,D,S*5D
$GPHDT,,T*1B
$GPGGA,054331.70,3010.98654775,N,12008.33993104,E,4,22,0.6,9.067,M,7.232,M,0.7,2589*77
$GPRMC,054331.70,A,3010.98654775,N,12008.33993104,E,0.03,92.48,181017,5.5,W,D,S*6C
$GPHDT,,T*1B
$GPGGA,054331.75,3010.98654759,N,12008.33993107,E,4,22,0.6,9.066,M,7.232,M,0.7,2589*7E
$GPRMC,054331.75,A,3010.98654759,N,12008.33993107,E,0.03,246.68,181017,5.5,W,D,S*5D
$GPHDT,,T*1B
$GPGGA,054331.80,3010.98654735,N,12008.33993075,E,4,22,0.6,9.066,M,7.232,M,0.8,2589*75
$GPRMC,054331.80,A,3010.98654735,N,12008.33993075,E,0.03,232.25,181017,5.5,W,D,S*53
$GPHDT,,T*1B
$GPGGA,054331.85,3010.98654739,N,12008.33993080,E,4,22,0.6,9.066,M,7.232,M,0.8,2589*76
$GPRMC,054331.85,A,3010.98654739,N,12008.33993080,E,0.03,35.90,181017,5.5,W,D,S*6B
$GPHDT,,T*1B
$GPGGA,054331.90,3010.98654755,N,12008.33993067,E,4,22,0.6,9.067,M,7.232,M,0.9,2589*71
$GPRMC,054331.90,A,3010.98654755,N,12008.33993067,E,0.04,273.12,181017,5.5,W,D,S*51
$GPHDT,,T*1B
$GPGGA,054331.95,3010.98654736,N,12008.33993086,E,4,22,0.6,9.067,M,7.232,M,1.0,2589*76
$GPRMC,054331.95,A,3010.98654736,N,12008.33993086,E,0.05,118.02,181017,5.5,W,D,S*50
$GPHDT,,T*1B
$GPGGA,054332.00,3010.98654743,N,12008.33993118,E,4,22,0.6,9.066,M,7.232,M,1.0,2589*7C
$GPRMC,054332.00,A,3010.98654743,N,12008.33993118,E,0.02,344.10,181017,5.5,W,D,S*54
$GPHDT,,T*1B
$GPGGA,054332.05,3010.98654752,N,12008.33993121,E,4,22,0.6,9.066,M,7.232,M,1.1,2589*72
$GPRMC,054332.05,A,3010.98654752,N,12008.33993121,E,0.01,145.14,181017,5.5,W,D,S*5F
$GPHDT,,T*1B
$GPGGA,054332.10,3010.98654735,N,12008.33993132,E,4,22,0.6,9.066,M,7.232,M,1.1,2589*75
$GPRMC,054332.10,A,3010.98654735,N,12008.33993132,E,0.02,141.29,181017,5.5,W,D,S*51
$GPHDT,,T*1B
$GPGGA,054332.15,3010.98654740,N,12008.33993144,E,4,22,0.6,9.066,M,7.232,M,1.1,2589*73
$GPRMC,054332.15,A,3010.98654740,N,12008.33993144,E,0.02,355.34,181017,5.5,W,D,S*5C
$GPHDT,,T*1B
$GPGGA,054332.20,3010.98654764,N,12008.33993140,E,4,22,0.6,9.066,M,7.232,M,1.2,2589*74
$GPRMC,054332.20,A,3010.98654764,N,12008.33993140,E,0.02,325.66,181017,5.5,W,D,S*58
$GPHDT,,T*1B
$GPGGA,054332.25,3010.98654736,N,12008.33993132,E,4,22,0.6,9.066,M,7.232,M,1.2,2589*73
$GPRMC,054332.25,A,3010.98654736,N,12008.33993132,E,0.05,178.28,181017,5.5,W,D,S*58
$GPHDT,,T*1B
$GPGGA,054332.30,3010.98654752,N,12008.33993139,E,4,22,0.6,9.067,M,7.232,M,0.3,2589*7F
$GPRMC,054332.30,A,3010.98654752,N,12008.33993139,E,0.05,14.66,181017,5.5,W,D,S*64
$GPHDT,,T*1B
$GPGGA,054332.35,3010.98654791,N,12008.33993152,E,4,22,0.6,9.066,M,7.232,M,0.3,2589*79
$GPRMC,054332.35,A,3010.98654791,N,12008.33993152,E,0.02,83.80,181017,5.5,W,D,S*62
$GPHDT,,T*1B
$GPGGA,054332.40,3010.98654799,N,12008.33993118,E,4,22,0.6,9.067,M,7.232,M,0.4,2589*7B
$GPRMC,054332.40,A,3010.98654799,N,12008.33993118,E,0.04,269.63,181017,5.5,W,D,S*5B
$GPHDT,,T*1B
$GPGGA,054332.45,3010.98654794,N,12008.33993105,E,4,22,0.6,9.067,M,7.232,M,0.4,2589*7F
$GPRMC,054332.45,A,3010.98654794,N,12008.33993105,E,0.03,120.63,181017,5.5,W,D,S*56
$GPHDT,,T*1B
$GPGGA,054332.50,3010.98654801,N,12008.33993118,E,4,22,0.6,9.069,M,7.232,M,0.5,2589*7B
$GPRMC,054332.50,A,3010.98654801,N,12008.33993118,E,0.02,353.31,181017,5.5,W,D,S*5D
$GPHDT,,T*1B
$GPGGA,054332.55,3010.98654804,N,12008.33993097,E,4,22,0.6,9.069,M,7.232,M,0.5,2589*7D
$GPRMC,054332.55,A,3010.98654804,N,12008.33993097,E,0.01,245.77,181017,5.5,W,D,S*5C
$GPHDT,,T*1B
$GPGGA,054332.60,3010.98654800,N,12008.33993105,E,4,22,0.6,9.069,M,7.232,M,0.6,2589*76
$GPRMC,054332.60,A,3010.98654800,N,12008.33993105,E,0.03,106.02,181017,5.5,W,D,S*50
$GPHDT,,T*1B
$GPGGA,054332.65,3010.98654834,N,12008.33993150,E,4,22,0.6,9.068,M,7.232,M,0.7,2589*74
$GPRMC,054332.65,A,3010.98654834,N,12008.33993150,E,0.05,39.90,181017,5.5,W,D,S*62
$GPHDT,,T*1B
$GPGGA,054332.70,3010.98654815,N,12008.33993171,E,4,22,0.6,9.068,M,7.232,M,0.7,2589*70
$GPRMC,054332.70,A,3010.98654815,N,12008.33993171,E,0.06,174.30,181017,5.5,W,D,S*57
$GPHDT,,T*1B
$GPGGA,054332.75,3010.98654811,N,12008.33993140,E,4,22,0.6,9.067,M,7.232,M,0.8,2589*73
$GPRMC,054332.75,A,3010.98654811,N,12008.33993140,E,0.06,316.48,181017,5.5,W,D,S*5D
$GPHDT,,T*1B
$GPGGA,054332.80,3010.98654829,N,12008.33993110,E,4,22,0.6,9.070,M,7.232,M,0.8,2589*71
$GPRMC,054332.80,A,3010.98654829,N,12008.33993110,E,0.01,159.23,181017,5.5,W,D,S*5A
$GPHDT,,T*1B
$GPGGA,054332.85,3010.98654830,N,12008.33993108,E,4,22,0.6,9.071,M,7.232,M,0.8,2589*74
$GPRMC,054332.85,A,3010.98654830,N,12008.33993108,E,0.01,328.01,181017,5.5,W,D,S*5A
$GPHDT,,T*1B
$GPGGA,054332.90,3010.98654852,N,12008.33993107,E,4,22,0.6,9.071,M,7.232,M,0.9,2589*7A
$GPRMC,054332.90,A,3010.98654852,N,12008.33993107,E,0.03,9.73,181017,5.5,W,D,S*52
$GPHDT,,T*1B
$GPGGA,054332.95,3010.98654853,N,12008.33993147,E,4,22,0.6,9.071,M,7.232,M,0.9,2589*7A
$GPRMC,054332.95,A,3010.98654853,N,12008.33993147,E,0.04,116.63,181017,5.5,W,D,S*5B
$GPHDT,,T*1B
$GPGGA,054333.00,3010.98654844,N,12008.33993156,E,4,22,0.6,9.072,M,7.232,M,1.0,2589*7A
$GPRMC,054333.00,A,3010.98654844,N,12008.33993156,E,0.03,290.36,181017,5.5,W,D,S*5A
$GPHDT,,T*1B
$GPGGA,054333.05,3010.98654828,N,12008.33993150,E,4,22,0.6,9.070,M,7.232,M,1.0,2589*71
$GPRMC,054333.05,A,3010.98654828,N,12008.33993150,E,0.03,150.71,181017,5.5,W,D,S*5F
$GPHDT,,T*1B
$GPGGA,054333.10,3010.98654839,N,12008.33993129,E,4,22,0.6,9.072,M,7.232,M,1.1,2589*78
$GPRMC,054333.10,A,3010.98654839,N,12008.33993129,E,0.06,310.22,181017,5.5,W,D,S*50
$GPHDT,,T*1B
$GPGGA,054333.15,3010.98654852,N,12008.33993084,E,4,22,0.6,9.071,M,7.232,M,1.1,2589*75
$GPRMC,054333.15,A,3010.98654852,N,12008.33993084,E,0.02,233.59,181017,5.5,W,D,S*56
$GPHDT,,T*1B
$GPGGA,054333.20,3010.98654876,N,12008.33993102,E,4,22,0.6,9.073,M,7.232,M,1.2,2589*7B
$GPRMC,054333.20,A,3010.98654876,N,12008.33993102,E,0.05,32.07,181017,5.5,W,D,S*66
$GPHDT,,T*1B
$GPGGA,054333.25,3010.98654869,N,12008.33993151,E,4,22,0.6,9.073,M,7.232,M,1.2,2589*76
$GPRMC,054333.25,A,3010.98654869,N,12008.33993151,E,0.05,138.05,181017,5.5,W,D,S*52
$GPHDT,,T*1B
$GPGGA,054333.30,3010.98654817,N,12008.33993177,E,4,22,0.6,9.071,M,7.232,M,0.3,2589*7D
$GPRMC,054333.30,A,3010.98654817,N,12008.33993177,E,0.01,138.06,181017,5.5,W,D,S*5C
$GPHDT,,T*1B
$GPGGA,054333.35,3010.98654844,N,12008.33993155,E,4,22,0.6,9.073,M,7.232,M,0.4,2589*7B
$GPRMC,054333.35,A,3010.98654844,N,12008.33993155,E,0.06,331.86,181017,5.5,W,D,S*5B
$GPHDT,,T*1B
$GPGGA,054333.40,3010.98654849,N,12008.33993113,E,4,22,0.6,9.072,M,7.232,M,0.4,2589*77
$GPRMC,054333.40,A,3010.98654849,N,12008.33993113,E,0.03,224.71,181017,5.5,W,D,S*5E
$GPHDT,,T*1B
$GPGGA,054333.45,3010.98654797,N,12008.33993134,E,4,22,0.6,9.072,M,7.232,M,0.5,2589*7A
$GPRMC,054333.45,A,3010.98654797,N,12008.33993134,E,0.05,142.99,181017,5.5,W,D,S*51
$GPHDT,,T*1B
$GPGGA,054333.50,3010.98654796,N,12008.33993120,E,4,22,0.6,9.071,M,7.232,M,0.5,2589*79
$GPRMC,054333.50,A,3010.98654796,N,12008.33993120,E,0.06,320.89,181017,5.5,W,D,S*55
$GPHDT,,T*1B
$GPGGA,054333.55,3010.98654849,N,12008.33993116,E,4,22,0.6,9.073,M,7.232,M,0.5,2589*76
$GPRMC,054333.55,A,3010.98654849,N,12008.33993116,E,0.04,34.75,181017,5.5,W,D,S*6F
$GPHDT,,T*1B
$GPGGA,054333.60,3010.98654839,N,12008.33993136,E,4,22,0.6,9.070,M,7.232,M,0.6,2589*75
$GPRMC,054333.60,A,3010.98654839,N,12008.33993136,E,0.03,171.85,181017,5.5,W,D,S*54
$GPHDT,,T*1B
$GPGGA,054333.65,3010.98654794,N,12008.33993175,E,4,22,0.6,9.071,M,7.232,M,0.6,2589*7E
$GPRMC,054333.65,A,3010.98654794,N,12008.33993175,E,0.04,131.86,181017,5.5,W,D,S*5E
$GPHDT,,T*1B
$GPGGA,054333.70,3010.98654788,N,12008.33993162,E,4,22,0.6,9.072,M,7.232,M,0.7,2589*73
$GPRMC,054333.70,A,3010.98654788,N,12008.33993162,E,0.04,293.61,181017,5.5,W,D,S*53
$GPHDT,,T*1B
$GPGGA,054333.75,3010.98654813,N,12008.33993132,E,4,22,0.6,9.071,M,7.232,M,0.7,2589*7D
$GPRMC,054333.75,A,3010.98654813,N,12008.33993132,E,0.02,354.31,181017,5.5,W,D,S*57
$GPHDT,,T*1B
$GPGGA,054333.80,3010.98654830,N,12008.33993101,E,4,22,0.6,9.072,M,7.232,M,0.8,2589*7A
$GPRMC,054333.80,A,3010.98654830,N,12008.33993101,E,0.04,281.55,181017,5.5,W,D,S*51
$GPHDT,,T*1B
$GPGGA,054333.85,3010.98654817,N,12008.33993124,E,4,22,0.6,9.072,M,7.232,M,0.8,2589*7D
$GPRMC,054333.85,A,3010.98654817,N,12008.33993124,E,0.06,105.35,181017,5.5,W,D,S*5D
$GPHDT,,T*1B
$GPGGA,054333.90,3010.98654809,N,12008.33993171,E,4,22,0.6,9.072,M,7.232,M,0.9,2589*77
$GPRMC,054333.90,A,3010.98654809,N,12008.33993171,E,0.01,1.80,181017,5.5,W,D,S*5A
$GPHDT,,T*1B
$GPGGA,054333.95,3010.98654822,N,12008.33993157,E,4,22,0.6,9.072,M,7.232,M,0.9,2589*7F
$GPRMC,054333.95,A,3010.98654822,N,12008.33993157,E,0.02,300.21,181017,5.5,W,D,S*58
$GPHDT,,T*1B
$GPGGA,054334.00,3010.98654845,N,12008.33993161,E,4,22,0.6,9.072,M,7.232,M,1.0,2589*78
$GPRMC,054334.00,A,3010.98654845,N,12008.33993161,E,0.02,31.58,181017,5.5,W,D,S*68
$GPHDT,,T*1B
$GPGGA,054334.05,3010.98654863,N,12008.33993164,E,4,22,0.6,9.073,M,7.232,M,1.0,2589*7D
$GPRMC,054334.05,A,3010.98654863,N,12008.33993164,E,0.02,314.02,181017,5.5,W,D,S*57
$GPHDT,,T*1B
$GPGGA,054334.10,3010.98654914,N,12008.33993170,E,4,22,0.6,9.074,M,7.232,M,1.1,2589*7B
$GPRMC,054334.10,A,3010.98654914,N,12008.33993170,E,0.05,14.43,181017,5.5,W,D,S*66
$GPHDT,,T*1B
$GPGGA,054334.15,3010.98654962,N,12008.33993231,E,4,22,0.6,9.074,M,7.232,M,1.2,2589*7A
$GPRMC,054334.15,A,3010.98654962,N,12008.33993231,E,0.05,67.02,181017,5.5,W,D,S*65
$GPHDT,,T*1B
$GPGGA,054334.20,3010.98654990,N,12008.33993268,E,4,22,0.6,9.073,M,7.232,M,1.2,2589*7A
$GPRMC,054334.20,A,3010.98654990,N,12008.33993268,E,0.03,353.48,181017,5.5,W,D,S*5E
$GPHDT,,T*1B
$GPGGA,054334.25,3010.98655035,N,12008.33993250,E,4,22,0.6,9.074,M,7.232,M,1.3,2589*75
$GPRMC,054334.25,A,3010.98655035,N,12008.33993250,E,0.04,332.34,181017,5.5,W,D,S*5C
$GPHDT,,T*1B
$GPGGA,054334.30,3010.98655076,N,12008.33993291,E,4,22,0.6,9.072,M,7.232,M,0.3,2589*7C
$GPRMC,054334.30,A,3010.98655076,N,12008.33993291,E,0.07,66.21,181017,5.5,W,D,S*67
$GPHDT,,T*1B
$GPGGA,054334.35,3010.98655113,N,12008.33993275,E,4,22,0.6,9.072,M,7.232,M,0.3,2589*71
$GPRMC,054334.35,A,3010.98655113,N,12008.33993275,E,0.07,290.29,181017,5.5,W,D,S*59
$GPHDT,,T*1B
$GPGGA,054334.40,3010.98655199,N,12008.33993232,E,4,22,0.6,9.073,M,7.232,M,0.4,2589*74
$GPRMC,054334.40,A,3010.98655199,N,12008.33993232,E,0.08,3.76,181017,5.5,W,D,S*57
$GPHDT,,T*1B
$GPGGA,054334.45,3010.98655305,N,12008.33993266,E,4,22,0.6,9.072,M,7.232,M,0.4,2589*76
$GPRMC,054334.45,A,3010.98655305,N,12008.33993266,E,0.07,26.44,181017,5.5,W,D,S*6D
$GPHDT,,T*1B
$GPGGA,054334.50,3010.98655453,N,12008.33993315,E,4,22,0.6,9.071,M,7.232,M,0.5,2589*71
$GPRMC,054334.50,A,3010.98655453,N,12008.33993315,E,0.14,9.87,181017,5.5,W,D,S*58
$GPHDT,,T*1B
$GPGGA,054334.55,3010.98655639,N,12008.33993354,E,4,22,0.6,9.072,M,7.232,M,0.5,2589*7C
$GPRMC,054334.55,A,3010.98655639,N,12008.33993354,E,0.12,9.50,181017,5.5,W,D,S*5A
$GPHDT,,T*1B
$GPGGA,054334.60,3010.98655860,N,12008.33993404,E,4,22,0.6,9.071,M,7.232,M,0.6,2589*7A
$GPRMC,054334.60,A,3010.98655860,N,12008.33993404,E,0.18,12.03,181017,5.5,W,D,S*6A
$GPHDT,,T*1B
$GPGGA,054334.65,3010.98656138,N,12008.33993471,E,4,22,0.6,9.071,M,7.232,M,0.6,2589*7A
$GPRMC,054334.65,A,3010.98656138,N,12008.33993471,E,0.20,9.69,181017,5.5,W,D,S*57
$GPHDT,,T*1B
$GPGGA,054334.70,3010.98656441,N,12008.33993525,E,4,22,0.6,9.069,M,7.232,M,0.7,2589*7D
$GPRMC,054334.70,A,3010.98656441,N,12008.33993525,E,0.21,7.30,181017,5.5,W,D,S*5B
$GPHDT,,T*1B
$GPGGA,054334.75,3010.98656772,N,12008.33993615,E,4,22,0.6,9.068,M,7.232,M,0.7,2589*7A
$GPRMC,054334.75,A,3010.98656772,N,12008.33993615,E,0.26,15.21,181017,5.5,W,D,S*69
$GPHDT,,T*1B
$GPGGA,054334.80,3010.98657157,N,12008.33993745,E,4,22,0.6,9.069,M,7.232,M,0.8,2589*7A
$GPRMC,054334.80,A,3010.98657157,N,12008.33993745,E,0.29,15.19,181017,5.5,W,D,S*63
$GPHDT,,T*1B
$GPGGA,054334.85,3010.98657552,N,12008.33993853,E,4,22,0.6,9.066,M,7.232,M,0.9,2589*78
$GPRMC,054334.85,A,3010.98657552,N,12008.33993853,E,0.28,10.40,181017,5.5,W,D,S*67
$GPHDT,,T*1B
$GPGGA,054334.90,3010.98657978,N,12008.33993952,E,4,22,0.6,9.068,M,7.232,M,0.9,2589*76
$GPRMC,054334.90,A,3010.98657978,N,12008.33993952,E,0.32,10.28,181017,5.5,W,D,S*62
$GPHDT,,T*1B
$GPGGA,054334.95,3010.98658460,N,12008.33994069,E,4,22,0.6,9.068,M,7.232,M,1.0,2589*76
$GPRMC,054334.95,A,3010.98658460,N,12008.33994069,E,0.36,13.27,181017,5.5,W,D,S*62
$GPHDT,,T*1B
$GPGGA,054335.00,3010.98658937,N,12008.33994207,E,4,22,0.6,9.068,M,7.232,M,1.0,2589*7E
$GPRMC,054335.00,A,3010.98658937,N,12008.33994207,E,0.32,15.05,181017,5.5,W,D,S*68
$GPHDT,,T*1B
$GPGGA,054335.05,3010.98659408,N,12008.33994316,E,4,22,0.6,9.067,M,7.232,M,1.0,2589*75
$GPRMC,054335.05,A,3010.98659408,N,12008.33994316,E,0.35,9.76,181017,5.5,W,D,S*52
$GPHDT,,T*1B
$GPGGA,054335.10,3010.98659960,N,12008.33994503,E,4,22,0.6,9.069,M,7.232,M,1.1,2589*7F
$GPRMC,054335.10,A,3010.98659960,N,12008.33994503,E,0.44,20.49,181017,5.5,W,D,S*66
$GPHDT,,T*1B
$GPGGA,054335.15,3010.98660581,N,12008.33994681,E,4,22,0.6,9.070,M,7.232,M,1.1,2589*72
$GPRMC,054335.15,A,3010.98660581,N,12008.33994681,E,0.46,8.71,181017,5.5,W,D,S*50
$GPHDT,,T*1B
$GPGGA,054335.20,3010.98661244,N,12008.33994842,E,4,22,0.6,9.071,M,7.232,M,1.2,2589*78
$GPRMC,054335.20,A,3010.98661244,N,12008.33994842,E,0.49,14.46,181017,5.5,W,D,S*6E
$GPHDT,,T*1B
$GPGGA,054335.25,3010.98661961,N,12008.33995029,E,4,22,0.6,9.072,M,7.232,M,1.2,2589*76
$GPRMC,054335.25,A,3010.98661961,N,12008.33995029,E,0.54,11.96,181017,5.5,W,D,S*67
$GPHDT,,T*1B
$GPGGA,054335.30,3010.98662696,N,12008.33995206,E,4,22,0.6,9.071,M,7.232,M,0.3,2589*7A
$GPRMC,054335.30,A,3010.98662696,N,12008.33995206,E,0.54,12.72,181017,5.5,W,D,S*61
$GPHDT,,T*1B
$GPGGA,054335.35,3010.98663400,N,12008.33995389,E,4,22,0.6,9.069,M,7.232,M,0.3,2589*7C
$GPRMC,054335.35,A,3010.98663400,N,12008.33995389,E,0.50,14.97,181017,5.5,W,D,S*67
$GPHDT,,T*1B
$GPGGA,054335.40,3010.98664188,N,12008.33995572,E,4,22,0.6,9.070,M,7.232,M,0.4,2589*71
$GPRMC,054335.40,A,3010.98664188,N,12008.33995572,E,0.63,9.67,181017,5.5,W,D,S*56
$GPHDT,,T*1B
$GPGGA,054335.45,3010.98665029,N,12008.33995774,E,4,22,0.6,9.070,M,7.232,M,0.4,2589*7B
$GPRMC,054335.45,A,3010.98665029,N,12008.33995774,E,0.59,14.55,181017,5.5,W,D,S*68
$GPHDT,,T*1B
$GPGGA,054335.50,3010.98665857,N,12008.33995999,E,4,22,0.6,9.068,M,7.232,M,0.5,2589*7B
$GPRMC,054335.50,A,3010.98665857,N,12008.33995999,E,0.61,12.92,181017,5.5,W,D,S*66
$GPHDT,,T*1B
$GPGGA,054335.55,3010.98666755,N,12008.33996228,E,4,22,0.6,9.070,M,7.232,M,0.6,2589*78
$GPRMC,054335.55,A,3010.98666755,N,12008.33996228,E,0.68,10.96,181017,5.5,W,D,S*60
$GPHDT,,T*1B
$GPGGA,054335.60,3010.98667771,N,12008.33996440,E,4,22,0.6,9.071,M,7.232,M,0.6,2589*70
$GPRMC,054335.60,A,3010.98667771,N,12008.33996440,E,0.77,9.37,181017,5.5,W,D,S*54
$GPHDT,,T*1B
$GPGGA,054335.65,3010.98668850,N,12008.33996719,E,4,22,0.6,9.070,M,7.232,M,0.7,2589*79
$GPRMC,054335.65,A,3010.98668850,N,12008.33996719,E,0.78,14.81,181017,5.5,W,D,S*63
$GPHDT,,T*1B
$GPGGA,054335.70,3010.98670013,N,12008.33997034,E,4,22,0.6,9.070,M,7.232,M,0.7,2589*72
$GPRMC,054335.70,A,3010.98670013,N,12008.33997034,E,0.87,11.82,181017,5.5,W,D,S*6E
$GPHDT,,T*1B
$GPGGA,054335.75,3010.98671213,N,12008.33997331,E,4,22,0.6,9.072,M,7.232,M,0.7,2589*70
$GPRMC,054335.75,A,3010.98671213,N,12008.33997331,E,0.84,11.56,181017,5.5,W,D,S*64
$GPHDT,,T*1B
$GPGGA,054335.80,3010.98672430,N,12008.33997608,E,4,22,0.6,9.074,M,7.232,M,0.8,2589*78
$GPRMC,054335.80,A,3010.98672430,N,12008.33997608,E,0.89,10.44,181017,5.5,W,D,S*6A
$GPHDT,,T*1B
$GPGGA,054335.85,3010.98673628,N,12008.33997900,E,4,22,0.6,9.077,M,7.232,M,0.8,2589*73
$GPRMC,054335.85,A,3010.98673628,N,12008.33997900,E,0.84,13.08,181017,5.5,W,D,S*64
$GPHDT,,T*1B
$GPGGA,054335.90,3010.98674938,N,12008.33998238,E,4,22,0.6,9.081,M,7.232,M,0.9,2589*79
$GPRMC,054335.90,A,3010.98674938,N,12008.33998238,E,1.03,12.46,181017,5.5,W,D,S*63
$GPHDT,,T*1B
$GPGGA,054335.95,3010.98676436,N,12008.33998600,E,4,22,0.6,9.081,M,7.232,M,0.9,2589*72
$GPRMC,054335.95,A,3010.98676436,N,12008.33998600,E,1.08,12.11,181017,5.5,W,D,S*61
$GPHDT,,T*1B
$GPGGA,054336.00,3010.98678007,N,12008.33998992,E,4,22,0.6,9.081,M,7.232,M,1.0,2589*79
$GPRMC,054336.00,A,3010.98678007,N,12008.33998992,E,1.14,12.42,181017,5.5,W,D,S*69
$GPHDT,,T*1B
$GPGGA,054336.05,3010.98679539,N,12008.33999362,E,4,22,0.6,9.079,M,7.232,M,1.0,2589*76
$GPRMC,054336.05,A,3010.98679539,N,12008.33999362,E,1.07,11.57,181017,5.5,W,D,S*64
$GPHDT,,T*1B
$GPGGA,054336.10,3010.98681035,N,12008.33999743,E,4,22,0.6,9.082,M,7.232,M,1.1,2589*7E
$GPRMC,054336.10,A,3010.98681035,N,12008.33999743,E,1.08,12.41,181017,5.5,W,D,S*62
$GPHDT,,T*1B
$GPGGA,054336.15,3010.98682691,N,12008.34000195,E,4,22,0.6,9.082,M,7.232,M,1.1,2589*73
$GPRMC,054336.15,A,3010.98682691,N,12008.34000195,E,1.25,13.47,181017,5.5,W,D,S*67
$GPHDT,,T*1B
$GPGGA,054336.20,3010.98684447,N,12008.34000580,E,4,22,0.6,9.084,M,7.232,M,1.2,2589*7F
$GPRMC,054336.20,A,3010.98684447,N,12008.34000580,E,1.22,8.20,181017,5.5,W,D,S*52
$GPHDT,,T*1B
$GPGGA,054336.25,3010.98686259,N,12008.34000896,E,4,22,0.6,9.081,M,7.232,M,1.2,2589*7E
$GPRMC,054336.25,A,3010.98686259,N,12008.34000896,E,1.31,9.41,181017,5.5,W,D,S*52
$GPHDT,,T*1B
$GPGGA,054336.30,3010.98688090,N,12008.34001205,E,4,22,0.6,9.082,M,7.232,M,0.3,2589*71
$GPRMC,054336.30,A,3010.98688090,N,12008.34001205,E,1.30,7.78,181017,5.5,W,D,S*5B
$GPHDT,,T*1B
$GPGGA,054336.35,3010.98689890,N,12008.34001578,E,4,22,0.6,9.082,M,7.232,M,0.4,2589*77
$GPRMC,054336.35,A,3010.98689890,N,12008.34001578,E,1.26,12.64,181017,5.5,W,D,S*64
$GPHDT,,T*1B
$GPGGA,054336.40,3010.98691675,N,12008.34001993,E,4,22,0.6,9.083,M,7.232,M,0.4,2589*71
$GPRMC,054336.40,A,3010.98691675,N,12008.34001993,E,1.29,10.27,181017,5.5,W,D,S*69
$GPHDT,,T*1B
$GPGGA,054336.45,3010.98693491,N,12008.34002415,E,4,22,0.6,9.082,M,7.232,M,0.5,2589*7E
$GPRMC,054336.45,A,3010.98693491,N,12008.34002415,E,1.32,11.49,181017,5.5,W,D,S*65
$GPHDT,,T*1B
$GPGGA,054336.50,3010.98695376,N,12008.34002906,E,4,22,0.6,9.085,M,7.232,M,0.5,2589*7A
$GPRMC,054336.50,A,3010.98695376,N,12008.34002906,E,1.40,12.08,181017,5.5,W,D,S*65
$GPHDT,,T*1B
$GPGGA,054336.55,3010.98697336,N,12008.34003339,E,4,22,0.6,9.085,M,7.232,M,0.5,2589*7E
$GPRMC,054336.55,A,3010.98697336,N,12008.34003339,E,1.40,9.62,181017,5.5,W,D,S*57
$GPHDT,,T*1B
$GPGGA,054336.60,3010.98699238,N,12008.34003742,E,4,22,0.6,9.082,M,7.232,M,0.6,2589*75
$GPRMC,054336.60,A,3010.98699238,N,12008.34003742,E,1.34,11.33,181017,5.5,W,D,S*66
$GPHDT,,T*1B
$GPGGA,054336.65,3010.98701179,N,12008.34004209,E,4,22,0.6,9.085,M,7.232,M,0.6,2589*7C
$GPRMC,054336.65,A,3010.98701179,N,12008.34004209,E,1.44,11.62,181017,5.5,W,D,S*6B
$GPHDT,,T*1B
$GPGGA,054336.70,3010.98703264,N,12008.34004680,E,4,22,0.6,9.084,M,7.232,M,0.7,2589*70
$GPRMC,054336.70,A,3010.98703264,N,12008.34004680,E,1.53,10.83,181017,5.5,W,D,S*6F
$GPHDT,,T*1B
$GPGGA,054336.75,3010.98705408,N,12008.34005154,E,4,22,0.6,9.084,M,7.232,M,0.7,2589*70
$GPRMC,054336.75,A,3010.98705408,N,12008.34005154,E,1.55,10.44,181017,5.5,W,D,S*62
$GPHDT,,T*1B
$GPGGA,054336.80,3010.98707534,N,12008.34005595,E,4,22,0.6,9.089,M,7.232,M,0.8,2589*7D
$GPRMC,054336.80,A,3010.98707534,N,12008.34005595,E,1.53,9.24,181017,5.5,W,D,S*55
$GPHDT,,T*1B
$GPGGA,054336.85,3010.98709676,N,12008.34006041,E,4,22,0.6,9.087,M,7.232,M,0.8,2589*72
$GPRMC,054336.85,A,3010.98709676,N,12008.34006041,E,1.55,11.56,181017,5.5,W,D,S*6E
$GPHDT,,T*1B
$GPGGA,054336.90,3010.98711755,N,12008.34006515,E,4,22,0.6,9.083,M,7.232,M,0.9,2589*7E
$GPRMC,054336.90,A,3010.98711755,N,12008.34006515,E,1.47,11.23,181017,5.5,W,D,S*66
$GPHDT,,T*1B
$GPGGA,054336.95,3010.98713794,N,12008.34006993,E,4,22,0.6,9.081,M,7.232,M,0.9,2589*74
$GPRMC,054336.95,A,3010.98713794,N,12008.34006993,E,1.50,11.22,181017,5.5,W,D,S*69
$GPHDT,,T*1B
$GPGGA,054337.00,3010.98715905,N,12008.34007491,E,4,22,0.6,9.080,M,7.232,M,1.0,2589*7E
$GPRMC,054337.00,A,3010.98715905,N,12008.34007491,E,1.54,11.15,181017,5.5,W,D,S*6A
$GPHDT,,T*1B
$GPGGA,054337.05,3010.98718089,N,12008.34007877,E,4,22,0.6,9.079,M,7.232,M,1.1,2589*78
$GPRMC,054337.05,A,3010.98718089,N,12008.34007877,E,1.56,7.41,181017,5.5,W,D,S*5F
$GPHDT,,T*1B
$GPGGA,054337.10,3010.98720324,N,12008.34008292,E,4,22,0.6,9.081,M,7.232,M,1.1,2589*7A
$GPRMC,054337.10,A,3010.98720324,N,12008.34008292,E,1.64,10.00,181017,5.5,W,D,S*68
$GPHDT,,T*1B
$GPGGA,054337.15,3010.98722528,N,12008.34008751,E,4,22,0.6,9.081,M,7.232,M,1.2,2589*7E
$GPRMC,054337.15,A,3010.98722528,N,12008.34008751,E,1.53,10.02,181017,5.5,W,D,S*69
$GPHDT,,T*1B
$GPGGA,054337.20,3010.98724631,N,12008.34009109,E,4,22,0.6,9.079,M,7.232,M,1.2,2589*78
$GPRMC,054337.20,A,3010.98724631,N,12008.34009109,E,1.48,7.83,181017,5.5,W,D,S*5D
$GPHDT,,T*1B
$GPGGA,054337.25,3010.98726771,N,12008.34009533,E,4,22,0.6,9.079,M,7.232,M,1.2,2589*77
$GPRMC,054337.25,A,3010.98726771,N,12008.34009533,E,1.58,10.99,181017,5.5,W,D,S*6E
$GPHDT,,T*1B
$GPGGA,054337.30,3010.98728949,N,12008.34010002,E,4,22,0.6,9.074,M,7.232,M,0.3,2589*7A
$GPRMC,054337.30,A,3010.98728949,N,12008.34010002,E,1.53,10.73,181017,5.5,W,D,S*61
$GPHDT,,T*1B
$GPGGA,054337.35,3010.98731053,N,12008.34010460,E,4,22,0.6,9.073,M,7.232,M,0.3,2589*72
$GPRMC,054337.35,A,3010.98731053,N,12008.34010460,E,1.56,11.16,181017,5.5,W,D,S*69
$GPHDT,,T*1B
$GPGGA,054337.40,3010.98733299,N,12008.34010885,E,4,22,0.6,9.071,M,7.232,M,0.4,2589*74
$GPRMC,054337.40,A,3010.98733299,N,12008.34010885,E,1.70,8.12,181017,5.5,W,D,S*52
$GPHDT,,T*1B
$GPGGA,054337.45,3010.98735598,N,12008.34011378,E,4,22,0.6,9.075,M,7.232,M,0.4,2589*7D
$GPRMC,054337.45,A,3010.98735598,N,12008.34011378,E,1.66,12.04,181017,5.5,W,D,S*64
$GPHDT,,T*1B
$GPGGA,054337.50,3010.98737750,N,12008.34011798,E,4,22,0.6,9.073,M,7.232,M,0.5,2589*70
$GPRMC,054337.50,A,3010.98737750,N,12008.34011798,E,1.49,9.31,181017,5.5,W,D,S*5F
$GPHDT,,T*1B
$GPGGA,054337.55,3010.98739822,N,12008.34012176,E,4,22,0.6,9.072,M,7.232,M,0.5,2589*75
$GPRMC,054337.55,A,3010.98739822,N,12008.34012176,E,1.53,9.02,181017,5.5,W,D,S*50
$GPHDT,,T*1B
$GPGGA,054337.60,3010.98741931,N,12008.34012569,E,4,22,0.6,9.073,M,7.232,M,0.6,2589*77
$GPRMC,054337.60,A,3010.98741931,N,12008.34012569,E,1.56,9.51,181017,5.5,W,D,S*53
$GPHDT,,T*1B
$GPGGA,054337.65,3010.98744103,N,12008.34013040,E,4,22,0.6,9.071,M,7.232,M,0.6,2589*73
$GPRMC,054337.65,A,3010.98744103,N,12008.34013040,E,1.60,12.01,181017,5.5,W,D,S*6F
$GPHDT,,T*1B
$GPGGA,054337.70,3010.98746331,N,12008.34013581,E,4,22,0.6,9.070,M,7.232,M,0.7,2589*7E
$GPRMC,054337.70,A,3010.98746331,N,12008.34013581,E,1.65,11.38,181017,5.5,W,D,S*6E
$GPHDT,,T*1B
$GPGGA,054337.75,3010.98748540,N,12008.34014008,E,4,22,0.6,9.070,M,7.232,M,0.8,2589*79
$GPRMC,054337.75,A,3010.98748540,N,12008.34014008,E,1.58,8.30,181017,5.5,W,D,S*58
$GPHDT,,T*1B
$GPGGA,054337.80,3010.98750777,N,12008.34014428,E,4,22,0.6,9.071,M,7.232,M,0.8,2589*7B
$GPRMC,054337.80,A,3010.98750777,N,12008.34014428,E,1.65,9.75,181017,5.5,W,D,S*55
$GPHDT,,T*1B
$GPGGA,054337.85,3010.98752998,N,12008.34014947,E,4,22,0.6,9.072,M,7.232,M,0.9,2589*75
$GPRMC,054337.85,A,3010.98752998,N,12008.34014947,E,1.60,12.23,181017,5.5,W,D,S*65
$GPHDT,,T*1B
$GPGGA,054337.90,3010.98755123,N,12008.34015437,E,4,22,0.6,9.071,M,7.232,M,0.9,2589*76
$GPRMC,054337.90,A,3010.98755123,N,12008.34015437,E,1.53,10.69,181017,5.5,W,D,S*69
$GPHDT,,T*1B
$GPGGA,054337.95,3010.98757261,N,12008.34015937,E,4,22,0.6,9.072,M,7.232,M,1.0,2589*72
$GPRMC,054337.95,A,3010.98757261,N,12008.34015937,E,1.58,12.06,181017,5.5,W,D,S*66
$GPHDT,,T*1B
$GPGGA,054338.00,3010.98759484,N,12008.34016484,E,4,22,0.6,9.071,M,7.232,M,1.0,2589*77
$GPRMC,054338.00,A,3010.98759484,N,12008.34016484,E,1.64,12.08,181017,5.5,W,D,S*61
$GPHDT,,T*1B
$GPGGA,054338.05,3010.98761787,N,12008.34016985,E,4,22,0.6,9.069,M,7.232,M,1.0,2589*7C
$GPRMC,054338.05,A,3010.98761787,N,12008.34016985,E,1.69,9.91,181017,5.5,W,D,S*54
$GPHDT,,T*1B
$GPGGA,054338.10,3010.98764033,N,12008.34017412,E,4,22,0.6,9.068,M,7.232,M,1.1,2589*77
$GPRMC,054338.10,A,3010.98764033,N,12008.34017412,E,1.59,8.85,181017,5.5,W,D,S*58
$GPHDT,,T*1B
$GPGGA,054338.15,3010.98766188,N,12008.34017927,E,4,22,0.6,9.070,M,7.232,M,1.1,2589*73
$GPRMC,054338.15,A,3010.98766188,N,12008.34017927,E,1.59,13.24,181017,5.5,W,D,S*64
$GPHDT,,T*1B
$GPGGA,054338.20,3010.98768436,N,12008.34018536,E,4,22,0.6,9.069,M,7.232,M,1.2,2589*73
$GPRMC,054338.20,A,3010.98768436,N,12008.34018536,E,1.67,11.91,181017,5.5,W,D,S*6E
$GPHDT,,T*1B
$GPGGA,054338.25,3010.98770777,N,12008.34019108,E,4,22,0.6,9.067,M,7.232,M,1.2,2589*7F
$GPRMC,054338.25,A,3010.98770777,N,12008.34019108,E,1.74,11.19,181017,5.5,W,D,S*6E
$GPHDT,,T*1B
$GPGGA,054338.30,3010.98772991,N,12008.34019748,E,4,22,0.6,9.069,M,7.232,M,0.3,2589*73
$GPRMC,054338.30,A,3010.98772991,N,12008.34019748,E,1.59,15.03,181017,5.5,W,D,S*6C
$GPHDT,,T*1B
$GPGGA,054338.35,3010.98775194,N,12008.34020297,E,4,22,0.6,9.070,M,7.232,M,0.3,2589*79
$GPRMC,054338.35,A,3010.98775194,N,12008.34020297,E,1.66,9.13,181017,5.5,W,D,S*5E
$GPHDT,,T*1B
$GPGGA,054338.40,3010.98777391,N,12008.34020734,E,4,22,0.6,9.068,M,7.232,M,0.4,2589*7C
$GPRMC,054338.40,A,3010.98777391,N,12008.34020734,E,1.56,10.00,181017,5.5,W,D,S*6C
$GPHDT,,T*1B
$GPGGA,054338.45,3010.98779550,N,12008.34021239,E,4,22,0.6,9.066,M,7.232,M,0.4,2589*7B
$GPRMC,054338.45,A,3010.98779550,N,12008.34021239,E,1.59,11.22,181017,5.5,W,D,S*6B
$GPHDT,,T*1B
$GPGGA,054338.50,3010.98781813,N,12008.34021906,E,4,22,0.6,9.067,M,7.232,M,0.5,2589*75
$GPRMC,054338.50,A,3010.98781813,N,12008.34021906,E,1.73,15.37,181017,5.5,W,D,S*6D
$GPHDT,,T*1B
$GPGGA,054338.55,3010.98784117,N,12008.34022585,E,4,22,0.6,9.071,M,7.232,M,0.6,2589*78
$GPRMC,054338.55,A,3010.98784117,N,12008.34022585,E,1.69,12.37,181017,5.5,W,D,S*68
$GPHDT,,T*1B
$GPGGA,054338.60,3010.98786472,N,12008.34023138,E,4,22,0.6,9.069,M,7.232,M,0.6,2589*70
$GPRMC,054338.60,A,3010.98786472,N,12008.34023138,E,1.74,10.78,181017,5.5,W,D,S*6C
$GPHDT,,T*1B
$GPGGA,054338.65,3010.98788901,N,12008.34023640,E,4,22,0.6,9.065,M,7.232,M,0.7,2589*77
$GPRMC,054338.65,A,3010.98788901,N,12008.34023640,E,1.76,9.44,181017,5.5,W,D,S*53
$GPHDT,,T*1B
$GPGGA,054338.70,3010.98791284,N,12008.34024149,E,4,22,0.6,9.064,M,7.232,M,0.7,2589*75
$GPRMC,054338.70,A,3010.98791284,N,12008.34024149,E,1.73,10.91,181017,5.5,W,D,S*65
$GPHDT,,T*1B
$GPGGA,054338.75,3010.98793600,N,12008.34024730,E,4,22,0.6,9.064,M,7.232,M,0.7,2589*72
$GPRMC,054338.75,A,3010.98793600,N,12008.34024730,E,1.70,13.18,181017,5.5,W,D,S*63
$GPHDT,,T*1B
$GPGGA,054338.80,3010.98795963,N,12008.34025308,E,4,22,0.6,9.065,M,7.232,M,0.8,2589*74
$GPRMC,054338.80,A,3010.98795963,N,12008.34025308,E,1.75,11.20,181017,5.5,W,D,S*67
$GPHDT,,T*1B
$GPGGA,054338.85,3010.98798368,N,12008.34025934,E,4,22,0.6,9.068,M,7.232,M,0.8,2589*75
$GPRMC,054338.85,A,3010.98798368,N,12008.34025934,E,1.76,13.36,181017,5.5,W,D,S*6D
$GPHDT,,T*1B
$GPGGA,054338.90,3010.98800776,N,12008.34026544,E,4,22,0.6,9.070,M,7.232,M,0.9,2589*74
$GPRMC,054338.90,A,3010.98800776,N,12008.34026544,E,1.78,11.57,181017,5.5,W,D,S*6F
$GPHDT,,T*1B
$GPGGA,054338.95,3010.98803201,N,12008.34027119,E,4,22,0.6,9.070,M,7.232,M,0.9,2589*7A
$GPRMC,054338.95,A,3010.98803201,N,12008.34027119,E,1.78,11.99,181017,5.5,W,D,S*63
$GPHDT,,T*1B
$GPGGA,054339.00,3010.98805668,N,12008.34027739,E,4,22,0.6,9.067,M,7.232,M,1.0,2589*70
$GPRMC,054339.00,A,3010.98805668,N,12008.34027739,E,1.82,12.42,181017,5.5,W,D,S*67
$GPHDT,,T*1B
$GPGGA,054339.05,3010.98808136,N,12008.34028366,E,4,22,0.6,9.066,M,7.232,M,1.0,2589*74
$GPRMC,054339.05,A,3010.98808136,N,12008.34028366,E,1.79,12.35,181017,5.5,W,D,S*66
$GPHDT,,T*1B
$GPGGA,054339.10,3010.98810636,N,12008.34028976,E,4,22,0.6,9.064,M,7.232,M,1.1,2589*76
$GPRMC,054339.10,A,3010.98810636,N,12008.34028976,E,1.85,11.78,181017,5.5,W,D,S*6E
$GPHDT,,T*1B
$GPGGA,054339.15,3010.98813324,N,12008.34029644,E,4,22,0.6,9.069,M,7.232,M,1.1,2589*74
$GPRMC,054339.15,A,3010.98813324,N,12008.34029644,E,2.05,12.32,181017,5.5,W,D,S*67
$GPHDT,,T*1B
$GPGGA,054339.20,3010.98816122,N,12008.34030349,E,4,22,0.6,9.071,M,7.232,M,1.2,2589*79
$GPRMC,054339.20,A,3010.98816122,N,12008.34030349,E,2.04,12.84,181017,5.5,W,D,S*6C
$GPHDT,,T*1B
$GPGGA,054339.25,3010.98818756,N,12008.34030989,E,4,22,0.6,9.070,M,7.232,M,1.3,2589*71
$GPRMC,054339.25,A,3010.98818756,N,12008.34030989,E,1.85,11.75,181017,5.5,W,D,S*63
$GPHDT,,T*1B
$GPGGA,054339.30,3010.98821325,N,12008.34031550,E,4,22,0.6,9.069,M,7.232,M,0.3,2589*7F
$GPRMC,054339.30,A,3010.98821325,N,12008.34031550,E,1.93,11.33,181017,5.5,W,D,S*61
$GPHDT,,T*1B
$GPGGA,054339.35,3010.98824104,N,12008.34032151,E,4,22,0.6,9.065,M,7.232,M,0.4,2589*73
$GPRMC,054339.35,A,3010.98824104,N,12008.34032151,E,2.12,11.07,181017,5.5,W,D,S*6B
$GPHDT,,T*1B
$GPGGA,054339.40,3010.98826918,N,12008.34032834,E,4,22,0.6,9.066,M,7.232,M,0.4,2589*7F
$GPRMC,054339.40,A,3010.98826918,N,12008.34032834,E,2.02,12.18,181017,5.5,W,D,S*68
$GPHDT,,T*1B
$GPGGA,054339.45,3010.98829723,N,12008.34033544,E,4,22,0.6,9.067,M,7.232,M,0.5,2589*78
$GPRMC,054339.45,A,3010.98829723,N,12008.34033544,E,2.07,12.69,181017,5.5,W,D,S*6C
$GPHDT,,T*1B
$GPGGA,054339.50,3010.98832467,N,12008.34034250,E,4,22,0.6,9.067,M,7.232,M,0.5,2589*70
$GPRMC,054339.50,A,3010.98832467,N,12008.34034250,E,1.97,12.25,181017,5.5,W,D,S*66
$GPHDT,,T*1B
$GPGGA,054339.55,3010.98835382,N,12008.34035030,E,4,22,0.6,9.068,M,7.232,M,0.5,2589*74
$GPRMC,054339.55,A,3010.98835382,N,12008.34035030,E,2.25,13.40,181017,5.5,W,D,S*65
$GPHDT,,T*1B
$GPGGA,054339.60,3010.98838402,N,12008.34035890,E,4,22,0.6,9.069,M,7.232,M,0.6,2589*70
$GPRMC,054339.60,A,3010.98838402,N,12008.34035890,E,2.20,14.06,181017,5.5,W,D,S*63
$GPHDT,,T*1B
$GPGGA,054339.65,3010.98841349,N,12008.34036718,E,4,22,0.6,9.070,M,7.232,M,0.6,2589*77
$GPRMC,054339.65,A,3010.98841349,N,12008.34036718,E,2.14,13.28,181017,5.5,W,D,S*60
$GPHDT,,T*1B
$GPGGA,054339.70,3010.98844397,N,12008.34037537,E,4,22,0.6,9.071,M,7.232,M,0.7,2589*7B
$GPRMC,054339.70,A,3010.98844397,N,12008.34037537,E,2.29,12.93,181017,5.5,W,D,S*63
$GPHDT,,T*1B
$GPGGA,054339.75,3010.98847428,N,12008.34038288,E,4,22,0.6,9.069,M,7.232,M,0.7,2589*7B
$GPRMC,054339.75,A,3010.98847428,N,12008.34038288,E,2.15,11.64,181017,5.5,W,D,S*6E
$GPHDT,,T*1B
$GPGGA,054339.80,3010.98850497,N,12008.34039063,E,4,22,0.6,9.069,M,7.232,M,0.8,2589*7A
$GPRMC,054339.80,A,3010.98850497,N,12008.34039063,E,2.32,12.59,181017,5.5,W,D,S*68
$GPHDT,,T*1B
$GPGGA,054339.85,3010.98853564,N,12008.34039843,E,4,22,0.6,9.072,M,7.232,M,0.8,2589*71
$GPRMC,054339.85,A,3010.98853564,N,12008.34039843,E,2.17,12.14,181017,5.5,W,D,S*67
$GPHDT,,T*1B
$GPGGA,054339.90,3010.98856636,N,12008.34040698,E,4,22,0.6,9.072,M,7.232,M,0.9,2589*73
$GPRMC,054339.90,A,3010.98856636,N,12008.34040698,E,2.31,14.80,181017,5.5,W,D,S*6B
$GPHDT,,T*1B
$GPGGA,054339.95,3010.98859827,N,12008.34041619,E,4,22,0.6,9.069,M,7.232,M,0.9,2589*75
$GPRMC,054339.95,A,3010.98859827,N,12008.34041619,E,2.40,13.11,181017,5.5,W,D,S*6E
$GPHDT,,T*1B
$GPGGA,054340.00,3010.98863052,N,12008.34042512,E,4,22,0.6,9.076,M,7.232,M,1.0,2589*79
$GPRMC,054340.00,A,3010.98863052,N,12008.34042512,E,2.38,12.38,181017,5.5,W,D,S*61
$GPHDT,,T*1B
$GPGGA,054340.05,3010.98866283,N,12008.34043427,E,4,22,0.6,9.080,M,7.232,M,1.1,2589*79
$GPRMC,054340.05,A,3010.98866283,N,12008.34043427,E,2.39,14.15,181017,5.5,W,D,S*61
$GPHDT,,T*1B
$GPGGA,054340.10,3010.98869500,N,12008.34044303,E,4,22,0.6,9.080,M,7.232,M,1.1,2589*78
$GPRMC,054340.10,A,3010.98869500,N,12008.34044303,E,2.33,13.20,181017,5.5,W,D,S*6B
$GPHDT,,T*1B
$GPGGA,054340.15,3010.98872769,N,12008.34045117,E,4,22,0.6,9.078,M,7.232,M,1.2,2589*78
$GPRMC,054340.15,A,3010.98872769,N,12008.34045117,E,2.43,11.57,181017,5.5,W,D,S*6A
$GPHDT,,T*1B
$GPGGA,054340.20,3010.98875952,N,12008.34045956,E,4,22,0.6,9.081,M,7.232,M,1.2,2589*74
$GPRMC,054340.20,A,3010.98875952,N,12008.34045956,E,2.25,13.54,181017,5.5,W,D,S*61
$GPHDT,,T*1B
$GPGGA,054340.25,3010.98879180,N,12008.34046732,E,4,22,0.6,9.081,M,7.232,M,1.2,2589*75
$GPRMC,054340.25,A,3010.98879180,N,12008.34046732,E,2.42,10.89,181017,5.5,W,D,S*62
$GPHDT,,T*1B
$GPGGA,054340.30,3010.98882469,N,12008.34047547,E,4,22,0.6,9.082,M,7.232,M,0.3,2589*75
$GPRMC,054340.30,A,3010.98882469,N,12008.34047547,E,2.39,13.18,181017,5.5,W,D,S*66
$GPHDT,,T*1B
$GPGGA,054340.35,3010.98885784,N,12008.34048371,E,4,22,0.6,9.084,M,7.232,M,0.3,2589*7D
$GPRMC,054340.35,A,3010.98885784,N,12008.34048371,E,2.46,11.26,181017,5.5,W,D,S*6F
$GPHDT,,T*1B
$GPGGA,054340.40,3010.98889130,N,12008.34049138,E,4,22,0.6,9.084,M,7.232,M,0.4,2589*73
$GPRMC,054340.40,A,3010.98889130,N,12008.34049138,E,2.40,11.73,181017,5.5,W,D,S*60
$GPHDT,,T*1B
$GPGGA,054340.45,3010.98892393,N,12008.34049938,E,4,22,0.6,9.082,M,7.232,M,0.4,2589*79
$GPRMC,054340.45,A,3010.98892393,N,12008.34049938,E,2.36,12.38,181017,5.5,W,D,S*61
$GPHDT,,T*1B
$GPGGA,054340.50,3010.98895583,N,12008.34050828,E,4,22,0.6,9.081,M,7.232,M,0.5,2589*77
$GPRMC,054340.50,A,3010.98895583,N,12008.34050828,E,2.34,14.14,181017,5.5,W,D,S*67
$GPHDT,,T*1B
$GPGGA,054340.55,3010.98898848,N,12008.34051764,E,4,22,0.6,9.083,M,7.232,M,0.5,2589*71
$GPRMC,054340.55,A,3010.98898848,N,12008.34051764,E,2.45,13.57,181017,5.5,W,D,S*65
$GPHDT,,T*1B
$GPGGA,054340.60,3010.98902143,N,12008.34052586,E,4,22,0.6,9.083,M,7.232,M,0.6,2589*79
$GPRMC,054340.60,A,3010.98902143,N,12008.34052586,E,2.39,11.16,181017,5.5,W,D,S*62
$GPHDT,,T*1B
$GPGGA,054340.65,3010.98905487,N,12008.34053363,E,4,22,0.6,9.081,M,7.232,M,0.6,2589*78
$GPRMC,054340.65,A,3010.98905487,N,12008.34053363,E,2.47,12.11,181017,5.5,W,D,S*6C
$GPHDT,,T*1B
$GPGGA,054340.70,3010.98908799,N,12008.34054133,E,4,22,0.6,9.076,M,7.232,M,0.7,2589*74
$GPRMC,054340.70,A,3010.98908799,N,12008.34054133,E,2.38,11.20,181017,5.5,W,D,S*60
$GPHDT,,T*1B
$GPGGA,054340.75,3010.98912027,N,12008.34054930,E,4,22,0.6,9.080,M,7.232,M,0.8,2589*75
$GPRMC,054340.75,A,3010.98912027,N,12008.34054930,E,2.38,12.13,181017,5.5,W,D,S*64
$GPHDT,,T*1B
$GPGGA,054340.80,3010.98915306,N,12008.34055748,E,4,22,0.6,9.082,M,7.232,M,0.8,2589*7A
$GPRMC,054340.80,A,3010.98915306,N,12008.34055748,E,2.45,11.83,181017,5.5,W,D,S*69
$GPHDT,,T*1B
$GPGGA,054340.85,3010.98918592,N,12008.34056622,E,4,22,0.6,9.083,M,7.232,M,0.9,2589*77
$GPRMC,054340.85,A,3010.98918592,N,12008.34056622,E,2.40,13.66,181017,5.5,W,D,S*68
$GPHDT,,T*1B
$GPGGA,054340.90,3010.98921863,N,12008.34057505,E,4,22,0.6,9.082,M,7.232,M,0.9,2589*7C
$GPRMC,054340.90,A,3010.98921863,N,12008.34057505,E,2.44,12.44,181017,5.5,W,D,S*67
$GPHDT,,T*1B
$GPGGA,054340.95,3010.98925210,N,12008.34058321,E,4,22,0.6,9.080,M,7.232,M,1.0,2589*76
$GPRMC,054340.95,A,3010.98925210,N,12008.34058321,E,2.48,11.10,181017,5.5,W,D,S*69
$GPHDT,,T*1B
$GPGGA,054341.00,3010.98928540,N,12008.34059294,E,4,22,0.6,9.083,M,7.232,M,1.0,2589*79
$GPRMC,054341.00,A,3010.98928540,N,12008.34059294,E,2.47,15.78,181017,5.5,W,D,S*60
$GPHDT,,T*1B
$GPGGA,054341.05,3010.98931887,N,12008.34060361,E,4,22,0.6,9.085,M,7.232,M,1.0,2589*75
$GPRMC,054341.05,A,3010.98931887,N,12008.34060361,E,2.52,14.23,181017,5.5,W,D,S*61
$GPHDT,,T*1B
$GPGGA,054341.10,3010.98935270,N,12008.34061325,E,4,22,0.6,9.086,M,7.232,M,1.1,2589*74
$GPRMC,054341.10,A,3010.98935270,N,12008.34061325,E,2.49,13.32,181017,5.5,W,D,S*6F
$GPHDT,,T*1B
$GPGGA,054341.15,3010.98938682,N,12008.34062119,E,4,22,0.6,9.080,M,7.232,M,1.1,2589*7D
$GPRMC,054341.15,A,3010.98938682,N,12008.34062119,E,2.51,10.39,181017,5.5,W,D,S*61
$GPHDT,,T*1B
$GPGGA,054341.20,3010.98941998,N,12008.34062832,E,4,22,0.6,9.081,M,7.232,M,1.2,2589*73
$GPRMC,054341.20,A,3010.98941998,N,12008.34062832,E,2.37,10.79,181017,5.5,W,D,S*69
$GPHDT,,T*1B
$GPGGA,054341.25,3010.98945275,N,12008.34063722,E,4,22,0.6,9.082,M,7.232,M,1.2,2589*76
$GPRMC,054341.25,A,3010.98945275,N,12008.34063722,E,2.48,15.14,181017,5.5,W,D,S*69
$GPHDT,,T*1B
$GPGGA,054341.30,3010.98948616,N,12008.34064711,E,4,22,0.6,9.078,M,7.232,M,0.3,2589*7C
$GPRMC,054341.30,A,3010.98948616,N,12008.34064711,E,2.48,14.11,181017,5.5,W,D,S*62
$GPHDT,,T*1B
$GPGGA,054341.35,3010.98951997,N,12008.34065713,E,4,22,0.6,9.077,M,7.232,M,0.3,2589*7B
$GPRMC,054341.35,A,3010.98951997,N,12008.34065713,E,2.53,14.65,181017,5.5,W,D,S*63
$GPHDT,,T*1B
$GPGGA,054341.40,3010.98955274,N,12008.34066759,E,4,22,0.6,9.071,M,7.232,M,0.4,2589*77
$GPRMC,054341.40,A,3010.98955274,N,12008.34066759,E,2.37,15.91,181017,5.5,W,D,S*66
$GPHDT,,T*1B
$GPGGA,054341.45,3010.98958495,N,12008.34067832,E,4,22,0.6,9.070,M,7.232,M,0.4,2589*74
$GPRMC,054341.45,A,3010.98958495,N,12008.34067832,E,2.44,15.71,181017,5.5,W,D,S*6E
$GPHDT,,T*1B
$GPGGA,054341.50,3010.98961751,N,12008.34068760,E,4,21,0.6,9.065,M,7.232,M,0.5,2589*70
$GPRMC,054341.50,A,3010.98961751,N,12008.34068760,E,2.39,12.84,181017,5.5,W,D,S*6B
$GPHDT,,T*1B
$GPGGA,054341.55,3010.98965077,N,12008.34069783,E,4,21,0.7,9.069,M,7.232,M,0.6,2589*70
$GPRMC,054341.55,A,3010.98965077,N,12008.34069783,E,2.55,15.75,181017,5.5,W,D,S*66
$GPHDT,,T*1B
$GPGGA,054341.60,3010.98968444,N,12008.34070846,E,4,21,0.7,9.069,M,7.232,M,0.6,2589*71
$GPRMC,054341.60,A,3010.98968444,N,12008.34070846,E,2.47,14.67,181017,5.5,W,D,S*66
$GPHDT,,T*1B
$GPGGA,054341.65,3010.98971892,N,12008.34071800,E,4,21,0.7,9.066,M,7.232,M,0.7,2589*76
$GPRMC,054341.65,A,3010.98971892,N,12008.34071800,E,2.58,13.05,181017,5.5,W,D,S*62
$GPHDT,,T*1B
$GPGGA,054341.70,3010.98975263,N,12008.34072751,E,4,22,0.7,9.063,M,7.232,M,0.7,2589*7C
$GPRMC,054341.70,A,3010.98975263,N,12008.34072751,E,2.43,15.12,181017,5.5,W,D,S*64
$GPHDT,,T*1B
$GPGGA,054341.75,3010.98978607,N,12008.34073720,E,4,22,0.6,9.062,M,7.232,M,0.7,2589*75
$GPRMC,054341.75,A,3010.98978607,N,12008.34073720,E,2.53,12.87,181017,5.5,W,D,S*67
$GPHDT,,T*1B
$GPGGA,054341.80,3010.98981989,N,12008.34074587,E,4,22,0.6,9.060,M,7.232,M,0.8,2589*75
$GPRMC,054341.80,A,3010.98981989,N,12008.34074587,E,2.47,11.91,181017,5.5,W,D,S*6B
$GPHDT,,T*1B
$GPGGA,054341.85,3010.98985418,N,12008.34075504,E,4,22,0.6,9.057,M,7.232,M,0.8,2589*7F
$GPRMC,054341.85,A,3010.98985418,N,12008.34075504,E,2.59,14.09,181017,5.5,W,D,S*6E
$GPHDT,,T*1B
$GPGGA,054341.90,3010.98988851,N,12008.34076508,E,4,22,0.6,9.057,M,7.232,M,0.9,2589*79
$GPRMC,054341.90,A,3010.98988851,N,12008.34076508,E,2.51,14.53,181017,5.5,W,D,S*6E
$GPHDT,,T*1B
$GPGGA,054341.95,3010.98992261,N,12008.34077640,E,4,22,0.6,9.063,M,7.232,M,0.9,2589*77
$GPRMC,054341.95,A,3010.98992261,N,12008.34077640,E,2.59,16.80,181017,5.5,W,D,S*63
$GPHDT,,T*1B
$GPGGA,054342.00,3010.98995735,N,12008.34078783,E,4,22,0.6,9.058,M,7.232,M,1.0,2589*7A
$GPRMC,054342.00,A,3010.98995735,N,12008.34078783,E,2.61,14.93,181017,5.5,W,D,S*65
$GPHDT,,T*1B
$GPGGA,054342.05,3010.98999192,N,12008.34079794,E,4,22,0.6,9.062,M,7.232,M,1.0,2589*76
$GPRMC,054342.05,A,3010.98999192,N,12008.34079794,E,2.55,13.65,181017,5.5,W,D,S*69
$GPHDT,,T*1B
$GPGGA,054342.10,3010.99002684,N,12008.34080732,E,4,22,0.6,9.061,M,7.232,M,1.1,2589*70
$GPRMC,054342.10,A,3010.99002684,N,12008.34080732,E,2.59,12.77,181017,5.5,W,D,S*63
$GPHDT,,T*1B
$GPGGA,054342.15,3010.99006164,N,12008.34081701,E,4,22,0.6,9.061,M,7.232,M,1.1,2589*79
$GPRMC,054342.15,A,3010.99006164,N,12008.34081701,E,2.60,13.87,181017,5.5,W,D,S*6E
$GPHDT,,T*1B
$GPGGA,054342.20,3010.99009692,N,12008.34082585,E,4,21,0.6,9.062,M,7.232,M,1.2,2589*70
$GPRMC,054342.20,A,3010.99009692,N,12008.34082585,E,2.59,10.81,181017,5.5,W,D,S*6B
$GPHDT,,T*1B
$GPGGA,054342.25,3010.99013140,N,12008.34083468,E,4,21,0.7,9.059,M,7.232,M,1.3,2589*7D
$GPRMC,054342.25,A,3010.99013140,N,12008.34083468,E,2.52,13.30,181017,5.5,W,D,S*6C
$GPHDT,,T*1B
$GPGGA,054342.30,3010.99016550,N,12008.34084518,E,4,21,0.7,9.064,M,7.232,M,0.3,2589*77
$GPRMC,054342.30,A,3010.99016550,N,12008.34084518,E,2.56,15.78,181017,5.5,W,D,S*67
$GPHDT,,T*1B
$GPGGA,054342.35,3010.99019901,N,12008.34085540,E,4,21,0.7,9.064,M,7.232,M,0.4,2589*7E
$GPRMC,054342.35,A,3010.99019901,N,12008.34085540,E,2.45,13.83,181017,5.5,W,D,S*69
$GPHDT,,T*1B
$GPGGA,054342.40,3010.99023310,N,12008.34086586,E,4,21,0.7,9.060,M,7.232,M,0.4,2589*72
$GPRMC,054342.40,A,3010.99023310,N,12008.34086586,E,2.62,15.61,181017,5.5,W,D,S*6E
$GPHDT,,T*1B
$GPGGA,054342.45,3010.99026789,N,12008.34087655,E,4,21,0.7,9.066,M,7.232,M,0.5,2589*7D
$GPRMC,054342.45,A,3010.99026789,N,12008.34087655,E,2.58,14.88,181017,5.5,W,D,S*69
$GPHDT,,T*1B
$GPGGA,054342.50,3010.99030210,N,12008.34088732,E,4,21,0.7,9.068,M,7.232,M,0.5,2589*7A
$GPRMC,054342.50,A,3010.99030210,N,12008.34088732,E,2.56,15.16,181017,5.5,W,D,S*68
$GPHDT,,T*1B
$GPGGA,054342.55,3010.99033630,N,12008.34089833,E,4,20,0.7,9.077,M,7.232,M,0.5,2589*7A
$GPRMC,054342.55,A,3010.99033630,N,12008.34089833,E,2.55,15.55,181017,5.5,W,D,S*63
$GPHDT,,T*1B
$GPGGA,054342.60,3010.99036938,N,12008.34090957,E,4,20,0.7,9.079,M,7.232,M,0.6,2589*78
$GPRMC,054342.60,A,3010.99036938,N,12008.34090957,E,2.43,17.01,181017,5.5,W,D,S*68
$GPHDT,,T*1B
$GPGGA,054342.65,3010.99040287,N,12008.34092148,E,4,20,0.7,9.077,M,7.232,M,0.6,2589*79
$GPRMC,054342.65,A,3010.99040287,N,12008.34092148,E,2.59,16.59,181017,5.5,W,D,S*60
$GPHDT,,T*1B
$GPGGA,054342.70,3010.99043751,N,12008.34093287,E,4,20,0.7,9.081,M,7.232,M,0.7,2589*79
$GPRMC,054342.70,A,3010.99043751,N,12008.34093287,E,2.59,15.95,181017,5.5,W,D,S*6B
$GPHDT,,T*1B
$GPGGA,054342.75,3010.99047198,N,12008.34094371,E,4,20,0.7,9.082,M,7.232,M,0.7,2589*77
$GPRMC,054342.75,A,3010.99047198,N,12008.34094371,E,2.57,15.78,181017,5.5,W,D,S*6B
$GPHDT,,T*1B
$GPGGA,054342.80,3010.99050644,N,12008.34095650,E,4,20,0.7,9.087,M,7.232,M,0.8,2589*70
$GPRMC,054342.80,A,3010.99050644,N,12008.34095650,E,2.65,19.46,181017,5.5,W,D,S*66
$GPHDT,,T*1B
$GPGGA,054342.85,3010.99054058,N,12008.34096782,E,4,20,0.7,9.085,M,7.232,M,0.8,2589*75
$GPRMC,054342.85,A,3010.99054058,N,12008.34096782,E,2.52,13.77,181017,5.5,W,D,S*6D
$GPHDT,,T*1B
$GPGGA,054342.90,3010.99057495,N,12008.34097701,E,4,20,0.7,9.086,M,7.232,M,0.9,2589*7F
$GPRMC,054342.90,A,3010.99057495,N,12008.34097701,E,2.57,14.35,181017,5.5,W,D,S*61
$GPHDT,,T*1B
$GPGGA,054342.95,3010.99060920,N,12008.34098814,E,4,20,0.7,9.086,M,7.232,M,0.9,2589*79
$GPRMC,054342.95,A,3010.99060920,N,12008.34098814,E,2.58,17.47,181017,5.5,W,D,S*6E
$GPHDT,,T*1B
$GPGGA,054343.00,3010.99064348,N,12008.34100103,E,4,20,0.7,9.091,M,7.232,M,1.0,2589*75
$GPRMC,054343.00,A,3010.99064348,N,12008.34100103,E,2.62,18.68,181017,5.5,W,D,S*67
$GPHDT,,T*1B
$GPGGA,054343.05,3010.99067825,N,12008.34101370,E,4,20,0.7,9.092,M,7.232,M,1.1,2589*76
$GPRMC,054343.05,A,3010.99067825,N,12008.34101370,E,2.62,17.44,181017,5.5,W,D,S*67
$GPHDT,,T*1B
$GPGGA,054343.10,3010.99071392,N,12008.34102300,E,4,20,0.7,9.086,M,7.232,M,1.1,2589*73
$GPRMC,054343.10,A,3010.99071392,N,12008.34102300,E,2.63,10.78,181017,5.5,W,D,S*6E
$GPHDT,,T*1B
$GPGGA,054343.15,3010.99074781,N,12008.34103365,E,4,20,0.7,9.084,M,7.232,M,1.2,2589*76
$GPRMC,054343.15,A,3010.99074781,N,12008.34103365,E,2.47,19.17,181017,5.5,W,D,S*6C
$GPHDT,,T*1B
$GPGGA,054343.20,3010.99078212,N,12008.34104693,E,4,20,0.7,9.085,M,7.232,M,1.2,2589*79
$GPRMC,054343.20,A,3010.99078212,N,12008.34104693,E,2.71,17.52,181017,5.5,W,D,S*68
$GPHDT,,T*1B
$GPGGA,054343.25,3010.99081767,N,12008.34105874,E,4,20,0.7,9.089,M,7.232,M,1.2,2589*77
$GPRMC,054343.25,A,3010.99081767,N,12008.34105874,E,2.64,14.93,181017,5.5,W,D,S*60
$GPHDT,,T*1B
$GPGGA,054343.30,3010.99085369,N,12008.34106996,E,4,20,0.7,9.090,M,7.232,M,0.3,2589*7B
$GPRMC,054343.30,A,3010.99085369,N,12008.34106996,E,2.77,16.73,181017,5.5,W,D,S*6A
$GPHDT,,T*1B
$GPGGA,054343.35,3010.99089009,N,12008.34108164,E,4,20,0.7,9.089,M,7.232,M,0.3,2589*74
$GPRMC,054343.35,A,3010.99089009,N,12008.34108164,E,2.68,15.12,181017,5.5,W,D,S*67
$GPHDT,,T*1B
$GPGGA,054343.40,3010.99092455,N,12008.34109269,E,4,20,0.7,9.089,M,7.232,M,0.4,2589*79
$GPRMC,054343.40,A,3010.99092455,N,12008.34109269,E,2.52,15.98,181017,5.5,W,D,S*66
$GPHDT,,T*1B
$GPGGA,054343.45,3010.99095926,N,12008.34110351,E,4,20,0.7,9.087,M,7.232,M,0.4,2589*7E
$GPRMC,054343.45,A,3010.99095926,N,12008.34110351,E,2.69,15.70,181017,5.5,W,D,S*61
$GPHDT,,T*1B
$GPGGA,054343.50,3010.99099344,N,12008.34111275,E,4,20,0.7,9.082,M,7.232,M,0.5,2589*7A
$GPRMC,054343.50,A,3010.99099344,N,12008.34111275,E,2.46,12.81,181017,5.5,W,D,S*65
$GPHDT,,T*1B
$GPGGA,054343.55,3010.99102799,N,12008.34112264,E,4,20,0.7,9.081,M,7.232,M,0.5,2589*78
$GPRMC,054343.55,A,3010.99102799,N,12008.34112264,E,2.67,15.45,181017,5.5,W,D,S*68
$GPHDT,,T*1B
$GPGGA,054343.60,3010.99106247,N,12008.34113344,E,4,20,0.7,9.077,M,7.232,M,0.6,2589*74
$GPRMC,054343.60,A,3010.99106247,N,12008.34113344,E,2.51,15.57,181017,5.5,W,D,S*68
$GPHDT,,T*1B
$GPGGA,054343.65,3010.99109741,N,12008.34114362,E,4,20,0.7,9.067,M,7.232,M,0.6,2589*7F
$GPRMC,054343.65,A,3010.99109741,N,12008.34114362,E,2.64,13.61,181017,5.5,W,D,S*67
$GPHDT,,T*1B
$GPGGA,054343.70,3010.99113245,N,12008.34115458,E,4,20,0.7,9.070,M,7.232,M,0.7,2589*79
$GPRMC,054343.70,A,3010.99113245,N,12008.34115458,E,2.57,17.34,181017,5.5,W,D,S*62
$GPHDT,,T*1B
$GPGGA,054343.75,3010.99116627,N,12008.34116566,E,4,20,0.7,9.068,M,7.232,M,0.7,2589*7F
$GPRMC,054343.75,A,3010.99116627,N,12008.34116566,E,2.47,16.05,181017,5.5,W,D,S*6F
$GPHDT,,T*1B
$GPGGA,054343.80,3010.99120090,N,12008.34117575,E,4,20,0.7,9.066,M,7.232,M,0.8,2589*78
$GPRMC,054343.80,A,3010.99120090,N,12008.34117575,E,2.60,13.52,181017,5.5,W,D,S*6B
$GPHDT,,T*1B
$GPGGA,054343.85,3010.99123609,N,12008.34118686,E,4,20,0.7,9.068,M,7.232,M,0.9,2589*77
$GPRMC,054343.85,A,3010.99123609,N,12008.34118686,E,2.56,16.94,181017,5.5,W,D,S*61
$GPHDT,,T*1B
$GPGGA,054343.90,3010.99126969,N,12008.34119828,E,4,20,0.7,9.072,M,7.232,M,0.9,2589*7F
$GPRMC,054343.90,A,3010.99126969,N,12008.34119828,E,2.47,15.88,181017,5.5,W,D,S*6C
$GPHDT,,T*1B
$GPGGA,054343.95,3010.99130294,N,12008.34120849,E,4,20,0.7,9.072,M,7.232,M,1.0,2589*71
$GPRMC,054343.95,A,3010.99130294,N,12008.34120849,E,2.50,13.52,181017,5.5,W,D,S*6D
$GPHDT,,T*1B
$GPGGA,054344.00,3010.99133766,N,12008.34121860,E,4,20,0.7,9.070,M,7.232,M,1.0,2589*79
$GPRMC,054344.00,A,3010.99133766,N,12008.34121860,E,2.56,13.33,181017,5.5,W,D,S*66
$GPHDT,,T*1B
$GPGGA,054344.05,3010.99137311,N,12008.34122873,E,4,20,0.7,9.066,M,7.232,M,1.0,2589*7A
$GPRMC,054344.05,A,3010.99137311,N,12008.34122873,E,2.62,12.43,181017,5.5,W,D,S*63
$GPHDT,,T*1B
$GPGGA,054344.10,3010.99140756,N,12008.34123942,E,4,20,0.7,9.066,M,7.232,M,1.1,2589*7A
$GPRMC,054344.10,A,3010.99140756,N,12008.34123942,E,2.48,16.18,181017,5.5,W,D,S*60
$GPHDT,,T*1B
$GPGGA,054344.15,3010.99144111,N,12008.34125098,E,4,20,0.7,9.065,M,7.232,M,1.1,2589*75
$GPRMC,054344.15,A,3010.99144111,N,12008.34125098,E,2.51,16.78,181017,5.5,W,D,S*62
$GPHDT,,T*1B
$GPGGA,054344.20,3010.99147531,N,12008.34126134,E,4,20,0.7,9.060,M,7.232,M,1.2,2589*74
$GPRMC,054344.20,A,3010.99147531,N,12008.34126134,E,2.51,13.09,181017,5.5,W,D,S*66
$GPHDT,,T*1B
$GPGGA,054344.25,3010.99150939,N,12008.34127133,E,4,20,0.7,9.062,M,7.232,M,1.2,2589*77
$GPRMC,054344.25,A,3010.99150939,N,12008.34127133,E,2.47,14.66,181017,5.5,W,D,S*6E
$GPHDT,,T*1B
$GPGGA,054344.30,3010.99154412,N,12008.34128345,E,4,20,0.7,9.062,M,7.232,M,0.3,2589*7F
$GPRMC,054344.30,A,3010.99154412,N,12008.34128345,E,2.61,16.82,181017,5.5,W,D,S*6A
$GPHDT,,T*1B
$GPGGA,054344.35,3010.99157839,N,12008.34129511,E,4,20,0.7,9.058,M,7.232,M,0.3,2589*73
$GPRMC,054344.35,A,3010.99157839,N,12008.34129511,E,2.50,14.83,181017,5.5,W,D,S*6E
$GPHDT,,T*1B
$GPGGA,054344.40,3010.99161303,N,12008.34130565,E,4,20,0.7,9.053,M,7.232,M,0.4,2589*71
$GPRMC,054344.40,A,3010.99161303,N,12008.34130565,E,2.61,14.05,181017,5.5,W,D,S*6C
$GPHDT,,T*1B
$GPGGA,054344.45,3010.99164898,N,12008.34131713,E,4,20,0.7,9.053,M,7.232,M,0.4,2589*7A
$GPRMC,054344.45,A,3010.99164898,N,12008.34131713,E,2.66,16.09,181017,5.5,W,D,S*6E
$GPHDT,,T*1B
$GPGGA,054344.50,3010.99168470,N,12008.34132870,E,4,20,0.7,9.051,M,7.232,M,0.5,2589*72
$GPRMC,054344.50,A,3010.99168470,N,12008.34132870,E,2.62,14.81,181017,5.5,W,D,S*63
$GPHDT,,T*1B
$GPGGA,054344.55,3010.99171913,N,12008.34134102,E,4,20,0.7,9.051,M,7.232,M,0.5,2589*7D
$GPRMC,054344.55,A,3010.99171913,N,12008.34134102,E,2.54,18.80,181017,5.5,W,D,S*64
$GPHDT,,T*1B
$GPGGA,054344.60,3010.99175301,N,12008.34135217,E,4,20,0.7,9.056,M,7.232,M,0.6,2589*74
$GPRMC,054344.60,A,3010.99175301,N,12008.34135217,E,2.53,13.64,181017,5.5,W,D,S*6F
$GPHDT,,T*1B
$GPGGA,054344.65,3010.99178825,N,12008.34136210,E,4,20,0.7,9.057,M,7.232,M,0.7,2589*75
$GPRMC,054344.65,A,3010.99178825,N,12008.34136210,E,2.61,13.08,181017,5.5,W,D,S*65
$GPHDT,,T*1B
$GPGGA,054344.70,3010.99182380,N,12008.34137398,E,4,20,0.7,9.057,M,7.232,M,0.7,2589*70
$GPRMC,054344.70,A,3010.99182380,N,12008.34137398,E,2.64,17.70,181017,5.5,W,D,S*6E
$GPHDT,,T*1B
$GPGGA,054344.75,3010.99185896,N,12008.34138757,E,4,20,0.7,9.064,M,7.232,M,0.8,2589*79
$GPRMC,054344.75,A,3010.99185896,N,12008.34138757,E,2.65,18.65,181017,5.5,W,D,S*62
$GPHDT,,T*1B
$GPGGA,054344.80,3010.99189406,N,12008.34140007,E,4,20,0.7,9.065,M,7.232,M,0.8,2589*76
$GPRMC,054344.80,A,3010.99189406,N,12008.34140007,E,2.64,15.63,181017,5.5,W,D,S*66
$GPHDT,,T*1B
$GPGGA,054344.85,3010.99192890,N,12008.34141266,E,4,20,0.7,9.067,M,7.232,M,0.8,2589*7C
$GPRMC,054344.85,A,3010.99192890,N,12008.34141266,E,2.62,18.78,181017,5.5,W,D,S*6F
$GPHDT,,T*1B
$GPGGA,054344.90,3010.99196503,N,12008.34142450,E,4,20,0.7,9.066,M,7.232,M,0.9,2589*7B
$GPRMC,054344.90,A,3010.99196503,N,12008.34142450,E,2.78,13.43,181017,5.5,W,D,S*60
$GPHDT,,T*1B
$GPGGA,054344.95,3010.99200279,N,12008.34143562,E,4,20,0.7,9.067,M,7.232,M,0.9,2589*78
$GPRMC,054344.95,A,3010.99200279,N,12008.34143562,E,2.81,14.43,181017,5.5,W,D,S*63
$GPHDT,,T*1B
$GPGGA,054345.00,3010.99203910,N,12008.34144654,E,4,20,0.7,9.069,M,7.232,M,1.0,2589*75
$GPRMC,054345.00,A,3010.99203910,N,12008.34144654,E,2.60,14.61,181017,5.5,W,D,S*67
$GPHDT,,T*1B
$GPGGA,054345.05,3010.99207359,N,12008.34145621,E,4,20,0.7,9.065,M,7.232,M,1.0,2589*7C
$GPRMC,054345.05,A,3010.99207359,N,12008.34145621,E,2.51,13.24,181017,5.5,W,D,S*66
$GPHDT,,T*1B
$GPGGA,054345.10,3010.99210903,N,12008.34146578,E,4,20,0.7,9.066,M,7.232,M,1.1,2589*75
$GPRMC,054345.10,A,3010.99210903,N,12008.34146578,E,2.68,13.28,181017,5.5,W,D,S*6B
$GPHDT,,T*1B
$GPGGA,054345.15,3010.99214572,N,12008.34147785,E,4,20,0.7,9.069,M,7.232,M,1.1,2589*70
$GPRMC,054345.15,A,3010.99214572,N,12008.34147785,E,2.75,17.36,181017,5.5,W,D,S*66
$GPHDT,,T*1B
$GPGGA,054345.20,3010.99218245,N,12008.34149147,E,4,20,0.7,9.071,M,7.232,M,1.2,2589*75
$GPRMC,054345.20,A,3010.99218245,N,12008.34149147,E,2.75,17.41,181017,5.5,W,D,S*69
$GPHDT,,T*1B
$GPGGA,054345.25,3010.99221858,N,12008.34150415,E,4,20,0.7,9.070,M,7.232,M,1.2,2589*77
$GPRMC,054345.25,A,3010.99221858,N,12008.34150415,E,2.68,15.92,181017,5.5,W,D,S*6A
$GPHDT,,T*1B
$GPGGA,054345.30,3010.99225531,N,12008.34151569,E,4,20,0.7,9.073,M,7.232,M,0.3,2589*7D
$GPRMC,054345.30,A,3010.99225531,N,12008.34151569,E,2.77,15.20,181017,5.5,W,D,S*64
$GPHDT,,T*1B
$GPGGA,054345.35,3010.99229138,N,12008.34152658,E,4,20,0.7,9.077,M,7.232,M,0.4,2589*78
$GPRMC,054345.35,A,3010.99229138,N,12008.34152658,E,2.62,14.65,181017,5.5,W,D,S*66
$GPHDT,,T*1B
$GPGGA,054345.40,3010.99232602,N,12008.34153780,E,4,20,0.7,9.073,M,7.232,M,0.4,2589*7F
$GPRMC,054345.40,A,3010.99232602,N,12008.34153780,E,2.58,17.09,181017,5.5,W,D,S*65
$GPHDT,,T*1B
$GPGGA,054345.45,3010.99236047,N,12008.34154907,E,4,20,0.7,9.071,M,7.232,M,0.5,2589*7C
$GPRMC,054345.45,A,3010.99236047,N,12008.34154907,E,2.59,15.26,181017,5.5,W,D,S*6B
$GPHDT,,T*1B
$GPGGA,054345.50,3010.99239556,N,12008.34155829,E,4,20,0.7,9.069,M,7.232,M,0.5,2589*77
$GPRMC,054345.50,A,3010.99239556,N,12008.34155829,E,2.61,11.44,181017,5.5,W,D,S*62
$GPHDT,,T*1B
$GPGGA,054345.55,3010.99243177,N,12008.34156775,E,4,20,0.7,9.064,M,7.232,M,0.6,2589*73
$GPRMC,054345.55,A,3010.99243177,N,12008.34156775,E,2.73,13.60,181017,5.5,W,D,S*6F
$GPHDT,,T*1B
$GPGGA,054345.60,3010.99246754,N,12008.34157921,E,4,20,0.7,9.064,M,7.232,M,0.6,2589*79
$GPRMC,054345.60,A,3010.99246754,N,12008.34157921,E,2.62,17.31,181017,5.5,W,D,S*65
$GPHDT,,T*1B
$GPGGA,054345.65,3010.99250230,N,12008.34159180,E,4,20,0.7,9.061,M,7.232,M,0.6,2589*74
$GPRMC,054345.65,A,3010.99250230,N,12008.34159180,E,2.63,17.60,181017,5.5,W,D,S*68
$GPHDT,,T*1B
$GPGGA,054345.70,3010.99253740,N,12008.34160351,E,4,20,0.7,9.059,M,7.232,M,0.7,2589*7F
$GPRMC,054345.70,A,3010.99253740,N,12008.34160351,E,2.63,15.18,181017,5.5,W,D,S*64
$GPHDT,,T*1B
$GPGGA,054345.75,3010.99257176,N,12008.34161457,E,4,20,0.7,9.062,M,7.232,M,0.7,2589*75
$GPRMC,054345.75,A,3010.99257176,N,12008.34161457,E,2.53,16.18,181017,5.5,W,D,S*66
$GPHDT,,T*1B
$GPGGA,054345.80,3010.99260581,N,12008.34162517,E,4,20,0.7,9.053,M,7.232,M,0.8,2589*7C
$GPRMC,054345.80,A,3010.99260581,N,12008.34162517,E,2.58,15.18,181017,5.5,W,D,S*6A
$GPHDT,,T*1B
$GPGGA,054345.85,3010.99263968,N,12008.34163478,E,4,20,0.7,9.046,M,7.232,M,0.8,2589*7C
$GPRMC,054345.85,A,3010.99263968,N,12008.34163478,E,2.48,14.35,181017,5.5,W,D,S*61
$GPHDT,,T*1B
$GPGGA,054345.90,3010.99267326,N,12008.34164431,E,4,20,0.7,9.042,M,7.232,M,0.9,2589*73
$GPRMC,054345.90,A,3010.99267326,N,12008.34164431,E,2.52,15.42,181017,5.5,W,D,S*61
$GPHDT,,T*1B
$GPGGA,054345.95,3010.99270756,N,12008.34165571,E,4,20,0.7,9.035,M,7.232,M,0.9,2589*77
$GPRMC,054345.95,A,3010.99270756,N,12008.34165571,E,2.63,17.42,181017,5.5,W,D,S*65
$GPHDT,,T*1B
$GPGGA,054346.00,3010.99274111,N,12008.34166732,E,4,20,0.7,9.033,M,7.232,M,1.0,2589*71
$GPRMC,054346.00,A,3010.99274111,N,12008.34166732,E,2.44,16.45,181017,5.5,W,D,S*6E
$GPHDT,,T*1B
$GPGGA,054346.05,3010.99277387,N,12008.34167801,E,4,20,0.7,9.034,M,7.232,M,1.0,2589*73
$GPRMC,054346.05,A,3010.99277387,N,12008.34167801,E,2.47,16.38,181017,5.5,W,D,S*62
$GPHDT,,T*1B
$GPGGA,054346.10,3010.99280799,N,12008.34168997,E,4,20,0.7,9.043,M,7.232,M,1.1,2589*74
$GPRMC,054346.10,A,3010.99280799,N,12008.34168997,E,2.54,16.33,181017,5.5,W,D,S*6D
$GPHDT,,T*1B
$GPGGA,054346.15,3010.99284241,N,12008.34170169,E,4,20,0.7,9.050,M,7.232,M,1.2,2589*74
$GPRMC,054346.15,A,3010.99284241,N,12008.34170169,E,2.50,15.17,181017,5.5,W,D,S*6D
$GPHDT,,T*1B
$GPGGA,054346.20,3010.99287764,N,12008.34171411,E,4,20,0.7,9.059,M,7.232,M,1.2,2589*71
$GPRMC,054346.20,A,3010.99287764,N,12008.34171411,E,2.68,17.24,181017,5.5,W,D,S*68
$GPHDT,,T*1B
$GPGGA,054346.25,3010.99291258,N,12008.34172614,E,4,19,0.7,9.063,M,7.232,M,1.3,2589*7F
$GPRMC,054346.25,A,3010.99291258,N,12008.34172614,E,2.51,14.97,181017,5.5,W,D,S*65
$GPHDT,,T*1B
$GPGGA,054346.30,3010.99294566,N,12008.34173697,E,4,20,0.7,9.059,M,7.232,M,0.3,2589*7C
$GPRMC,054346.30,A,3010.99294566,N,12008.34173697,E,2.43,15.39,181017,5.5,W,D,S*62
$GPHDT,,T*1B
$GPGGA,054346.35,3010.99297946,N,12008.34174800,E,4,20,0.7,9.064,M,7.232,M,0.3,2589*7D
$GPRMC,054346.35,A,3010.99297946,N,12008.34174800,E,2.54,15.72,181017,5.5,W,D,S*64
$GPHDT,,T*1B
$GPGGA,054346.40,3010.99301347,N,12008.34175994,E,4,20,0.7,9.071,M,7.232,M,0.4,2589*74
$GPRMC,054346.40,A,3010.99301347,N,12008.34175994,E,2.49,17.56,181017,5.5,W,D,S*66
$GPHDT,,T*1B
$GPGGA,054346.45,3010.99304608,N,12008.34177108,E,4,20,0.7,9.076,M,7.232,M,0.4,2589*72
$GPRMC,054346.45,A,3010.99304608,N,12008.34177108,E,2.40,14.73,181017,5.5,W,D,S*6A
$GPHDT,,T*1B
$GPGGA,054346.50,3010.99307917,N,12008.34178188,E,4,20,0.7,9.077,M,7.232,M,0.5,2589*73
$GPRMC,054346.50,A,3010.99307917,N,12008.34178188,E,2.50,15.95,181017,5.5,W,D,S*63
$GPHDT,,T*1B
$GPGGA,054346.55,3010.99311221,N,12008.34179217,E,4,20,0.7,9.077,M,7.232,M,0.5,2589*7B
$GPRMC,054346.55,A,3010.99311221,N,12008.34179217,E,2.41,14.02,181017,5.5,W,D,S*64
$GPHDT,,T*1B
$GPGGA,054346.60,3010.99314547,N,12008.34180238,E,4,20,0.7,9.078,M,7.232,M,0.6,2589*78
$GPRMC,054346.60,A,3010.99314547,N,12008.34180238,E,2.50,14.79,181017,5.5,W,D,S*67
$GPHDT,,T*1B
$GPGGA,054346.65,3010.99317938,N,12008.34181341,E,4,20,0.7,9.084,M,7.232,M,0.6,2589*77
$GPRMC,054346.65,A,3010.99317938,N,12008.34181341,E,2.53,15.07,181017,5.5,W,D,S*60
$GPHDT,,T*1B
$GPGGA,054346.70,3010.99321306,N,12008.34182467,E,4,20,0.7,9.083,M,7.232,M,0.7,2589*77
$GPRMC,054346.70,A,3010.99321306,N,12008.34182467,E,2.48,16.23,181017,5.5,W,D,S*69
$GPHDT,,T*1B
$GPGGA,054346.75,3010.99324597,N,12008.34183587,E,4,20,0.7,9.083,M,7.232,M,0.7,2589*77
$GPRMC,054346.75,A,3010.99324597,N,12008.34183587,E,2.42,15.71,181017,5.5,W,D,S*67
$GPHDT,,T*1B
$GPGGA,054346.80,3010.99327791,N,12008.34184710,E,4,20,0.7,9.083,M,7.232,M,0.8,2589*7E
$GPRMC,054346.80,A,3010.99327791,N,12008.34184710,E,2.37,16.52,181017,5.5,W,D,S*61
$GPHDT,,T*1B
$GPGGA,054346.85,3010.99331009,N,12008.34185919,E,4,20,0.7,9.089,M,7.232,M,0.8,2589*76
$GPRMC,054346.85,A,3010.99331009,N,12008.34185919,E,2.46,17.99,181017,5.5,W,D,S*63
$GPHDT,,T*1B
$GPGGA,054346.90,3010.99334199,N,12008.34187121,E,4,20,0.7,9.088,M,7.232,M,0.9,2589*7E
$GPRMC,054346.90,A,3010.99334199,N,12008.34187121,E,2.34,17.79,181017,5.5,W,D,S*60
$GPHDT,,T*1B
$GPGGA,054346.95,3010.99337410,N,12008.34188327,E,4,20,0.7,9.083,M,7.232,M,1.0,2589*74
$GPRMC,054346.95,A,3010.99337410,N,12008.34188327,E,2.48,17.78,181017,5.5,W,D,S*63
$GPHDT,,T*1B
$GPGGA,054347.00,3010.99340667,N,12008.34189355,E,4,20,0.7,9.080,M,7.232,M,1.0,2589*7C
$GPRMC,054347.00,A,3010.99340667,N,12008.34189355,E,2.35,13.12,181017,5.5,W,D,S*6A
$GPHDT,,T*1B
$GPGGA,054347.05,3010.99343865,N,12008.34190313,E,4,20,0.7,9.082,M,7.232,M,1.1,2589*7F
$GPRMC,054347.05,A,3010.99343865,N,12008.34190313,E,2.37,15.93,181017,5.5,W,D,S*67
$GPHDT,,T*1B
$GPGGA,054347.10,3010.99347190,N,12008.34191438,E,4,20,0.7,9.086,M,7.232,M,1.1,2589*77
$GPRMC,054347.10,A,3010.99347190,N,12008.34191438,E,2.52,17.00,181017,5.5,W,D,S*60
$GPHDT,,T*1B
$GPGGA,054347.15,3010.99350489,N,12008.34192650,E,4,20,0.7,9.090,M,7.232,M,1.1,2589*71
$GPRMC,054347.15,A,3010.99350489,N,12008.34192650,E,2.41,18.09,181017,5.5,W,D,S*65
$GPHDT,,T*1B
$GPGGA,054347.20,3010.99353664,N,12008.34193721,E,4,20,0.7,9.089,M,7.232,M,1.2,2589*78
$GPRMC,054347.20,A,3010.99353664,N,12008.34193721,E,2.33,14.92,181017,5.5,W,D,S*6C
$GPHDT,,T*1B
$GPGGA,054347.25,3010.99356917,N,12008.34194714,E,4,20,0.7,9.088,M,7.232,M,1.2,2589*73
$GPRMC,054347.25,A,3010.99356917,N,12008.34194714,E,2.46,14.45,181017,5.5,W,D,S*6E
$GPHDT,,T*1B
$GPGGA,054347.30,3010.99360264,N,12008.34195731,E,4,20,0.7,9.087,M,7.232,M,0.3,2589*74
$GPRMC,054347.30,A,3010.99360264,N,12008.34195731,E,2.48,14.91,181017,5.5,W,D,S*61
$GPHDT,,T*1B
$GPGGA,054347.35,3010.99363595,N,12008.34196742,E,4,20,0.7,9.086,M,7.232,M,0.3,2589*7D
$GPRMC,054347.35,A,3010.99363595,N,12008.34196742,E,2.44,14.65,181017,5.5,W,D,S*6E
$GPHDT,,T*1B
$GPGGA,054347.40,3010.99366908,N,12008.34197746,E,4,20,0.7,9.084,M,7.232,M,0.4,2589*72
$GPRMC,054347.40,A,3010.99366908,N,12008.34197746,E,2.46,15.24,181017,5.5,W,D,S*62
$GPHDT,,T*1B
$GPGGA,054347.45,3010.99370170,N,12008.34198753,E,4,20,0.7,9.075,M,7.232,M,0.4,2589*72
$GPRMC,054347.45,A,3010.99370170,N,12008.34198753,E,2.38,15.84,181017,5.5,W,D,S*6F
$GPHDT,,T*1B
$GPGGA,054347.50,3010.99373386,N,12008.34199870,E,4,20,0.7,9.075,M,7.232,M,0.5,2589*70
$GPRMC,054347.50,A,3010.99373386,N,12008.34199870,E,2.42,17.77,181017,5.5,W,D,S*6F
$GPHDT,,T*1B
$GPGGA,054347.55,3010.99376549,N,12008.34200886,E,4,20,0.7,9.071,M,7.232,M,0.5,2589*7B
$GPRMC,054347.55,A,3010.99376549,N,12008.34200886,E,2.32,14.04,181017,5.5,W,D,S*60
$GPHDT,,T*1B
$GPGGA,054347.60,3010.99379780,N,12008.34201798,E,4,20,0.7,9.069,M,7.232,M,0.6,2589*7E
$GPRMC,054347.60,A,3010.99379780,N,12008.34201798,E,2.42,14.45,181017,5.5,W,D,S*6D
$GPHDT,,T*1B
$GPGGA,054347.65,3010.99383053,N,12008.34202840,E,4,20,0.7,9.072,M,7.232,M,0.7,2589*75
$GPRMC,054347.65,A,3010.99383053,N,12008.34202840,E,2.44,16.74,181017,5.5,W,D,S*6B
$GPHDT,,T*1B
$GPGGA,054347.70,3010.99386276,N,12008.34203803,E,4,20,0.7,9.069,M,7.232,M,0.7,2589*7D
$GPRMC,054347.70,A,3010.99386276,N,12008.34203803,E,2.35,13.09,181017,5.5,W,D,S*60
$GPHDT,,T*1B
