$GPHDT,82.149,T*03
$GPGGA,061131.65,3124.97791505,N,12112.83996710,E,4,17,0.8,6.209,M,9.070,M,0.6,2937*7B
$GPRMC,061131.65,A,3124.97791505,N,12112.83996710,E,0.04,217.46,111017,5.9,W,D,S*5C
$GPHDT,82.102,T*0C
$GPGGA,061131.70,3124.97791512,N,12112.83996648,E,4,17,0.8,6.211,M,9.070,M,0.7,2937*7D
$GPRMC,061131.70,A,3124.97791512,N,12112.83996648,E,0.01,290.77,111017,5.9,W,D,S*5A
$GPHDT,82.139,T*04
$GPGGA,061131.75,3124.97791541,N,12112.83996566,E,4,17,0.8,6.213,M,9.070,M,0.7,2937*73
$GPRMC,061131.75,A,3124.97791541,N,12112.83996566,E,0.05,269.87,111017,5.9,W,D,S*5B
$GPHDT,82.203,T*0E
$GPGGA,061131.80,3124.97791580,N,12112.83996441,E,4,17,0.8,6.214,M,9.070,M,0.8,2937*78
$GPRMC,061131.80,A,3124.97791580,N,12112.83996441,E,0.06,289.43,111017,5.9,W,D,S*5D
$GPHDT,82.162,T*0A
$GPGGA,061131.85,3124.97791626,N,12112.83996311,E,4,17,0.8,6.218,M,9.070,M,0.9,2937*7D
$GPRMC,061131.85,A,3124.97791626,N,12112.83996311,E,0.05,270.83,111017,5.9,W,D,S*5C
$GPHDT,82.142,T*08
$GPGGA,061131.90,3124.97791645,N,12112.83996282,E,4,17,0.8,6.219,M,9.070,M,0.9,2937*76
$GPRMC,061131.90,A,3124.97791645,N,12112.83996282,E,0.02,111.97,111017,5.9,W,D,S*50
$GPHDT,82.177,T*0E
$GPGGA,061131.95,3124.97791631,N,12112.83996280,E,4,17,0.8,6.220,M,9.070,M,0.9,2937*78
$GPRMC,061131.95,A,3124.97791631,N,12112.83996280,E,0.01,160.52,111017,5.9,W,D,S*58
$GPHDT,82.146,T*0C
$GPGGA,061132.00,3124.97791640,N,12112.83996181,E,4,17,0.8,6.222,M,9.070,M,1.0,2937*79
$GPRMC,061132.00,A,3124.97791640,N,12112.83996181,E,0.09,260.38,111017,5.9,W,D,S*54
$GPHDT,82.166,T*0E
$GPGGA,061132.05,3124.97791648,N,12112.83996140,E,4,17,0.8,6.222,M,9.070,M,1.0,2937*79
$GPRMC,061132.05,A,3124.97791648,N,12112.83996140,E,0.05,86.75,111017,5.9,W,D,S*6B
$GPHDT,82.165,T*0D
$GPGGA,061132.10,3124.97791653,N,12112.83996160,E,4,17,0.8,6.223,M,9.070,M,1.1,2937*75
$GPRMC,061132.10,A,3124.97791653,N,12112.83996160,E,0.02,145.50,111017,5.9,W,D,S*59
$GPHDT,82.159,T*02
$GPGGA,061132.15,3124.97791657,N,12112.83996138,E,4,17,0.8,6.224,M,9.070,M,1.1,2937*7E
$GPRMC,061132.15,A,3124.97791657,N,12112.83996138,E,0.01,34.72,111017,5.9,W,D,S*61
$GPHDT,82.136,T*0B
$GPGGA,061132.20,3124.97791701,N,12112.83996087,E,4,17,0.8,6.225,M,9.070,M,1.2,2937*7D
$GPRMC,061132.20,A,3124.97791701,N,12112.83996087,E,0.04,311.54,111017,5.9,W,D,S*55
$GPHDT,82.140,T*0A
$GPGGA,061132.25,3124.97791725,N,12112.83996124,E,4,17,0.8,6.225,M,9.070,M,1.2,2937*76
$GPRMC,061132.25,A,3124.97791725,N,12112.83996124,E,0.07,101.76,111017,5.9,W,D,S*5E
$GPHDT,82.168,T*00
$GPGGA,061132.30,3124.97791741,N,12112.83996119,E,4,17,0.8,6.226,M,9.070,M,0.3,2937*7D
$GPRMC,061132.30,A,3124.97791741,N,12112.83996119,E,0.05,280.14,111017,5.9,W,D,S*5A
$GPHDT,82.151,T*0A
$GPGGA,061132.35,3124.97791748,N,12112.83996096,E,4,17,0.8,6.228,M,9.070,M,0.3,2937*79
$GPRMC,061132.35,A,3124.97791748,N,12112.83996096,E,0.02,121.18,111017,5.9,W,D,S*53
$GPHDT,82.167,T*0F
$GPGGA,061132.40,3124.97791765,N,12112.83996112,E,4,17,0.8,6.230,M,9.070,M,0.4,2937*77
$GPRMC,061132.40,A,3124.97791765,N,12112.83996112,E,0.01,49.81,111017,5.9,W,D,S*6F
$GPHDT,82.208,T*05
$GPGGA,061132.45,3124.97791832,N,12112.83996069,E,4,17,0.8,6.233,M,9.070,M,0.4,2937*71
$GPRMC,061132.45,A,3124.97791832,N,12112.83996069,E,0.07,321.28,111017,5.9,W,D,S*52
$GPHDT,82.134,T*09
$GPGGA,061132.50,3124.97791840,N,12112.83996126,E,4,17,0.8,6.231,M,9.070,M,0.5,2937*79
$GPRMC,061132.50,A,3124.97791840,N,12112.83996126,E,0.09,126.12,111017,5.9,W,D,S*5B
$GPHDT,82.149,T*03
$GPGGA,061132.55,3124.97791832,N,12112.83996144,E,4,17,0.8,6.233,M,9.070,M,0.5,2937*7F
$GPRMC,061132.55,A,3124.97791832,N,12112.83996144,E,0.03,282.08,111017,5.9,W,D,S*53
$GPHDT,82.166,T*0E
$GPGGA,061132.60,3124.97791881,N,12112.83996086,E,4,17,0.8,6.234,M,9.070,M,0.6,2937*7A
$GPRMC,061132.60,A,3124.97791881,N,12112.83996086,E,0.03,306.15,111017,5.9,W,D,S*53
$GPHDT,82.137,T*0A
$GPGGA,061132.65,3124.97791919,N,12112.83996069,E,4,17,0.8,6.236,M,9.070,M,0.6,2937*7C
$GPRMC,061132.65,A,3124.97791919,N,12112.83996069,E,0.01,94.95,111017,5.9,W,D,S*65
$GPHDT,82.153,T*08
$GPGGA,061132.70,3124.97791914,N,12112.83996102,E,4,17,0.8,6.235,M,9.070,M,0.7,2937*7B
$GPRMC,061132.70,A,3124.97791914,N,12112.83996102,E,0.03,138.07,111017,5.9,W,D,S*5E
$GPHDT,82.148,T*02
$GPGGA,061132.75,3124.97791927,N,12112.83996108,E,4,17,0.8,6.236,M,9.070,M,0.7,2937*77
$GPRMC,061132.75,A,3124.97791927,N,12112.83996108,E,0.02,29.21,111017,5.9,W,D,S*65
$GPHDT,82.160,T*08
$GPGGA,061132.80,3124.97791950,N,12112.83996114,E,4,17,0.8,6.237,M,9.070,M,0.8,2937*7E
$GPRMC,061132.80,A,3124.97791950,N,12112.83996114,E,0.01,106.79,111017,5.9,W,D,S*50
$GPHDT,82.105,T*0B
$GPGGA,061132.85,3124.97791952,N,12112.83996080,E,4,17,0.8,6.237,M,9.070,M,0.8,2937*75
$GPRMC,061132.85,A,3124.97791952,N,12112.83996080,E,0.05,252.31,111017,5.9,W,D,S*51
$GPHDT,82.195,T*02
$GPGGA,061132.90,3124.97791956,N,12112.83996090,E,4,17,0.8,6.237,M,9.070,M,0.9,2937*75
$GPRMC,061132.90,A,3124.97791956,N,12112.83996090,E,0.05,91.60,111017,5.9,W,D,S*69
$GPHDT,82.130,T*0D
$GPGGA,061132.95,3124.97791967,N,12112.83996093,E,4,17,0.8,6.239,M,9.070,M,0.9,2937*7F
$GPRMC,061132.95,A,3124.97791967,N,12112.83996093,E,0.01,286.49,111017,5.9,W,D,S*56
$GPHDT,82.182,T*04
$GPGGA,061133.00,3124.97791939,N,12112.83996162,E,4,17,0.8,6.237,M,9.070,M,1.0,2937*70
$GPRMC,061133.00,A,3124.97791939,N,12112.83996162,E,0.08,107.63,111017,5.9,W,D,S*54
$GPHDT,82.145,T*0F
$GPGGA,061133.05,3124.97791949,N,12112.83996197,E,4,17,0.8,6.238,M,9.070,M,1.0,2937*77
$GPRMC,061133.05,A,3124.97791949,N,12112.83996197,E,0.02,358.67,111017,5.9,W,D,S*5A
$GPHDT,82.107,T*09
$GPGGA,061133.10,3124.97791933,N,12112.83996178,E,4,17,0.8,6.237,M,9.070,M,1.1,2937*71
$GPRMC,061133.10,A,3124.97791933,N,12112.83996178,E,0.05,189.95,111017,5.9,W,D,S*56
$GPHDT,82.128,T*04
$GPGGA,061133.15,3124.97791954,N,12112.83996158,E,4,17,0.8,6.238,M,9.070,M,1.1,2937*78
$GPRMC,061133.15,A,3124.97791954,N,12112.83996158,E,0.06,5.98,111017,5.9,W,D,S*5B
$GPHDT,82.167,T*0F
$GPGGA,061133.20,3124.97792012,N,12112.83996142,E,4,17,0.8,6.238,M,9.070,M,1.2,2937*7E
$GPRMC,061133.20,A,3124.97792012,N,12112.83996142,E,0.02,293.31,111017,5.9,W,D,S*54
$GPHDT,82.197,T*00
$GPGGA,061133.25,3124.97792018,N,12112.83996132,E,4,17,0.8,6.237,M,9.070,M,1.2,2937*79
$GPRMC,061133.25,A,3124.97792018,N,12112.83996132,E,0.01,103.46,111017,5.9,W,D,S*55
$GPHDT,82.122,T*0E
$GPGGA,061133.30,3124.97792020,N,12112.83996108,E,4,17,0.8,6.237,M,9.070,M,0.3,2937*7F
$GPRMC,061133.30,A,3124.97792020,N,12112.83996108,E,0.01,295.85,111017,5.9,W,D,S*50
$GPHDT,82.187,T*01
$GPGGA,061133.35,3124.97792005,N,12112.83996081,E,4,17,0.8,6.238,M,9.070,M,0.4,2937*75
$GPRMC,061133.35,A,3124.97792005,N,12112.83996081,E,0.02,166.66,111017,5.9,W,D,S*53
$GPHDT,82.125,T*09
$GPGGA,061133.40,3124.97791971,N,12112.83996088,E,4,17,0.8,6.237,M,9.070,M,0.4,2937*78
$GPRMC,061133.40,A,3124.97791971,N,12112.83996088,E,0.02,158.88,111017,5.9,W,D,S*5C
$GPHDT,82.128,T*04
$GPGGA,061133.45,3124.97792103,N,12112.83995990,E,4,17,0.8,6.252,M,9.070,M,0.4,2937*73
$GPRMC,061133.45,A,3124.97792103,N,12112.83995990,E,0.03,301.95,111017,5.9,W,D,S*57
$GPHDT,82.176,T*0F
$GPGGA,061133.50,3124.97792207,N,12112.83995916,E,4,17,0.8,6.260,M,9.070,M,0.5,2937*7E
$GPRMC,061133.50,A,3124.97792207,N,12112.83995916,E,0.01,24.77,111017,5.9,W,D,S*60
$GPHDT,82.156,T*0D
$GPGGA,061133.55,3124.97792287,N,12112.83995858,E,4,17,0.8,6.270,M,9.070,M,0.5,2937*79
$GPRMC,061133.55,A,3124.97792287,N,12112.83995858,E,0.01,152.70,111017,5.9,W,D,S*51
$GPHDT,82.194,T*03
$GPGGA,061133.60,3124.97792358,N,12112.83995832,E,4,17,0.8,6.277,M,9.070,M,0.6,2937*74
$GPRMC,061133.60,A,3124.97792358,N,12112.83995832,E,0.02,85.46,111017,5.9,W,D,S*65
$GPHDT,82.117,T*08
$GPGGA,061133.65,3124.97792414,N,12112.83995731,E,4,17,0.8,6.285,M,9.070,M,0.6,2937*7F
$GPRMC,061133.65,A,3124.97792414,N,12112.83995731,E,0.06,277.71,111017,5.9,W,D,S*5C
$GPHDT,82.189,T*0F
$GPGGA,061133.70,3124.97792487,N,12112.83995656,E,4,17,0.8,6.291,M,9.070,M,0.7,2937*75
$GPRMC,061133.70,A,3124.97792487,N,12112.83995656,E,0.02,39.61,111017,5.9,W,D,S*6F
$GPHDT,82.121,T*0D
$GPGGA,061133.75,3124.97792536,N,12112.83995592,E,4,17,0.8,6.297,M,9.070,M,0.7,2937*76
$GPRMC,061133.75,A,3124.97792536,N,12112.83995592,E,0.04,239.39,111017,5.9,W,D,S*53
$GPHDT,82.185,T*03
$GPGGA,061133.80,3124.97792577,N,12112.83995501,E,4,17,0.8,6.303,M,9.070,M,0.8,2937*70
$GPRMC,061133.80,A,3124.97792577,N,12112.83995501,E,0.03,304.49,111017,5.9,W,D,S*59
$GPHDT,82.144,T*0E
$GPGGA,061133.85,3124.97792595,N,12112.83995490,E,4,17,0.8,6.308,M,9.070,M,0.8,2937*7B
$GPRMC,061133.85,A,3124.97792595,N,12112.83995490,E,0.05,128.70,111017,5.9,W,D,S*59
$GPHDT,82.224,T*0B
$GPGGA,061133.90,3124.97792648,N,12112.83995449,E,4,17,0.8,6.312,M,9.070,M,0.9,2937*72
$GPRMC,061133.90,A,3124.97792648,N,12112.83995449,E,0.07,310.60,111017,5.9,W,D,S*50
$GPHDT,82.126,T*0A
$GPGGA,061133.95,3124.97792707,N,12112.83995358,E,4,17,0.8,6.316,M,9.070,M,0.9,2937*7E
$GPRMC,061133.95,A,3124.97792707,N,12112.83995358,E,0.01,277.39,111017,5.9,W,D,S*52
$GPHDT,82.144,T*0E
$GPGGA,061134.00,3124.97792725,N,12112.83995341,E,4,17,0.8,6.319,M,9.070,M,1.0,2937*7A
$GPRMC,061134.00,A,3124.97792725,N,12112.83995341,E,0.03,73.87,111017,5.9,W,D,S*60
$GPHDT,82.175,T*0C
$GPGGA,061134.05,3124.97792760,N,12112.83995349,E,4,17,0.8,6.320,M,9.070,M,1.0,2937*7C
$GPRMC,061134.05,A,3124.97792760,N,12112.83995349,E,0.04,26.51,111017,5.9,W,D,S*60
$GPHDT,82.170,T*09
$GPGGA,061134.10,3124.97792807,N,12112.83995306,E,4,17,0.8,6.323,M,9.070,M,1.1,2937*7F
$GPRMC,061134.10,A,3124.97792807,N,12112.83995306,E,0.03,300.22,111017,5.9,W,D,S*55
$GPHDT,82.200,T*0D
$GPGGA,061134.15,3124.97792825,N,12112.83995264,E,4,17,0.8,6.325,M,9.070,M,1.1,2937*79
$GPRMC,061134.15,A,3124.97792825,N,12112.83995264,E,0.01,293.94,111017,5.9,W,D,S*51
$GPHDT,82.180,T*06
$GPGGA,061134.20,3124.97792816,N,12112.83995236,E,4,17,0.8,6.326,M,9.070,M,1.2,2937*78
$GPRMC,061134.20,A,3124.97792816,N,12112.83995236,E,0.03,242.03,111017,5.9,W,D,S*50
$GPHDT,82.175,T*0C
$GPGGA,061134.25,3124.97792790,N,12112.83995216,E,4,17,0.8,6.326,M,9.070,M,1.2,2937*7E
$GPRMC,061134.25,A,3124.97792790,N,12112.83995216,E,0.02,165.05,111017,5.9,W,D,S*57
$GPHDT,82.122,T*0E
$GPGGA,061134.30,3124.97792782,N,12112.83995222,E,4,17,0.8,6.329,M,9.070,M,0.3,2937*71
$GPRMC,061134.30,A,3124.97792782,N,12112.83995222,E,0.03,123.18,111017,5.9,W,D,S*58
$GPHDT,82.240,T*09
$GPGGA,061134.35,3124.97792803,N,12112.83995201,E,4,17,0.8,6.331,M,9.070,M,0.3,2937*7A
$GPRMC,061134.35,A,3124.97792803,N,12112.83995201,E,0.04,326.97,111017,5.9,W,D,S*5D
$GPHDT,82.098,T*0E
$GPGGA,061134.40,3124.97792826,N,12112.83995177,E,4,17,0.8,6.333,M,9.070,M,0.4,2937*78
$GPRMC,061134.40,A,3124.97792826,N,12112.83995177,E,0.03,170.70,111017,5.9,W,D,S*55
$GPHDT,82.177,T*0E
$GPGGA,061134.45,3124.97792829,N,12112.83995204,E,4,17,0.8,6.333,M,9.070,M,0.5,2937*74
$GPRMC,061134.45,A,3124.97792829,N,12112.83995204,E,0.03,95.09,111017,5.9,W,D,S*6C
$GPHDT,82.180,T*06
$GPGGA,061134.50,3124.97792861,N,12112.83995176,E,4,17,0.8,6.335,M,9.070,M,0.5,2937*7C
$GPRMC,061134.50,A,3124.97792861,N,12112.83995176,E,0.04,305.44,111017,5.9,W,D,S*56
$GPHDT,82.151,T*0A
$GPGGA,061134.55,3124.97792876,N,12112.83995116,E,4,17,0.8,6.337,M,9.070,M,0.5,2937*7B
$GPRMC,061134.55,A,3124.97792876,N,12112.83995116,E,0.02,239.17,111017,5.9,W,D,S*5D
$GPHDT,82.156,T*0D
$GPGGA,061134.60,3124.97792891,N,12112.83995076,E,4,17,0.8,6.340,M,9.070,M,0.6,2937*70
$GPRMC,061134.60,A,3124.97792891,N,12112.83995076,E,0.01,9.93,111017,5.9,W,D,S*5B
$GPHDT,82.163,T*0B
$GPGGA,061134.65,3124.97792925,N,12112.83995069,E,4,17,0.8,6.340,M,9.070,M,0.6,2937*75
$GPRMC,061134.65,A,3124.97792925,N,12112.83995069,E,0.03,311.27,111017,5.9,W,D,S*59
$GPHDT,82.212,T*0E
$GPGGA,061134.70,3124.97792938,N,12112.83995029,E,4,17,0.8,6.342,M,9.070,M,0.7,2937*7A
$GPRMC,061134.70,A,3124.97792938,N,12112.83995029,E,0.02,173.64,111017,5.9,W,D,S*55
$GPHDT,82.205,T*08
$GPGGA,061134.75,3124.97792937,N,12112.83995003,E,4,17,0.8,6.343,M,9.070,M,0.7,2937*79
$GPRMC,061134.75,A,3124.97792937,N,12112.83995003,E,0.03,265.54,111017,5.9,W,D,S*51
$GPHDT,82.134,T*09
$GPGGA,061134.80,3124.97792914,N,12112.83995036,E,4,17,0.8,6.342,M,9.070,M,0.8,2937*7A
$GPRMC,061134.80,A,3124.97792914,N,12112.83995036,E,0.06,115.06,111017,5.9,W,D,S*5A
$GPHDT,82.212,T*0E
$GPGGA,061134.85,3124.97792947,N,12112.83995060,E,4,17,0.8,6.342,M,9.070,M,0.8,2937*7A
$GPRMC,061134.85,A,3124.97792947,N,12112.83995060,E,0.05,344.04,111017,5.9,W,D,S*5D
$GPHDT,82.148,T*02
$GPGGA,061134.90,3124.97792978,N,12112.83995018,E,4,17,0.8,6.345,M,9.070,M,0.9,2937*7B
$GPRMC,061134.90,A,3124.97792978,N,12112.83995018,E,0.02,197.95,111017,5.9,W,D,S*59
$GPHDT,82.206,T*0B
$GPGGA,061134.95,3124.97792984,N,12112.83995017,E,4,17,0.8,6.346,M,9.070,M,0.9,2937*71
$GPRMC,061134.95,A,3124.97792984,N,12112.83995017,E,0.02,24.54,111017,5.9,W,D,S*64
$GPHDT,82.161,T*09
$GPGGA,061135.00,3124.97793001,N,12112.83994958,E,4,17,0.8,6.348,M,9.070,M,1.0,2937*7C
$GPRMC,061135.00,A,3124.97793001,N,12112.83994958,E,0.07,273.49,111017,5.9,W,D,S*56
$GPHDT,82.194,T*03
$GPGGA,061135.05,3124.97792977,N,12112.83994926,E,4,17,0.8,6.348,M,9.070,M,1.0,2937*79
$GPRMC,061135.05,A,3124.97792977,N,12112.83994926,E,0.03,112.37,111017,5.9,W,D,S*5A
$GPHDT,82.208,T*05
$GPGGA,061135.10,3124.97792929,N,12112.83995007,E,4,17,0.8,6.345,M,9.070,M,1.1,2937*71
$GPRMC,061135.10,A,3124.97792929,N,12112.83995007,E,0.04,139.12,111017,5.9,W,D,S*57
$GPHDT,82.212,T*0E
$GPGGA,061135.15,3124.97792981,N,12112.83995011,E,4,17,0.8,6.345,M,9.070,M,1.1,2937*71
$GPRMC,061135.15,A,3124.97792981,N,12112.83995011,E,0.09,354.00,111017,5.9,W,D,S*50
$GPHDT,82.197,T*00
$GPGGA,061135.20,3124.97793009,N,12112.83994987,E,4,17,0.8,6.346,M,9.070,M,1.2,2937*78
$GPRMC,061135.20,A,3124.97793009,N,12112.83994987,E,0.04,181.83,111017,5.9,W,D,S*55
$GPHDT,82.193,T*04
$GPGGA,061135.25,3124.97792994,N,12112.83995002,E,4,17,0.8,6.345,M,9.070,M,1.2,2937*77
$GPRMC,061135.25,A,3124.97792994,N,12112.83995002,E,0.03,4.73,111017,5.9,W,D,S*5D
$GPHDT,82.181,T*07
$GPGGA,061135.30,3124.97792989,N,12112.83995036,E,4,17,0.8,6.344,M,9.070,M,0.3,2937*79
$GPRMC,061135.30,A,3124.97792989,N,12112.83995036,E,0.02,186.73,111017,5.9,W,D,S*58
$GPHDT,82.215,T*09
$GPGGA,061135.35,3124.97793007,N,12112.83995020,E,4,17,0.8,6.344,M,9.070,M,0.3,2937*75
$GPRMC,061135.35,A,3124.97793007,N,12112.83995020,E,0.04,317.12,111017,5.9,W,D,S*5F
$GPHDT,82.222,T*0D
$GPGGA,061135.40,3124.97792995,N,12112.83995042,E,4,17,0.8,6.343,M,9.070,M,0.4,2937*70
$GPRMC,061135.40,A,3124.97792995,N,12112.83995042,E,0.03,143.35,111017,5.9,W,D,S*5B
$GPHDT,82.144,T*0E
$GPGGA,061135.45,3124.97792962,N,12112.83995093,E,4,17,0.8,6.343,M,9.070,M,0.4,2937*71
$GPRMC,061135.45,A,3124.97792962,N,12112.83995093,E,0.04,118.62,111017,5.9,W,D,S*51
$GPHDT,82.173,T*0A
$GPGGA,061135.50,3124.97792936,N,12112.83995122,E,4,17,0.8,6.341,M,9.070,M,0.5,2937*7C
$GPRMC,061135.50,A,3124.97792936,N,12112.83995122,E,0.04,249.42,111017,5.9,W,D,S*5A
$GPHDT,82.176,T*0F
$GPGGA,061135.55,3124.97792944,N,12112.83995132,E,4,17,0.8,6.339,M,9.070,M,0.6,2937*71
$GPRMC,061135.55,A,3124.97792944,N,12112.83995132,E,0.04,34.26,111017,5.9,W,D,S*61
$GPHDT,82.153,T*08
$GPGGA,061135.60,3124.97792968,N,12112.83995095,E,4,17,0.8,6.341,M,9.070,M,0.6,2937*7A
$GPRMC,061135.60,A,3124.97792968,N,12112.83995095,E,0.06,269.55,111017,5.9,W,D,S*59
$GPHDT,82.201,T*0C
$GPGGA,061135.65,3124.97792980,N,12112.83995114,E,4,17,0.8,6.339,M,9.070,M,0.6,2937*7E
$GPRMC,061135.65,A,3124.97792980,N,12112.83995114,E,0.05,67.65,111017,5.9,W,D,S*6E
$GPHDT,82.186,T*00
$GPGGA,061135.70,3124.97793000,N,12112.83995153,E,4,17,0.8,6.338,M,9.070,M,0.7,2937*79
$GPRMC,061135.70,A,3124.97793000,N,12112.83995153,E,0.02,290.80,111017,5.9,W,D,S*5F
$GPHDT,82.174,T*0D
$GPGGA,061135.75,3124.97792990,N,12112.83995137,E,4,17,0.8,6.340,M,9.070,M,0.7,2937*70
$GPRMC,061135.75,A,3124.97792990,N,12112.83995137,E,0.03,139.65,111017,5.9,W,D,S*53
$GPHDT,82.181,T*07
$GPGGA,061135.80,3124.97792948,N,12112.83995193,E,4,17,0.8,6.337,M,9.070,M,0.8,2937*7E
$GPRMC,061135.80,A,3124.97792948,N,12112.83995193,E,0.03,161.58,111017,5.9,W,D,S*51
$GPHDT,82.179,T*00
$GPGGA,061135.85,3124.97792944,N,12112.83995117,E,4,17,0.8,6.340,M,9.070,M,0.8,2937*7B
$GPRMC,061135.85,A,3124.97792944,N,12112.83995117,E,0.07,290.85,111017,5.9,W,D,S*5D
$GPHDT,82.194,T*03
$GPGGA,061135.90,3124.97792920,N,12112.83995166,E,4,17,0.8,6.337,M,9.070,M,0.9,2937*7A
$GPRMC,061135.90,A,3124.97792920,N,12112.83995166,E,0.09,104.84,111017,5.9,W,D,S*5C
$GPHDT,82.167,T*0F
$GPGGA,061135.95,3124.97792931,N,12112.83995186,E,4,17,0.8,6.339,M,9.070,M,0.9,2937*7F
$GPRMC,061135.95,A,3124.97792931,N,12112.83995186,E,0.07,299.78,111017,5.9,W,D,S*5D
$GPHDT,82.129,T*05
$GPGGA,061136.00,3124.97792926,N,12112.83995179,E,4,17,0.8,6.337,M,9.070,M,1.0,2937*70
$GPRMC,061136.00,A,3124.97792926,N,12112.83995179,E,0.02,145.61,111017,5.9,W,D,S*5B
$GPHDT,82.192,T*05
$GPGGA,061136.05,3124.97792896,N,12112.83995179,E,4,17,0.8,6.338,M,9.070,M,1.0,2937*70
$GPRMC,061136.05,A,3124.97792896,N,12112.83995179,E,0.03,181.09,111017,5.9,W,D,S*53
$GPHDT,82.191,T*06
$GPGGA,061136.10,3124.97792895,N,12112.83995191,E,4,17,0.8,6.338,M,9.070,M,1.1,2937*70
$GPRMC,061136.10,A,3124.97792895,N,12112.83995191,E,0.04,14.62,111017,5.9,W,D,S*65
$GPHDT,82.195,T*02
$GPGGA,061136.15,3124.97792901,N,12112.83995218,E,4,17,0.8,6.337,M,9.070,M,1.1,2937*74
$GPRMC,061136.15,A,3124.97792901,N,12112.83995218,E,0.01,142.84,111017,5.9,W,D,S*51
$GPHDT,82.151,T*0A
$GPGGA,061136.20,3124.97792855,N,12112.83995261,E,4,17,0.8,6.336,M,9.070,M,1.2,2937*7E
$GPRMC,061136.20,A,3124.97792855,N,12112.83995261,E,0.05,126.82,111017,5.9,W,D,S*59
$GPHDT,82.159,T*02
$GPGGA,061136.25,3124.97792859,N,12112.83995318,E,4,17,0.8,6.333,M,9.070,M,1.2,2937*7D
$GPRMC,061136.25,A,3124.97792859,N,12112.83995318,E,0.04,3.96,111017,5.9,W,D,S*5D
$GPHDT,82.168,T*00
$GPGGA,061136.30,3124.97792872,N,12112.83995253,E,4,17,0.8,6.334,M,9.070,M,0.3,2937*79
$GPRMC,061136.30,A,3124.97792872,N,12112.83995253,E,0.05,190.02,111017,5.9,W,D,S*59
$GPHDT,82.185,T*03
$GPGGA,061136.35,3124.97792856,N,12112.83995230,E,4,17,0.8,6.334,M,9.070,M,0.3,2937*7F
$GPRMC,061136.35,A,3124.97792856,N,12112.83995230,E,0.02,347.99,111017,5.9,W,D,S*52
$GPHDT,82.163,T*0B
$GPGGA,061136.40,3124.97792879,N,12112.83995209,E,4,17,0.8,6.330,M,9.070,M,0.4,2937*79
$GPRMC,061136.40,A,3124.97792879,N,12112.83995209,E,0.03,291.97,111017,5.9,W,D,S*52
$GPHDT,82.137,T*0A
$GPGGA,061136.45,3124.97792886,N,12112.83995206,E,4,17,0.8,6.328,M,9.070,M,0.4,2937*7A
$GPRMC,061136.45,A,3124.97792886,N,12112.83995206,E,0.04,79.45,111017,5.9,W,D,S*64
$GPHDT,82.175,T*0C
$GPGGA,061136.50,3124.97792894,N,12112.83995202,E,4,17,0.8,6.329,M,9.070,M,0.5,2937*79
$GPRMC,061136.50,A,3124.97792894,N,12112.83995202,E,0.00,294.50,111017,5.9,W,D,S*56
$GPHDT,82.186,T*00
$GPGGA,061136.55,3124.97792874,N,12112.83995196,E,4,17,0.8,6.329,M,9.070,M,0.5,2937*7C
$GPRMC,061136.55,A,3124.97792874,N,12112.83995196,E,0.03,159.28,111017,5.9,W,D,S*5D
$GPHDT,82.185,T*03
$GPGGA,061136.60,3124.97792858,N,12112.83995187,E,4,17,0.8,6.329,M,9.070,M,0.6,2937*77
$GPRMC,061136.60,A,3124.97792858,N,12112.83995187,E,0.01,9.83,111017,5.9,W,D,S*52
$GPHDT,82.207,T*0A
$GPGGA,061136.65,3124.97792838,N,12112.83995159,E,4,17,0.8,6.330,M,9.070,M,0.6,2937*7F
$GPRMC,061136.65,A,3124.97792838,N,12112.83995159,E,0.02,165.89,111017,5.9,W,D,S*50
$GPHDT,82.122,T*0E
$GPGGA,061136.70,3124.97792826,N,12112.83995197,E,4,17,0.8,6.328,M,9.070,M,0.7,2937*7E
$GPRMC,061136.70,A,3124.97792826,N,12112.83995197,E,0.03,73.09,111017,5.9,W,D,S*66
$GPHDT,82.156,T*0D
$GPGGA,061136.75,3124.97792829,N,12112.83995173,E,4,17,0.8,6.328,M,9.070,M,0.7,2937*7E
$GPRMC,061136.75,A,3124.97792829,N,12112.83995173,E,0.02,285.14,111017,5.9,W,D,S*50
$GPHDT,82.164,T*0C
$GPGGA,061136.80,3124.97792792,N,12112.83995172,E,4,17,0.8,6.327,M,9.070,M,0.8,2937*7A
$GPRMC,061136.80,A,3124.97792792,N,12112.83995172,E,0.05,157.01,111017,5.9,W,D,S*5B
$GPHDT,82.210,T*0C
$GPGGA,061136.85,3124.97792750,N,12112.83995151,E,4,17,0.8,6.328,M,9.070,M,0.8,2937*7F
$GPRMC,061136.85,A,3124.97792750,N,12112.83995151,E,0.02,214.68,111017,5.9,W,D,S*5D
$GPHDT,82.158,T*03
$GPGGA,061136.90,3124.97792740,N,12112.83995157,E,4,17,0.8,6.326,M,9.070,M,0.9,2937*73
$GPRMC,061136.90,A,3124.97792740,N,12112.83995157,E,0.01,1.37,111017,5.9,W,D,S*51
$GPHDT,82.149,T*03
$GPGGA,061136.95,3124.97792762,N,12112.83995127,E,4,17,0.8,6.326,M,9.070,M,0.9,2937*71
$GPRMC,061136.95,A,3124.97792762,N,12112.83995127,E,0.04,327.21,111017,5.9,W,D,S*56
$GPHDT,82.188,T*0E
$GPGGA,061137.00,3124.97792767,N,12112.83995096,E,4,17,0.8,6.325,M,9.070,M,1.0,2937*79
$GPRMC,061137.00,A,3124.97792767,N,12112.83995096,E,0.04,245.27,111017,5.9,W,D,S*56
$GPHDT,82.196,T*01
$GPGGA,061137.05,3124.97792731,N,12112.83995074,E,4,17,0.8,6.324,M,9.070,M,1.1,2937*73
$GPRMC,061137.05,A,3124.97792731,N,12112.83995074,E,0.02,169.79,111017,5.9,W,D,S*5C
$GPHDT,82.170,T*09
$GPGGA,061137.10,3124.97792708,N,12112.83995041,E,4,17,0.8,6.325,M,9.070,M,1.1,2937*7A
$GPRMC,061137.10,A,3124.97792708,N,12112.83995041,E,0.05,270.44,111017,5.9,W,D,S*56
$GPHDT,82.140,T*0A
$GPGGA,061137.15,3124.97792694,N,12112.83995030,E,4,17,0.8,6.326,M,9.070,M,1.1,2937*7E
$GPRMC,061137.15,A,3124.97792694,N,12112.83995030,E,0.03,118.18,111017,5.9,W,D,S*53
$GPHDT,82.166,T*0E
$GPGGA,061137.20,3124.97792662,N,12112.83995080,E,4,17,0.8,6.323,M,9.070,M,1.2,2937*7C
$GPRMC,061137.20,A,3124.97792662,N,12112.83995080,E,0.01,228.93,111017,5.9,W,D,S*56
$GPHDT,82.196,T*01
$GPGGA,061137.25,3124.97792666,N,12112.83995123,E,4,17,0.8,6.320,M,9.070,M,1.2,2937*76
$GPRMC,061137.25,A,3124.97792666,N,12112.83995123,E,0.04,65.69,111017,5.9,W,D,S*64
$GPHDT,82.160,T*08
$GPGGA,061137.30,3124.97792714,N,12112.83995135,E,4,17,0.8,6.322,M,9.070,M,0.3,2937*73
$GPRMC,061137.30,A,3124.97792714,N,12112.83995135,E,0.03,302.02,111017,5.9,W,D,S*5B
$GPHDT,82.219,T*05
$GPGGA,061137.35,3124.97792712,N,12112.83995134,E,4,17,0.8,6.322,M,9.070,M,0.3,2937*71
$GPRMC,061137.35,A,3124.97792712,N,12112.83995134,E,0.01,199.84,111017,5.9,W,D,S*55
$GPHDT,82.207,T*0A
$GPGGA,061137.40,3124.97792704,N,12112.83995182,E,4,17,0.8,6.321,M,9.070,M,0.4,2937*7D
$GPRMC,061137.40,A,3124.97792704,N,12112.83995182,E,0.07,110.66,111017,5.9,W,D,S*56
$GPHDT,82.189,T*0F
$GPGGA,061137.45,3124.97792737,N,12112.83995189,E,4,17,0.8,6.322,M,9.070,M,0.4,2937*70
$GPRMC,061137.45,A,3124.97792737,N,12112.83995189,E,0.05,308.79,111017,5.9,W,D,S*5F
$GPHDT,82.212,T*0E
$GPGGA,061137.50,3124.97792744,N,12112.83995204,E,4,17,0.8,6.321,M,9.070,M,0.5,2937*74
$GPRMC,061137.50,A,3124.97792744,N,12112.83995204,E,0.05,132.36,111017,5.9,W,D,S*59
$GPHDT,82.170,T*09
$GPGGA,061137.55,3124.97792752,N,12112.83995240,E,4,17,0.8,6.322,M,9.070,M,0.5,2937*75
$GPRMC,061137.55,A,3124.97792752,N,12112.83995240,E,0.01,65.10,111017,5.9,W,D,S*68
$GPHDT,82.217,T*0B
$GPGGA,061137.60,3124.97792767,N,12112.83995231,E,4,17,0.8,6.322,M,9.070,M,0.6,2937*70
$GPRMC,061137.60,A,3124.97792767,N,12112.83995231,E,0.03,283.01,111017,5.9,W,D,S*56
$GPHDT,82.175,T*0C
$GPGGA,061137.65,3124.97792760,N,12112.83995190,E,4,17,0.8,6.323,M,9.070,M,0.6,2937*7B
$GPRMC,061137.65,A,3124.97792760,N,12112.83995190,E,0.04,194.95,111017,5.9,W,D,S*53
$GPHDT,82.187,T*01
$GPGGA,061137.70,3124.97792765,N,12112.83995201,E,4,17,0.8,6.323,M,9.070,M,0.7,2937*70
$GPRMC,061137.70,A,3124.97792765,N,12112.83995201,E,0.03,31.96,111017,5.9,W,D,S*63
$GPHDT,82.188,T*0E
$GPGGA,061137.75,3124.97792836,N,12112.83995193,E,4,17,0.8,6.323,M,9.070,M,0.7,2937*74
$GPRMC,061137.75,A,3124.97792836,N,12112.83995193,E,0.04,317.92,111017,5.9,W,D,S*53
$GPHDT,82.230,T*0E
$GPGGA,061137.80,3124.97792832,N,12112.83995167,E,4,17,0.8,6.324,M,9.070,M,0.8,2937*79
$GPRMC,061137.80,A,3124.97792832,N,12112.83995167,E,0.04,175.67,111017,5.9,W,D,S*5A
$GPHDT,82.259,T*01
$GPGGA,061137.85,3124.97792823,N,12112.83995162,E,4,17,0.8,6.323,M,9.070,M,0.8,2937*7E
$GPRMC,061137.85,A,3124.97792823,N,12112.83995162,E,0.02,336.92,111017,5.9,W,D,S*53
$GPHDT,82.258,T*00
$GPGGA,061137.90,3124.97792864,N,12112.83995139,E,4,17,0.8,6.323,M,9.070,M,0.9,2937*76
$GPRMC,061137.90,A,3124.97792864,N,12112.83995139,E,0.05,298.94,111017,5.9,W,D,S*5E
$GPHDT,82.276,T*0C
$GPGGA,061137.95,3124.97792889,N,12112.83995138,E,4,17,0.8,6.322,M,9.070,M,0.9,2937*70
$GPRMC,061137.95,A,3124.97792889,N,12112.83995138,E,0.03,85.09,111017,5.9,W,D,S*65
$GPHDT,82.193,T*04
$GPGGA,061138.00,3124.97792913,N,12112.83995168,E,4,17,0.8,6.319,M,9.070,M,1.0,2937*74
$GPRMC,061138.00,A,3124.97792913,N,12112.83995168,E,0.03,321.08,111017,5.9,W,D,S*5D
$GPHDT,82.240,T*09
$GPGGA,061138.05,3124.97792913,N,12112.83995180,E,4,17,0.8,6.320,M,9.070,M,1.0,2937*7D
$GPRMC,061138.05,A,3124.97792913,N,12112.83995180,E,0.06,123.72,111017,5.9,W,D,S*56
$GPHDT,82.187,T*01
$GPGGA,061138.10,3124.97792884,N,12112.83995243,E,4,17,0.8,6.319,M,9.070,M,1.1,2937*71
$GPRMC,061138.10,A,3124.97792884,N,12112.83995243,E,0.04,128.58,111017,5.9,W,D,S*50
$GPHDT,82.292,T*06
$GPGGA,061138.15,3124.97792900,N,12112.83995204,E,4,17,0.8,6.320,M,9.070,M,1.2,2937*73
$GPRMC,061138.15,A,3124.97792900,N,12112.83995204,E,0.06,289.66,111017,5.9,W,D,S*5C
$GPHDT,82.193,T*04
$GPGGA,061138.20,3124.97792921,N,12112.83995167,E,4,17,0.8,6.320,M,9.070,M,1.2,2937*70
$GPRMC,061138.20,A,3124.97792921,N,12112.83995167,E,0.02,77.74,111017,5.9,W,D,S*6B
$GPHDT,82.173,T*0A
$GPGGA,061138.25,3124.97792915,N,12112.83995218,E,4,17,0.8,6.319,M,9.070,M,1.2,2937*73
$GPRMC,061138.25,A,3124.97792915,N,12112.83995218,E,0.02,122.49,111017,5.9,W,D,S*5D
$GPHDT,82.268,T*03
$GPGGA,061138.30,3124.97792915,N,12112.83995209,E,4,17,0.8,6.319,M,9.070,M,0.3,2937*77
$GPRMC,061138.30,A,3124.97792915,N,12112.83995209,E,0.01,6.29,111017,5.9,W,D,S*5B
$GPHDT,82.170,T*09
$GPGGA,061138.35,3124.97792931,N,12112.83995130,E,4,17,0.8,6.322,M,9.070,M,0.3,2937*75
$GPRMC,061138.35,A,3124.97792931,N,12112.83995130,E,0.03,277.95,111017,5.9,W,D,S*50
$GPHDT,82.204,T*09
$GPGGA,061138.40,3124.97792935,N,12112.83995075,E,4,17,0.8,6.322,M,9.070,M,0.4,2937*74
$GPRMC,061138.40,A,3124.97792935,N,12112.83995075,E,0.04,287.70,111017,5.9,W,D,S*55
$GPHDT,82.257,T*0F
$GPGGA,061138.45,3124.97792935,N,12112.83995094,E,4,17,0.8,6.321,M,9.070,M,0.4,2937*7D
$GPRMC,061138.45,A,3124.97792935,N,12112.83995094,E,0.05,97.44,111017,5.9,W,D,S*6A
$GPHDT,82.190,T*07
$GPGGA,061138.50,3124.97792917,N,12112.83995095,E,4,17,0.8,6.322,M,9.070,M,0.5,2937*7A
$GPRMC,061138.50,A,3124.97792917,N,12112.83995095,E,0.03,208.18,111017,5.9,W,D,S*54
$GPHDT,82.239,T*07
$GPGGA,061138.55,3124.97792888,N,12112.83995097,E,4,17,0.8,6.322,M,9.070,M,0.5,2937*7A
$GPRMC,061138.55,A,3124.97792888,N,12112.83995097,E,0.03,145.04,111017,5.9,W,D,S*53
$GPHDT,82.210,T*0C
$GPGGA,061138.60,3124.97792895,N,12112.83995124,E,4,17,0.8,6.322,M,9.070,M,0.6,2937*7A
$GPRMC,061138.60,A,3124.97792895,N,12112.83995124,E,0.04,60.42,111017,5.9,W,D,S*63
$GPHDT,82.226,T*09
$GPGGA,061138.65,3124.97792892,N,12112.83995114,E,4,17,0.8,6.323,M,9.070,M,0.6,2937*7A
$GPRMC,061138.65,A,3124.97792892,N,12112.83995114,E,0.03,190.16,111017,5.9,W,D,S*5A
$GPHDT,82.242,T*0B
$GPGGA,061138.70,3124.97792902,N,12112.83995092,E,4,17,0.8,6.323,M,9.070,M,0.7,2937*78
$GPRMC,061138.70,A,3124.97792902,N,12112.83995092,E,0.04,305.61,111017,5.9,W,D,S*50
$GPHDT,82.189,T*0F
$GPGGA,061138.75,3124.97792920,N,12112.83995083,E,4,17,0.8,6.323,M,9.070,M,0.7,2937*7D
$GPRMC,061138.75,A,3124.97792920,N,12112.83995083,E,0.03,85.73,111017,5.9,W,D,S*6A
$GPHDT,82.231,T*0F
$GPGGA,061138.80,3124.97792932,N,12112.83995070,E,4,17,0.8,6.326,M,9.070,M,0.8,2937*72
$GPRMC,061138.80,A,3124.97792932,N,12112.83995070,E,0.01,269.29,111017,5.9,W,D,S*52
$GPHDT,82.212,T*0E
$GPGGA,061138.85,3124.97792936,N,12112.83995076,E,4,17,0.8,6.324,M,9.070,M,0.8,2937*77
$GPRMC,061138.85,A,3124.97792936,N,12112.83995076,E,0.02,10.80,111017,5.9,W,D,S*69
$GPHDT,82.253,T*0B
$GPGGA,061138.90,3124.97792930,N,12112.83995055,E,4,17,0.8,6.325,M,9.070,M,0.9,2937*74
$GPRMC,061138.90,A,3124.97792930,N,12112.83995055,E,0.02,226.92,111017,5.9,W,D,S*5E
$GPHDT,82.228,T*07
$GPGGA,061138.95,3124.97792916,N,12112.83995016,E,4,17,0.8,6.324,M,9.070,M,0.9,2937*73
$GPRMC,061138.95,A,3124.97792916,N,12112.83995016,E,0.03,261.24,111017,5.9,W,D,S*57
$GPHDT,82.231,T*0F
$GPGGA,061139.00,3124.97792907,N,12112.83995021,E,4,17,0.8,6.326,M,9.070,M,1.0,2937*70
$GPRMC,061139.00,A,3124.97792907,N,12112.83995021,E,0.04,109.70,111017,5.9,W,D,S*55
$GPHDT,82.232,T*0C
$GPGGA,061139.05,3124.97792908,N,12112.83995060,E,4,17,0.8,6.324,M,9.070,M,1.0,2937*7D
$GPRMC,061139.05,A,3124.97792908,N,12112.83995060,E,0.03,358.47,111017,5.9,W,D,S*5F
$GPHDT,82.224,T*0B
$GPGGA,061139.10,3124.97792924,N,12112.83995066,E,4,17,0.8,6.322,M,9.070,M,1.1,2937*76
$GPRMC,061139.10,A,3124.97792924,N,12112.83995066,E,0.01,18.52,111017,5.9,W,D,S*62
$GPHDT,82.250,T*08
$GPGGA,061139.15,3124.97792911,N,12112.83995092,E,4,17,0.8,6.324,M,9.070,M,1.1,2937*78
$GPRMC,061139.15,A,3124.97792911,N,12112.83995092,E,0.06,134.67,111017,5.9,W,D,S*54
$GPHDT,82.164,T*0C
$GPGGA,061139.20,3124.97792891,N,12112.83995055,E,4,17,0.8,6.327,M,9.070,M,0.2,2937*7D
$GPRMC,061139.20,A,3124.97792891,N,12112.83995055,E,0.08,280.28,111017,5.9,W,D,S*59
$GPHDT,82.276,T*0C
$GPGGA,061139.25,3124.97792885,N,12112.83995062,E,4,17,0.8,6.325,M,9.070,M,0.3,2937*7A
$GPRMC,061139.25,A,3124.97792885,N,12112.83995062,E,0.05,105.15,111017,5.9,W,D,S*50
$GPHDT,82.179,T*00
$GPGGA,061139.30,3124.97792889,N,12112.83995064,E,4,17,0.8,6.328,M,9.070,M,0.3,2937*79
$GPRMC,061139.30,A,3124.97792889,N,12112.83995064,E,0.01,291.43,111017,5.9,W,D,S*57
$GPHDT,82.250,T*08
$GPGGA,061139.35,3124.97792880,N,12112.83995068,E,4,17,0.8,6.327,M,9.070,M,0.3,2937*76
$GPRMC,061139.35,A,3124.97792880,N,12112.83995068,E,0.01,116.37,111017,5.9,W,D,S*58
$GPHDT,82.191,T*06
$GPGGA,061139.40,3124.97792866,N,12112.83995095,E,4,17,0.8,6.328,M,9.070,M,0.4,2937*76
$GPRMC,061139.40,A,3124.97792866,N,12112.83995095,E,0.03,142.55,111017,5.9,W,D,S*57
$GPHDT,82.226,T*09
$GPGGA,061139.45,3124.97792875,N,12112.83995091,E,4,17,0.8,6.331,M,9.070,M,0.4,2937*7D
$GPRMC,061139.45,A,3124.97792875,N,12112.83995091,E,0.03,14.69,111017,5.9,W,D,S*69
$GPHDT,82.258,T*00
$GPGGA,061139.50,3124.97792908,N,12112.83995057,E,4,17,0.8,6.332,M,9.070,M,0.5,2937*7A
$GPRMC,061139.50,A,3124.97792908,N,12112.83995057,E,0.05,286.37,111017,5.9,W,D,S*58
$GPHDT,82.190,T*07
$GPGGA,061139.55,3124.97792875,N,12112.83995017,E,4,17,0.8,6.333,M,9.070,M,0.5,2937*71
$GPRMC,061139.55,A,3124.97792875,N,12112.83995017,E,0.06,187.06,111017,5.9,W,D,S*51
$GPHDT,82.234,T*0A
$GPGGA,061139.60,3124.97792873,N,12112.83995033,E,4,17,0.8,6.333,M,9.070,M,0.6,2937*74
$GPRMC,061139.60,A,3124.97792873,N,12112.83995033,E,0.06,24.93,111017,5.9,W,D,S*63
$GPHDT,82.206,T*0B
$GPGGA,061139.65,3124.97792866,N,12112.83995094,E,4,17,0.8,6.332,M,9.070,M,0.6,2937*79
$GPRMC,061139.65,A,3124.97792866,N,12112.83995094,E,0.06,151.62,111017,5.9,W,D,S*52
$GPHDT,82.228,T*07
$GPGGA,061139.70,3124.97792839,N,12112.83995112,E,4,17,0.8,6.333,M,9.070,M,0.7,2937*78
$GPRMC,061139.70,A,3124.97792839,N,12112.83995112,E,0.02,347.68,111017,5.9,W,D,S*58
$GPHDT,82.210,T*0C
$GPGGA,061139.75,3124.97792867,N,12112.83995126,E,4,17,0.8,6.333,M,9.070,M,0.7,2937*71
$GPRMC,061139.75,A,3124.97792867,N,12112.83995126,E,0.02,359.64,111017,5.9,W,D,S*52
$GPHDT,82.241,T*08
$GPGGA,061139.80,3124.97792846,N,12112.83995108,E,4,17,0.8,6.334,M,9.070,M,0.8,2937*7C
$GPRMC,061139.80,A,3124.97792846,N,12112.83995108,E,0.04,184.48,111017,5.9,W,D,S*5D
$GPHDT,82.245,T*0C
$GPGGA,061139.85,3124.97792828,N,12112.83995144,E,4,17,0.8,6.334,M,9.070,M,0.8,2937*79
$GPRMC,061139.85,A,3124.97792828,N,12112.83995144,E,0.04,54.16,111017,5.9,W,D,S*6F
$GPHDT,82.283,T*06
$GPGGA,061139.90,3124.97792869,N,12112.83995173,E,4,17,0.8,6.333,M,9.070,M,0.9,2937*7A
$GPRMC,061139.90,A,3124.97792869,N,12112.83995173,E,0.03,342.97,111017,5.9,W,D,S*50
$GPHDT,82.252,T*0A
$GPGGA,061139.95,3124.97792861,N,12112.83995173,E,4,17,0.8,6.334,M,9.070,M,0.9,2937*70
$GPRMC,061139.95,A,3124.97792861,N,12112.83995173,E,0.04,142.79,111017,5.9,W,D,S*58
$GPHDT,82.253,T*0B
$GPGGA,061140.00,3124.97792848,N,12112.83995178,E,4,17,0.8,6.333,M,9.070,M,1.0,2937*7D
$GPRMC,061140.00,A,3124.97792848,N,12112.83995178,E,0.02,279.32,111017,5.9,W,D,S*58
$GPHDT,82.257,T*0F
$GPGGA,061140.05,3124.97792882,N,12112.83995138,E,4,17,0.8,6.334,M,9.070,M,1.0,2937*7D
$GPRMC,061140.05,A,3124.97792882,N,12112.83995138,E,0.03,330.65,111017,5.9,W,D,S*50
$GPHDT,82.246,T*0F
$GPGGA,061140.10,3124.97792887,N,12112.83995145,E,4,17,0.8,6.334,M,9.070,M,1.1,2937*77
$GPRMC,061140.10,A,3124.97792887,N,12112.83995145,E,0.03,145.68,111017,5.9,W,D,S*56
$GPHDT,82.249,T*00
$GPGGA,061140.15,3124.97792883,N,12112.83995125,E,4,17,0.8,6.336,M,9.070,M,1.1,2937*72
$GPRMC,061140.15,A,3124.97792883,N,12112.83995125,E,0.02,321.84,111017,5.9,W,D,S*52
$GPHDT,82.263,T*08
$GPGGA,061140.20,3124.97792904,N,12112.83995132,E,4,17,0.8,6.335,M,9.070,M,1.2,2937*7C
$GPRMC,061140.20,A,3124.97792904,N,12112.83995132,E,0.02,37.17,111017,5.9,W,D,S*62
$GPHDT,82.242,T*0B
$GPGGA,061140.25,3124.97792917,N,12112.83995087,E,4,17,0.8,6.335,M,9.070,M,1.2,2937*74
$GPRMC,061140.25,A,3124.97792917,N,12112.83995087,E,0.05,276.75,111017,5.9,W,D,S*5E
$GPHDT,82.282,T*07
$GPGGA,061140.30,3124.97792917,N,12112.83995114,E,4,17,0.8,6.334,M,9.070,M,0.3,2937*7A
$GPRMC,061140.30,A,3124.97792917,N,12112.83995114,E,0.07,93.85,111017,5.9,W,D,S*65
$GPHDT,82.257,T*0F
$GPGGA,061140.35,3124.97792917,N,12112.83995153,E,4,17,0.8,6.333,M,9.070,M,0.4,2937*7C
$GPRMC,061140.35,A,3124.97792917,N,12112.83995153,E,0.01,252.31,111017,5.9,W,D,S*55
$GPHDT,82.241,T*08
$GPGGA,061140.40,3124.97792935,N,12112.83995112,E,4,17,0.8,6.332,M,9.070,M,0.4,2937*7A
$GPRMC,061140.40,A,3124.97792935,N,12112.83995112,E,0.04,303.61,111017,5.9,W,D,S*57
$GPHDT,82.267,T*0C
$GPGGA,061140.45,3124.97792949,N,12112.83995095,E,4,17,0.8,6.330,M,9.070,M,0.4,2937*78
$GPRMC,061140.45,A,3124.97792949,N,12112.83995095,E,0.02,171.12,111017,5.9,W,D,S*52
$GPHDT,82.289,T*0C
$GPGGA,061140.50,3124.97792939,N,12112.83995100,E,4,17,0.8,6.328,M,9.070,M,0.5,2937*7E
$GPRMC,061140.50,A,3124.97792939,N,12112.83995100,E,0.02,91.85,111017,5.9,W,D,S*6D
$GPHDT,82.209,T*04
$GPGGA,061140.55,3124.97792949,N,12112.83995083,E,4,17,0.8,6.329,M,9.070,M,0.5,2937*77
$GPRMC,061140.55,A,3124.97792949,N,12112.83995083,E,0.01,354.82,111017,5.9,W,D,S*5B
$GPHDT,82.268,T*03
$GPGGA,061140.60,3124.97792958,N,12112.83995092,E,4,17,0.8,6.328,M,9.070,M,0.6,2937*73
$GPRMC,061140.60,A,3124.97792958,N,12112.83995092,E,0.00,0.17,111017,5.9,W,D,S*52
$GPHDT,82.273,T*09
$GPGGA,061140.65,3124.97792979,N,12112.83995069,E,4,17,0.8,6.327,M,9.070,M,0.6,2937*7E
$GPRMC,061140.65,A,3124.97792979,N,12112.83995069,E,0.02,302.54,111017,5.9,W,D,S*54
$GPHDT,82.241,T*08
$GPGGA,061140.70,3124.97792966,N,12112.83995100,E,4,17,0.8,6.326,M,9.070,M,0.7,2937*7A
$GPRMC,061140.70,A,3124.97792966,N,12112.83995100,E,0.04,115.12,111017,5.9,W,D,S*50
$GPHDT,82.245,T*0C
$GPGGA,061140.75,3124.97792999,N,12112.83995099,E,4,17,0.8,6.324,M,9.070,M,0.8,2937*73
$GPRMC,061140.75,A,3124.97792999,N,12112.83995099,E,0.06,321.04,111017,5.9,W,D,S*54
$GPHDT,82.191,T*06
$GPGGA,061140.80,3124.97792997,N,12112.83995116,E,4,17,0.8,6.322,M,9.070,M,0.8,2937*77
$GPRMC,061140.80,A,3124.97792997,N,12112.83995116,E,0.05,142.83,111017,5.9,W,D,S*5D
$GPHDT,82.260,T*0B
$GPGGA,061140.85,3124.97792988,N,12112.83995135,E,4,17,0.8,6.320,M,9.070,M,0.8,2937*7F
$GPRMC,061140.85,A,3124.97792988,N,12112.83995135,E,0.03,338.62,111017,5.9,W,D,S*51
$GPHDT,82.215,T*09
$GPGGA,061140.90,3124.97793015,N,12112.83995123,E,4,17,0.8,6.322,M,9.070,M,0.9,2937*73
$GPRMC,061140.90,A,3124.97793015,N,12112.83995123,E,0.02,91.25,111017,5.9,W,D,S*6C
$GPHDT,82.282,T*07
$GPGGA,061140.95,3124.97793006,N,12112.83995137,E,4,17,0.8,6.321,M,9.070,M,0.9,2937*72
$GPRMC,061140.95,A,3124.97793006,N,12112.83995137,E,0.02,257.66,111017,5.9,W,D,S*51
$GPHDT,82.245,T*0C
$GPGGA,061141.00,3124.97793008,N,12112.83995065,E,4,17,0.8,6.321,M,9.070,M,1.0,2937*7F
$GPRMC,061141.00,A,3124.97793008,N,12112.83995065,E,0.05,278.69,111017,5.9,W,D,S*51
$GPHDT,82.268,T*03
$GPGGA,061141.05,3124.97793027,N,12112.83995074,E,4,17,0.8,6.322,M,9.070,M,1.0,2937*74
$GPRMC,061141.05,A,3124.97793027,N,12112.83995074,E,0.07,69.26,111017,5.9,W,D,S*62
$GPHDT,82.237,T*09
$GPGGA,061141.10,3124.97793029,N,12112.83995144,E,4,17,0.8,6.319,M,9.070,M,1.1,2937*75
$GPRMC,061141.10,A,3124.97793029,N,12112.83995144,E,0.01,57.38,111017,5.9,W,D,S*6E
$GPHDT,82.217,T*0B
$GPGGA,061141.15,3124.97793025,N,12112.83995126,E,4,17,0.8,6.320,M,9.070,M,1.1,2937*72
$GPRMC,061141.15,A,3124.97793025,N,12112.83995126,E,0.02,196.16,111017,5.9,W,D,S*50
$GPHDT,82.231,T*0F
$GPGGA,061141.20,3124.97793025,N,12112.83995127,E,4,17,0.8,6.319,M,9.070,M,1.2,2937*7C
$GPRMC,061141.20,A,3124.97793025,N,12112.83995127,E,0.02,327.00,111017,5.9,W,D,S*58
$GPHDT,82.237,T*09
$GPGGA,061141.25,3124.97793042,N,12112.83995102,E,4,17,0.8,6.318,M,9.070,M,1.2,2937*7E
$GPRMC,061141.25,A,3124.97793042,N,12112.83995102,E,0.03,290.54,111017,5.9,W,D,S*56
$GPHDT,82.238,T*06
$GPGGA,061141.30,3124.97793012,N,12112.83995117,E,4,17,0.8,6.318,M,9.070,M,0.3,2937*7B
$GPRMC,061141.30,A,3124.97793012,N,12112.83995117,E,0.04,144.60,111017,5.9,W,D,S*59
$GPHDT,82.272,T*08
$GPGGA,061141.35,3124.97793011,N,12112.83995140,E,4,17,0.8,6.319,M,9.070,M,0.3,2937*7E
$GPRMC,061141.35,A,3124.97793011,N,12112.83995140,E,0.03,349.35,111017,5.9,W,D,S*55
$GPHDT,82.278,T*02
$GPGGA,061141.40,3124.97793033,N,12112.83995122,E,4,17,0.8,6.320,M,9.070,M,0.4,2937*75
$GPRMC,061141.40,A,3124.97793033,N,12112.83995122,E,0.02,6.64,111017,5.9,W,D,S*5E
$GPHDT,82.248,T*01
$GPGGA,061141.45,3124.97793014,N,12112.83995130,E,4,17,0.8,6.320,M,9.070,M,0.4,2937*76
$GPRMC,061141.45,A,3124.97793014,N,12112.83995130,E,0.01,151.60,111017,5.9,W,D,S*59
$GPHDT,82.197,T*00
$GPGGA,061141.50,3124.97792999,N,12112.83995142,E,4,17,0.8,6.320,M,9.070,M,0.5,2937*7B
$GPRMC,061141.50,A,3124.97792999,N,12112.83995142,E,0.00,76.96,111017,5.9,W,D,S*69
$GPHDT,82.207,T*0A
$GPGGA,061141.55,3124.97792991,N,12112.83995122,E,4,17,0.8,6.322,M,9.070,M,0.5,2937*72
$GPRMC,061141.55,A,3124.97792991,N,12112.83995122,E,0.02,270.84,111017,5.9,W,D,S*57
$GPHDT,82.216,T*0A
$GPGGA,061141.60,3124.97792975,N,12112.83995124,E,4,17,0.8,6.323,M,9.070,M,0.6,2937*7A
$GPRMC,061141.60,A,3124.97792975,N,12112.83995124,E,0.01,157.44,111017,5.9,W,D,S*54
$GPHDT,82.298,T*0C
$GPGGA,061141.65,3124.97792980,N,12112.83995132,E,4,17,0.8,6.322,M,9.070,M,0.6,2937*73
$GPRMC,061141.65,A,3124.97792980,N,12112.83995132,E,0.03,1.18,111017,5.9,W,D,S*55
$GPHDT,82.210,T*0C
$GPGGA,061141.70,3124.97792977,N,12112.83995113,E,4,17,0.8,6.324,M,9.070,M,0.7,2937*7B
$GPRMC,061141.70,A,3124.97792977,N,12112.83995113,E,0.03,171.41,111017,5.9,W,D,S*50
$GPHDT,82.225,T*0A
$GPGGA,061141.75,3124.97792928,N,12112.83995105,E,4,17,0.8,6.322,M,9.070,M,0.7,2937*75
$GPRMC,061141.75,A,3124.97792928,N,12112.83995105,E,0.03,258.74,111017,5.9,W,D,S*56
$GPHDT,82.245,T*0C
$GPGGA,061141.80,3124.97792942,N,12112.83995098,E,4,17,0.8,6.324,M,9.070,M,0.8,2937*7F
$GPRMC,061141.80,A,3124.97792942,N,12112.83995098,E,0.03,43.80,111017,5.9,W,D,S*66
$GPHDT,82.195,T*02
$GPGGA,061141.85,3124.97792946,N,12112.83995135,E,4,17,0.8,6.323,M,9.070,M,0.9,2937*7E
$GPRMC,061141.85,A,3124.97792946,N,12112.83995135,E,0.02,104.89,111017,5.9,W,D,S*5B
$GPHDT,82.271,T*0B
$GPGGA,061141.90,3124.97792956,N,12112.83995114,E,4,17,0.8,6.325,M,9.070,M,0.9,2937*7E
$GPRMC,061141.90,A,3124.97792956,N,12112.83995114,E,0.04,299.32,111017,5.9,W,D,S*5C
$GPHDT,82.210,T*0C
$GPGGA,061141.95,3124.97792953,N,12112.83995065,E,4,17,0.8,6.325,M,9.070,M,0.9,2937*79
$GPRMC,061141.95,A,3124.97792953,N,12112.83995065,E,0.02,243.91,111017,5.9,W,D,S*53
$GPHDT,82.220,T*0F
$GPGGA,061142.00,3124.97792937,N,12112.83995057,E,4,17,0.8,6.325,M,9.070,M,1.0,2937*7D
$GPRMC,061142.00,A,3124.97792937,N,12112.83995057,E,0.00,144.88,111017,5.9,W,D,S*51
$GPHDT,82.202,T*0F
$GPGGA,061142.05,3124.97792898,N,12112.83995058,E,4,17,0.8,6.324,M,9.070,M,1.0,2937*72
$GPRMC,061142.05,A,3124.97792898,N,12112.83995058,E,0.03,195.85,111017,5.9,W,D,S*5D
$GPHDT,82.230,T*0E
$GPGGA,061142.10,3124.97792863,N,12112.83995086,E,4,17,0.8,6.325,M,9.070,M,1.1,2937*71
$GPRMC,061142.10,A,3124.97792863,N,12112.83995086,E,0.06,124.06,111017,5.9,W,D,S*5A
$GPHDT,82.250,T*08
$GPGGA,061142.15,3124.97792868,N,12112.83995100,E,4,17,0.8,6.326,M,9.070,M,1.1,2937*73
$GPRMC,061142.15,A,3124.97792868,N,12112.83995100,E,0.04,327.18,111017,5.9,W,D,S*57
$GPHDT,82.244,T*0D
$GPGGA,061142.20,3124.97792897,N,12112.83995132,E,4,17,0.8,6.324,M,9.070,M,1.2,2937*75
$GPRMC,061142.20,A,3124.97792897,N,12112.83995132,E,0.04,90.24,111017,5.9,W,D,S*60
$GPHDT,82.180,T*06
$GPGGA,061142.25,3124.97792870,N,12112.83995170,E,4,17,0.8,6.324,M,9.070,M,1.2,2937*7F
$GPRMC,061142.25,A,3124.97792870,N,12112.83995170,E,0.03,144.93,111017,5.9,W,D,S*59
$GPHDT,82.220,T*0F
$GPGGA,061142.30,3124.97792892,N,12112.83995138,E,4,17,0.8,6.324,M,9.070,M,1.3,2937*7A
$GPRMC,061142.30,A,3124.97792892,N,12112.83995138,E,0.05,311.46,111017,5.9,W,D,S*51
$GPHDT,82.213,T*0F
$GPGGA,061142.35,3124.97792896,N,12112.83995081,E,4,17,0.8,6.326,M,9.070,M,1.3,2937*7A
$GPRMC,061142.35,A,3124.97792896,N,12112.83995081,E,0.02,207.31,111017,5.9,W,D,S*52
$GPHDT,82.241,T*08
$GPGGA,061142.40,3124.97792898,N,12112.83995116,E,4,17,0.8,6.325,M,9.070,M,1.4,2937*7D
$GPRMC,061142.40,A,3124.97792898,N,12112.83995116,E,0.03,50.92,111017,5.9,W,D,S*69
$GPHDT,82.198,T*0F
$GPGGA,061142.45,3124.97792907,N,12112.83995127,E,4,17,0.8,6.324,M,9.070,M,1.4,2937*7C
$GPRMC,061142.45,A,3124.97792907,N,12112.83995127,E,0.03,223.29,111017,5.9,W,D,S*5F
$GPHDT,82.219,T*05
$GPGGA,061142.50,3124.97792911,N,12112.83995139,E,4,17,0.8,6.324,M,9.070,M,0.5,2937*70
$GPRMC,061142.50,A,3124.97792911,N,12112.83995139,E,0.03,79.86,111017,5.9,W,D,S*6B
$GPHDT,82.198,T*0F
$GPGGA,061142.55,3124.97792938,N,12112.83995165,E,4,17,0.8,6.324,M,9.070,M,0.5,2937*77
$GPRMC,061142.55,A,3124.97792938,N,12112.83995165,E,0.01,0.53,111017,5.9,W,D,S*58
$GPHDT,82.232,T*0C
$GPGGA,061142.60,3124.97792933,N,12112.83995148,E,4,17,0.8,6.325,M,9.070,M,0.6,2937*77
$GPRMC,061142.60,A,3124.97792933,N,12112.83995148,E,0.02,216.32,111017,5.9,W,D,S*5B
$GPHDT,82.211,T*0D
$GPGGA,061142.65,3124.97792921,N,12112.83995193,E,4,17,0.8,6.325,M,9.070,M,0.6,2937*77
$GPRMC,061142.65,A,3124.97792921,N,12112.83995193,E,0.05,114.19,111017,5.9,W,D,S*54
$GPHDT,82.239,T*07
$GPGGA,061142.70,3124.97792965,N,12112.83995236,E,4,17,0.8,6.325,M,9.070,M,0.7,2937*7E
$GPRMC,061142.70,A,3124.97792965,N,12112.83995236,E,0.06,4.14,111017,5.9,W,D,S*52
$GPHDT,82.270,T*0A
$GPGGA,061142.75,3124.97793000,N,12112.83995180,E,4,17,0.8,6.326,M,9.070,M,0.7,2937*7D
$GPRMC,061142.75,A,3124.97793000,N,12112.83995180,E,0.07,259.41,111017,5.9,W,D,S*59
$GPHDT,82.208,T*05
$GPGGA,061142.80,3124.97793011,N,12112.83995161,E,4,17,0.8,6.327,M,9.070,M,0.8,2937*76
$GPRMC,061142.80,A,3124.97793011,N,12112.83995161,E,0.03,77.18,111017,5.9,W,D,S*6A
$GPHDT,82.246,T*0F
$GPGGA,061142.85,3124.97792998,N,12112.83995170,E,4,17,0.8,6.326,M,9.070,M,0.8,2937*7B
$GPRMC,061142.85,A,3124.97792998,N,12112.83995170,E,0.03,234.97,111017,5.9,W,D,S*54
$GPHDT,82.279,T*03
$GPGGA,061142.90,3124.97793001,N,12112.83995207,E,4,17,0.8,6.327,M,9.070,M,0.9,2937*74
$GPRMC,061142.90,A,3124.97793001,N,12112.83995207,E,0.06,99.66,111017,5.9,W,D,S*65
$GPHDT,82.201,T*0C
$GPGGA,061142.95,3124.97792968,N,12112.83995283,E,4,17,0.8,6.324,M,9.070,M,1.0,2937*71
$GPRMC,061142.95,A,3124.97792968,N,12112.83995283,E,0.03,151.37,111017,5.9,W,D,S*5F
$GPHDT,82.204,T*09
$GPGGA,061143.00,3124.97793009,N,12112.83995259,E,4,17,0.8,6.323,M,9.070,M,1.0,2937*73
$GPRMC,061143.00,A,3124.97793009,N,12112.83995259,E,0.06,327.77,111017,5.9,W,D,S*58
$GPHDT,82.187,T*01
$GPGGA,061143.05,3124.97793007,N,12112.83995209,E,4,17,0.8,6.326,M,9.070,M,1.0,2937*78
$GPRMC,061143.05,A,3124.97793007,N,12112.83995209,E,0.06,163.16,111017,5.9,W,D,S*53
$GPHDT,82.236,T*08
$GPGGA,061143.10,3124.97792970,N,12112.83995255,E,4,17,0.8,6.325,M,9.070,M,1.1,2937*7F
$GPRMC,061143.10,A,3124.97792970,N,12112.83995255,E,0.03,67.82,111017,5.9,W,D,S*6B
$GPHDT,82.217,T*0B
$GPGGA,061143.15,3124.97792967,N,12112.83995285,E,4,17,0.8,6.325,M,9.070,M,1.1,2937*71
$GPRMC,061143.15,A,3124.97792967,N,12112.83995285,E,0.01,78.75,111017,5.9,W,D,S*61
$GPHDT,82.239,T*07
$GPGGA,061143.20,3124.97792982,N,12112.83995265,E,4,17,0.8,6.324,M,9.070,M,1.2,2937*70
$GPRMC,061143.20,A,3124.97792982,N,12112.83995265,E,0.05,287.21,111017,5.9,W,D,S*55
$GPHDT,82.237,T*09
$GPGGA,061143.25,3124.97792975,N,12112.83995227,E,4,17,0.8,6.326,M,9.070,M,1.2,2937*79
$GPRMC,061143.25,A,3124.97792975,N,12112.83995227,E,0.02,141.68,111017,5.9,W,D,S*5D
$GPHDT,82.261,T*0A
$GPGGA,061143.30,3124.97792954,N,12112.83995264,E,4,17,0.8,6.322,M,9.070,M,0.3,2937*7D
$GPRMC,061143.30,A,3124.97792954,N,12112.83995264,E,0.05,337.23,111017,5.9,W,D,S*56
$GPHDT,82.191,T*06
$GPGGA,061143.35,3124.97792975,N,12112.83995175,E,4,17,0.8,6.324,M,9.070,M,0.3,2937*7E
$GPRMC,061143.35,A,3124.97792975,N,12112.83995175,E,0.04,257.08,111017,5.9,W,D,S*5C
$GPHDT,82.195,T*02
$GPGGA,061143.40,3124.97792950,N,12112.83995144,E,4,17,0.8,6.325,M,9.070,M,0.4,2937*7F
$GPRMC,061143.40,A,3124.97792950,N,12112.83995144,E,0.04,130.52,111017,5.9,W,D,S*56
$GPHDT,82.236,T*08
$GPGGA,061143.45,3124.97792953,N,12112.83995145,E,4,17,0.8,6.323,M,9.070,M,0.4,2937*7E
$GPRMC,061143.45,A,3124.97792953,N,12112.83995145,E,0.05,315.94,111017,5.9,W,D,S*5F
$GPHDT,82.245,T*0C
$GPGGA,061143.50,3124.97792974,N,12112.83995092,E,4,17,0.8,6.326,M,9.070,M,0.5,2937*70
$GPRMC,061143.50,A,3124.97792974,N,12112.83995092,E,0.03,116.99,111017,5.9,W,D,S*5F
$GPHDT,82.210,T*0C
$GPGGA,061143.55,3124.97792928,N,12112.83995102,E,4,17,0.8,6.325,M,9.070,M,0.5,2937*77
$GPRMC,061143.55,A,3124.97792928,N,12112.83995102,E,0.05,199.75,111017,5.9,W,D,S*58
$GPHDT,82.170,T*09
$GPGGA,061143.60,3124.97792870,N,12112.83995106,E,4,17,0.8,6.325,M,9.070,M,0.6,2937*7A
$GPRMC,061143.60,A,3124.97792870,N,12112.83995106,E,0.02,119.78,111017,5.9,W,D,S*54
$GPHDT,82.254,T*0C
$GPGGA,061143.65,3124.97792879,N,12112.83995108,E,4,18,0.8,6.327,M,9.070,M,0.6,2937*75
$GPRMC,061143.65,A,3124.97792879,N,12112.83995108,E,0.02,12.77,111017,5.9,W,D,S*63
$GPHDT,82.193,T*04
$GPGGA,061143.70,3124.97792882,N,12112.83995136,E,4,18,0.8,6.326,M,9.070,M,0.7,2937*78
$GPRMC,061143.70,A,3124.97792882,N,12112.83995136,E,0.02,86.85,111017,5.9,W,D,S*6E
$GPHDT,82.217,T*0B
$GPGGA,061143.75,3124.97792859,N,12112.83995136,E,4,18,0.8,6.327,M,9.070,M,0.7,2937*7A
$GPRMC,061143.75,A,3124.97792859,N,12112.83995136,E,0.03,198.36,111017,5.9,W,D,S*5A
$GPHDT,82.276,T*0C
$GPGGA,061143.80,3124.97792894,N,12112.83995115,E,4,18,0.8,6.326,M,9.070,M,0.8,2937*7E
$GPRMC,061143.80,A,3124.97792894,N,12112.83995115,E,0.08,0.15,111017,5.9,W,D,S*5A
$GPHDT,82.254,T*0C
$GPGGA,061143.85,3124.97792918,N,12112.83995071,E,4,18,0.8,6.330,M,9.070,M,0.8,2937*7A
$GPRMC,061143.85,A,3124.97792918,N,12112.83995071,E,0.04,197.84,111017,5.9,W,D,S*52
$GPHDT,82.275,T*0F
$GPGGA,061143.90,3124.97792907,N,12112.83995061,E,4,18,0.8,6.331,M,9.070,M,0.9,2937*71
$GPRMC,061143.90,A,3124.97792907,N,12112.83995061,E,0.03,40.58,111017,5.9,W,D,S*64
$GPHDT,82.237,T*09
$GPGGA,061143.95,3124.97792913,N,12112.83995043,E,4,18,0.8,6.331,M,9.070,M,0.9,2937*71
$GPRMC,061143.95,A,3124.97792913,N,12112.83995043,E,0.04,250.56,111017,5.9,W,D,S*5E
$GPHDT,82.245,T*0C
$GPGGA,061144.00,3124.97792935,N,12112.83995008,E,4,18,0.8,6.332,M,9.070,M,1.0,2937*7A
$GPRMC,061144.00,A,3124.97792935,N,12112.83995008,E,0.03,6.09,111017,5.9,W,D,S*52
$GPHDT,82.251,T*09
$GPGGA,061144.05,3124.97792939,N,12112.83994992,E,4,17,0.8,6.333,M,9.070,M,1.1,2937*77
$GPRMC,061144.05,A,3124.97792939,N,12112.83994992,E,0.03,211.57,111017,5.9,W,D,S*5F
$GPHDT,82.185,T*03
$GPGGA,061144.10,3124.97792912,N,12112.83994997,E,4,17,0.8,6.334,M,9.070,M,1.1,2937*78
$GPRMC,061144.10,A,3124.97792912,N,12112.83994997,E,0.03,91.84,111017,5.9,W,D,S*63
$GPHDT,82.275,T*0F
$GPGGA,061144.15,3124.97792927,N,12112.83995022,E,4,17,0.8,6.334,M,9.070,M,1.1,2937*7D
$GPRMC,061144.15,A,3124.97792927,N,12112.83995022,E,0.03,351.96,111017,5.9,W,D,S*5A
$GPHDT,82.224,T*0B
$GPGGA,061144.20,3124.97792940,N,12112.83995004,E,4,17,0.8,6.336,M,9.070,M,1.2,2937*7F
$GPRMC,061144.20,A,3124.97792940,N,12112.83995004,E,0.01,155.09,111017,5.9,W,D,S*5B
$GPHDT,82.273,T*09
$GPGGA,061144.25,3124.97792941,N,12112.83995009,E,4,17,0.8,6.337,M,9.070,M,1.2,2937*77
$GPRMC,061144.25,A,3124.97792941,N,12112.83995009,E,0.02,300.61,111017,5.9,W,D,S*5D
$GPHDT,82.253,T*0B
$GPGGA,061144.30,3124.97792931,N,12112.83995007,E,4,17,0.8,6.338,M,9.070,M,0.3,2937*75
$GPRMC,061144.30,A,3124.97792931,N,12112.83995007,E,0.05,141.28,111017,5.9,W,D,S*5D
$GPHDT,82.234,T*0A
$GPGGA,061144.35,3124.97792922,N,12112.83994982,E,4,17,0.8,6.338,M,9.070,M,0.3,2937*77
$GPRMC,061144.35,A,3124.97792922,N,12112.83994982,E,0.03,275.41,111017,5.9,W,D,S*52
$GPHDT,82.237,T*09
$GPGGA,061144.40,3124.97792949,N,12112.83994950,E,4,17,0.8,6.339,M,9.070,M,0.4,2937*71
$GPRMC,061144.40,A,3124.97792949,N,12112.83994950,E,0.01,359.77,111017,5.9,W,D,S*5A
$GPHDT,82.237,T*09
$GPGGA,061144.45,3124.97792974,N,12112.83994964,E,4,17,0.8,6.339,M,9.070,M,0.5,2937*7C
$GPRMC,061144.45,A,3124.97792974,N,12112.83994964,E,0.02,81.35,111017,5.9,W,D,S*65
$GPHDT,82.239,T*07
$GPGGA,061144.50,3124.97793004,N,12112.83994928,E,4,17,0.8,6.341,M,9.070,M,0.5,2937*70
$GPRMC,061144.50,A,3124.97793004,N,12112.83994928,E,0.04,285.55,111017,5.9,W,D,S*50
$GPHDT,82.243,T*0A
$GPGGA,061144.55,3124.97792994,N,12112.83994923,E,4,17,0.8,6.341,M,9.070,M,0.5,2937*7F
$GPRMC,061144.55,A,3124.97792994,N,12112.83994923,E,0.04,129.66,111017,5.9,W,D,S*5A
$GPHDT,82.238,T*06
$GPGGA,061144.60,3124.97793020,N,12112.83994940,E,4,17,0.8,6.340,M,9.070,M,0.6,2937*79
$GPRMC,061144.60,A,3124.97793020,N,12112.83994940,E,0.03,327.07,111017,5.9,W,D,S*52
$GPHDT,82.272,T*08
$GPGGA,061144.65,3124.97793046,N,12112.83994969,E,4,17,0.8,6.340,M,9.070,M,0.6,2937*77
$GPRMC,061144.65,A,3124.97793046,N,12112.83994969,E,0.06,93.46,111017,5.9,W,D,S*60
$GPHDT,82.225,T*0A
$GPGGA,061144.70,3124.97793068,N,12112.83994973,E,4,17,0.8,6.339,M,9.070,M,0.7,2937*7B
$GPRMC,061144.70,A,3124.97793068,N,12112.83994973,E,0.04,299.40,111017,5.9,W,D,S*5F
$GPHDT,82.274,T*0E
$GPGGA,061144.75,3124.97793118,N,12112.83994937,E,4,17,0.8,6.340,M,9.070,M,0.7,2937*76
$GPRMC,061144.75,A,3124.97793118,N,12112.83994937,E,0.04,19.19,111017,5.9,W,D,S*6A
$GPHDT,82.256,T*0E
$GPGGA,061144.80,3124.97793125,N,12112.83994953,E,4,17,0.8,6.340,M,9.070,M,0.8,2937*7F
$GPRMC,061144.80,A,3124.97793125,N,12112.83994953,E,0.04,134.83,111017,5.9,W,D,S*51
$GPHDT,82.281,T*04
$GPGGA,061144.85,3124.97793122,N,12112.83994968,E,4,17,0.8,6.340,M,9.070,M,0.8,2937*75
$GPRMC,061144.85,A,3124.97793122,N,12112.83994968,E,0.01,120.71,111017,5.9,W,D,S*56
$GPHDT,82.239,T*07
$GPGGA,061144.90,3124.97793120,N,12112.83994972,E,4,17,0.8,6.342,M,9.070,M,0.9,2937*7B
$GPRMC,061144.90,A,3124.97793120,N,12112.83994972,E,0.02,117.27,111017,5.9,W,D,S*5F
$GPHDT,82.231,T*0F
$GPGGA,061144.95,3124.97793124,N,12112.83994948,E,4,17,0.8,6.341,M,9.070,M,0.9,2937*70
$GPRMC,061144.95,A,3124.97793124,N,12112.83994948,E,0.04,304.70,111017,5.9,W,D,S*53
$GPHDT,82.295,T*01
$GPGGA,061145.00,3124.97793167,N,12112.83994924,E,4,17,0.8,6.340,M,9.070,M,1.0,2937*79
$GPRMC,061145.00,A,3124.97793167,N,12112.83994924,E,0.04,3.85,111017,5.9,W,D,S*5D
$GPHDT,82.257,T*0F
$GPGGA,061145.05,3124.97793202,N,12112.83994959,E,4,17,0.8,6.341,M,9.070,M,1.0,2937*77
$GPRMC,061145.05,A,3124.97793202,N,12112.83994959,E,0.06,97.83,111017,5.9,W,D,S*6B
$GPHDT,82.239,T*07
$GPGGA,061145.10,3124.97793192,N,12112.83994975,E,4,17,0.8,6.341,M,9.070,M,1.1,2937*76
$GPRMC,061145.10,A,3124.97793192,N,12112.83994975,E,0.04,266.60,111017,5.9,W,D,S*58
$GPHDT,82.253,T*0B
$GPGGA,061145.15,3124.97793184,N,12112.83994932,E,4,17,0.8,6.342,M,9.070,M,1.1,2937*74
$GPRMC,061145.15,A,3124.97793184,N,12112.83994932,E,0.03,107.68,111017,5.9,W,D,S*52
$GPHDT,82.217,T*0B
$GPGGA,061145.20,3124.97793193,N,12112.83994913,E,4,17,0.8,6.344,M,9.070,M,1.2,2937*72
$GPRMC,061145.20,A,3124.97793193,N,12112.83994913,E,0.04,304.45,111017,5.9,W,D,S*58
$GPHDT,82.282,T*07
$GPGGA,061145.25,3124.97793191,N,12112.83994893,E,4,17,0.8,6.342,M,9.070,M,1.2,2937*7A
$GPRMC,061145.25,A,3124.97793191,N,12112.83994893,E,0.00,141.10,111017,5.9,W,D,S*51
$GPHDT,82.209,T*04
$GPGGA,061145.30,3124.97793207,N,12112.83994915,E,4,18,0.8,6.342,M,9.070,M,0.3,2937*72
$GPRMC,061145.30,A,3124.97793207,N,12112.83994915,E,0.02,23.50,111017,5.9,W,D,S*65
$GPHDT,82.225,T*0A
$GPGGA,061145.35,3124.97793204,N,12112.83994897,E,4,18,0.8,6.343,M,9.070,M,0.3,2937*7E
$GPRMC,061145.35,A,3124.97793204,N,12112.83994897,E,0.03,238.82,111017,5.9,W,D,S*5E
$GPHDT,82.255,T*0D
$GPGGA,061145.40,3124.97793179,N,12112.83994932,E,4,18,0.8,6.342,M,9.070,M,0.4,2937*7D
$GPRMC,061145.40,A,3124.97793179,N,12112.83994932,E,0.04,100.71,111017,5.9,W,D,S*58
$GPHDT,82.183,T*05
$GPGGA,061145.45,3124.97793183,N,12112.83994933,E,4,18,0.8,6.342,M,9.070,M,0.4,2937*7C
$GPRMC,061145.45,A,3124.97793183,N,12112.83994933,E,0.03,274.51,111017,5.9,W,D,S*5C
$GPHDT,82.259,T*01
$GPGGA,061145.50,3124.97793183,N,12112.83994957,E,4,18,0.8,6.338,M,9.070,M,0.5,2937*76
$GPRMC,061145.50,A,3124.97793183,N,12112.83994957,E,0.02,63.47,111017,5.9,W,D,S*68
$GPHDT,82.179,T*00
$GPGGA,061145.55,3124.97793187,N,12112.83994976,E,4,18,0.8,6.340,M,9.070,M,0.6,2937*78
$GPRMC,061145.55,A,3124.97793187,N,12112.83994976,E,0.04,141.50,111017,5.9,W,D,S*5B
$GPHDT,82.273,T*09
$GPGGA,061145.60,3124.97793207,N,12112.83994949,E,4,18,0.8,6.341,M,9.070,M,0.6,2937*78
$GPRMC,061145.60,A,3124.97793207,N,12112.83994949,E,0.07,312.53,111017,5.9,W,D,S*5E
$GPHDT,82.204,T*09
$GPGGA,061145.65,3124.97793221,N,12112.83994928,E,4,18,0.8,6.341,M,9.070,M,0.6,2937*7E
$GPRMC,061145.65,A,3124.97793221,N,12112.83994928,E,0.02,134.69,111017,5.9,W,D,S*52
$GPHDT,82.202,T*0F
$GPGGA,061145.70,3124.97793189,N,12112.83994975,E,4,17,0.8,6.340,M,9.070,M,0.7,2937*7C
$GPRMC,061145.70,A,3124.97793189,N,12112.83994975,E,0.04,143.18,111017,5.9,W,D,S*5F
$GPHDT,82.220,T*0F
$GPGGA,061145.75,3124.97793176,N,12112.83994999,E,4,17,0.8,6.339,M,9.070,M,0.7,2937*75
$GPRMC,061145.75,A,3124.97793176,N,12112.83994999,E,0.03,33.50,111017,5.9,W,D,S*65
$GPHDT,82.189,T*0F
$GPGGA,061145.80,3124.97793184,N,12112.83995008,E,4,17,0.8,6.339,M,9.070,M,0.8,2937*7D
$GPRMC,061145.80,A,3124.97793184,N,12112.83995008,E,0.01,155.88,111017,5.9,W,D,S*54
$GPHDT,82.264,T*0F
$GPGGA,061145.85,3124.97793176,N,12112.83995034,E,4,17,0.8,6.338,M,9.070,M,0.8,2937*7B
$GPRMC,061145.85,A,3124.97793176,N,12112.83995034,E,0.01,26.76,111017,5.9,W,D,S*67
$GPHDT,82.224,T*0B
$GPGGA,061145.90,3124.97793158,N,12112.83995041,E,4,17,0.8,6.338,M,9.070,M,0.9,2937*70
$GPRMC,061145.90,A,3124.97793158,N,12112.83995041,E,0.03,140.22,111017,5.9,W,D,S*5F
$GPHDT,82.240,T*09
$GPGGA,061145.95,3124.97793171,N,12112.83995074,E,4,17,0.8,6.337,M,9.070,M,0.9,2937*77
$GPRMC,061145.95,A,3124.97793171,N,12112.83995074,E,0.04,19.31,111017,5.9,W,D,S*6F
$GPHDT,82.237,T*09
$GPGGA,061146.00,3124.97793213,N,12112.83995047,E,4,17,0.8,6.338,M,9.070,M,1.0,2937*78
$GPRMC,061146.00,A,3124.97793213,N,12112.83995047,E,0.02,310.54,111017,5.9,W,D,S*58
$GPHDT,82.258,T*00
$GPGGA,061146.05,3124.97793202,N,12112.83995105,E,4,17,0.8,6.335,M,9.070,M,1.0,2937*77
$GPRMC,061146.05,A,3124.97793202,N,12112.83995105,E,0.07,105.57,111017,5.9,W,D,S*5A
$GPHDT,82.238,T*06
$GPGGA,061146.10,3124.97793198,N,12112.83995139,E,4,17,0.8,6.336,M,9.070,M,1.1,2937*7E
$GPRMC,061146.10,A,3124.97793198,N,12112.83995139,E,0.02,9.94,111017,5.9,W,D,S*56
$GPHDT,82.191,T*06
$GPGGA,061146.15,3124.97793191,N,12112.83995155,E,4,17,0.8,6.336,M,9.070,M,1.1,2937*78
$GPRMC,061146.15,A,3124.97793191,N,12112.83995155,E,0.04,124.27,111017,5.9,W,D,S*50
$GPHDT,82.254,T*0C
$GPGGA,061146.20,3124.97793190,N,12112.83995140,E,4,17,0.8,6.337,M,9.070,M,1.2,2937*79
$GPRMC,061146.20,A,3124.97793190,N,12112.83995140,E,0.03,303.20,111017,5.9,W,D,S*54
$GPHDT,82.242,T*0B
$GPGGA,061146.25,3124.97793225,N,12112.83995143,E,4,17,0.8,6.336,M,9.070,M,1.2,2937*73
$GPRMC,061146.25,A,3124.97793225,N,12112.83995143,E,0.03,48.84,111017,5.9,W,D,S*6D
$GPHDT,82.244,T*0D
$GPGGA,061146.30,3124.97793197,N,12112.83995125,E,4,17,0.8,6.337,M,9.070,M,0.3,2937*7C
$GPRMC,061146.30,A,3124.97793197,N,12112.83995125,E,0.02,206.28,111017,5.9,W,D,S*5C
$GPHDT,82.271,T*0B
$GPGGA,061146.35,3124.97793190,N,12112.83995121,E,4,17,0.8,6.338,M,9.070,M,0.3,2937*75
$GPRMC,061146.35,A,3124.97793190,N,12112.83995121,E,0.03,41.73,111017,5.9,W,D,S*64
$GPHDT,82.176,T*0F
$GPGGA,061146.40,3124.97793200,N,12112.83995149,E,4,17,0.8,6.337,M,9.070,M,0.4,2937*7B
$GPRMC,061146.40,A,3124.97793200,N,12112.83995149,E,0.03,30.55,111017,5.9,W,D,S*60
$GPHDT,82.294,T*00
$GPGGA,061146.45,3124.97793203,N,12112.83995234,E,4,17,0.8,6.338,M,9.070,M,0.4,2937*7B
$GPRMC,061146.45,A,3124.97793203,N,12112.83995234,E,0.11,82.64,111017,5.9,W,D,S*67
$GPHDT,82.256,T*0E
$GPGGA,061146.50,3124.97793195,N,12112.83995359,E,4,17,0.8,6.337,M,9.070,M,0.5,2937*77
$GPRMC,061146.50,A,3124.97793195,N,12112.83995359,E,0.04,80.21,111017,5.9,W,D,S*62
$GPHDT,82.238,T*06
$GPGGA,061146.55,3124.97793163,N,12112.83995434,E,4,17,0.8,6.338,M,9.070,M,0.5,2937*78
$GPRMC,061146.55,A,3124.97793163,N,12112.83995434,E,0.08,104.74,111017,5.9,W,D,S*53
$GPHDT,82.302,T*0E
$GPGGA,061146.60,3124.97793191,N,12112.83995644,E,4,17,0.8,6.337,M,9.070,M,0.6,2937*7A
$GPRMC,061146.60,A,3124.97793191,N,12112.83995644,E,0.18,60.67,111017,5.9,W,D,S*6D
$GPHDT,82.221,T*0E
$GPGGA,061146.65,3124.97793229,N,12112.83995884,E,4,17,0.8,6.338,M,9.070,M,0.7,2937*73
$GPRMC,061146.65,A,3124.97793229,N,12112.83995884,E,0.18,88.41,111017,5.9,W,D,S*68
$GPHDT,82.274,T*0E
$GPGGA,061146.70,3124.97793201,N,12112.83996172,E,4,17,0.8,6.338,M,9.070,M,0.7,2937*7E
$GPRMC,061146.70,A,3124.97793201,N,12112.83996172,E,0.19,89.51,111017,5.9,W,D,S*64
$GPHDT,82.266,T*0D
$GPGGA,061146.75,3124.97793202,N,12112.83996497,E,4,17,0.8,6.337,M,9.070,M,0.7,2937*79
$GPRMC,061146.75,A,3124.97793202,N,12112.83996497,E,0.21,75.31,111017,5.9,W,D,S*62
$GPHDT,82.296,T*02
$GPGGA,061146.80,3124.97793222,N,12112.83996900,E,4,17,0.8,6.336,M,9.070,M,0.8,2937*7C
$GPRMC,061146.80,A,3124.97793222,N,12112.83996900,E,0.28,85.97,111017,5.9,W,D,S*63
$GPHDT,82.278,T*02
$GPGGA,061146.85,3124.97793259,N,12112.83997416,E,4,17,0.8,6.338,M,9.070,M,0.8,2937*70
$GPRMC,061146.85,A,3124.97793259,N,12112.83997416,E,0.36,79.32,111017,5.9,W,D,S*62
$GPHDT,82.367,T*0D
$GPGGA,061146.90,3124.97793305,N,12112.83998080,E,4,17,0.8,6.336,M,9.070,M,0.9,2937*77
$GPRMC,061146.90,A,3124.97793305,N,12112.83998080,E,0.44,83.08,111017,5.9,W,D,S*63
$GPHDT,82.335,T*0A
$GPGGA,061146.95,3124.97793348,N,12112.83998862,E,4,18,0.8,6.335,M,9.070,M,0.9,2937*73
$GPRMC,061146.95,A,3124.97793348,N,12112.83998862,E,0.50,84.59,111017,5.9,W,D,S*6D
$GPHDT,82.340,T*08
$GPGGA,061147.00,3124.97793400,N,12112.83999781,E,4,18,0.8,6.333,M,9.070,M,1.0,2937*78
$GPRMC,061147.00,A,3124.97793400,N,12112.83999781,E,0.59,84.55,111017,5.9,W,D,S*6D
$GPHDT,82.266,T*0D
$GPGGA,061147.05,3124.97793438,N,12112.84000800,E,4,18,0.8,6.336,M,9.070,M,1.0,2937*7B
$GPRMC,061147.05,A,3124.97793438,N,12112.84000800,E,0.67,88.14,111017,5.9,W,D,S*6F
$GPHDT,82.200,T*0D
$GPGGA,061147.10,3124.97793536,N,12112.84001997,E,4,18,0.8,6.341,M,9.070,M,1.1,2937*7F
$GPRMC,061147.10,A,3124.97793536,N,12112.84001997,E,0.81,82.15,111017,5.9,W,D,S*69
$GPHDT,82.172,T*0B
$GPGGA,061147.15,3124.97793677,N,12112.84003319,E,4,18,0.8,6.351,M,9.070,M,1.1,2937*73
$GPRMC,061147.15,A,3124.97793677,N,12112.84003319,E,0.86,85.26,111017,5.9,W,D,S*64
$GPHDT,82.200,T*0D
