$GPHDT,,T*1B
$GPGGA,053015.70,3047.17820480,N,12056.16093239,E,4,20,0.7,5.802,M,8.730,M,0.7,2441*75
$GPRMC,053015.70,A,3047.17820480,N,12056.16093239,E,0.04,285.39,031117,5.7,W,D,S*5B
$GPHDT,,T*1B
$GPGGA,053015.75,3047.17820463,N,12056.16093193,E,4,20,0.7,5.801,M,8.730,M,0.7,2441*7D
$GPRMC,053015.75,A,3047.17820463,N,12056.16093193,E,0.05,207.99,031117,5.7,W,D,S*51
$GPHDT,,T*1B
$GPGGA,053015.80,3047.17820446,N,12056.16093168,E,4,20,0.7,5.800,M,8.730,M,0.8,2441*7A
$GPRMC,053015.80,A,3047.17820446,N,12056.16093168,E,0.02,267.42,031117,5.7,W,D,S*5F
$GPHDT,,T*1B
$GPGGA,053015.85,3047.17820508,N,12056.16093110,E,4,20,0.7,5.800,M,8.730,M,0.8,2441*7B
$GPRMC,053015.85,A,3047.17820508,N,12056.16093110,E,0.09,323.73,031117,5.7,W,D,S*56
$GPHDT,,T*1B
$GPGGA,053015.90,3047.17820552,N,12056.16093074,E,4,20,0.7,5.798,M,8.730,M,0.9,2441*7C
$GPRMC,053015.90,A,3047.17820552,N,12056.16093074,E,0.01,179.76,031117,5.7,W,D,S*5E
$GPHDT,,T*1B
$GPGGA,053015.95,3047.17820502,N,12056.16093023,E,4,20,0.7,5.798,M,8.730,M,0.9,2441*7E
$GPRMC,053015.95,A,3047.17820502,N,12056.16093023,E,0.08,222.95,031117,5.7,W,D,S*55
$GPHDT,,T*1B
$GPGGA,053016.00,3047.17820532,N,12056.16092978,E,4,20,0.7,5.796,M,8.730,M,1.0,2441*72
$GPRMC,053016.00,A,3047.17820532,N,12056.16092978,E,0.08,352.53,031117,5.7,W,D,S*53
$GPHDT,,T*1B
$GPGGA,053016.05,3047.17820566,N,12056.16092959,E,4,20,0.7,5.797,M,8.730,M,1.0,2441*74
$GPRMC,053016.05,A,3047.17820566,N,12056.16092959,E,0.03,227.28,031117,5.7,W,D,S*50
$GPHDT,,T*1B
$GPGGA,053016.10,3047.17820519,N,12056.16092955,E,4,20,0.7,5.796,M,8.730,M,1.1,2441*74
$GPRMC,053016.10,A,3047.17820519,N,12056.16092955,E,0.05,165.22,031117,5.7,W,D,S*59
$GPHDT,,T*1B
$GPGGA,053016.15,3047.17820523,N,12056.16092967,E,4,20,0.7,5.795,M,8.730,M,1.1,2441*7A
$GPRMC,053016.15,A,3047.17820523,N,12056.16092967,E,0.05,1.58,031117,5.7,W,D,S*5A
$GPHDT,,T*1B
$GPGGA,053016.20,3047.17820574,N,12056.16092991,E,4,20,0.7,5.795,M,8.730,M,1.2,2441*74
$GPRMC,053016.20,A,3047.17820574,N,12056.16092991,E,0.03,51.39,031117,5.7,W,D,S*63
$GPHDT,,T*1B
$GPGGA,053016.25,3047.17820595,N,12056.16092984,E,4,20,0.7,5.793,M,8.730,M,1.2,2441*7C
$GPRMC,053016.25,A,3047.17820595,N,12056.16092984,E,0.03,284.57,031117,5.7,W,D,S*5F
$GPHDT,,T*1B
$GPGGA,053016.30,3047.17820611,N,12056.16092929,E,4,20,0.7,5.795,M,8.730,M,0.3,2441*76
$GPRMC,053016.30,A,3047.17820611,N,12056.16092929,E,0.06,337.50,031117,5.7,W,D,S*58
$GPHDT,,T*1B
$GPGGA,053016.35,3047.17820636,N,12056.16092909,E,4,20,0.7,5.798,M,8.730,M,0.3,2441*79
$GPRMC,053016.35,A,3047.17820636,N,12056.16092909,E,0.01,1.12,031117,5.7,W,D,S*5D
$GPHDT,,T*1B
$GPGGA,053016.40,3047.17820669,N,12056.16092929,E,4,20,0.7,5.797,M,8.730,M,0.4,2441*7B
$GPRMC,053016.40,A,3047.17820669,N,12056.16092929,E,0.03,0.38,031117,5.7,W,D,S*5C
$GPHDT,,T*1B
$GPGGA,053016.45,3047.17820706,N,12056.16092915,E,4,20,0.7,5.798,M,8.730,M,0.4,2441*76
$GPRMC,053016.45,A,3047.17820706,N,12056.16092915,E,0.04,346.26,031117,5.7,W,D,S*57
$GPHDT,,T*1B
$GPGGA,053016.50,3047.17820698,N,12056.16092910,E,4,20,0.7,5.799,M,8.730,M,0.5,2441*71
$GPRMC,053016.50,A,3047.17820698,N,12056.16092910,E,0.03,167.74,031117,5.7,W,D,S*51
$GPHDT,,T*1B
$GPGGA,053016.55,3047.17820679,N,12056.16092869,E,4,20,0.7,5.800,M,8.730,M,0.5,2441*7B
$GPRMC,053016.55,A,3047.17820679,N,12056.16092869,E,0.05,273.13,031117,5.7,W,D,S*55
$GPHDT,,T*1B
$GPGGA,053016.60,3047.17820695,N,12056.16092774,E,4,20,0.7,5.801,M,8.730,M,0.6,2441*7E
$GPRMC,053016.60,A,3047.17820695,N,12056.16092774,E,0.07,296.64,031117,5.7,W,D,S*5B
$GPHDT,,T*1B
$GPGGA,053016.65,3047.17820730,N,12056.16092779,E,4,20,0.7,5.799,M,8.730,M,0.6,2441*76
$GPRMC,053016.65,A,3047.17820730,N,12056.16092779,E,0.04,83.85,031117,5.7,W,D,S*67
$GPHDT,,T*1B
$GPGGA,053016.70,3047.17820757,N,12056.16092793,E,4,20,0.7,5.799,M,8.730,M,0.7,2441*76
$GPRMC,053016.70,A,3047.17820757,N,12056.16092793,E,0.05,326.47,031117,5.7,W,D,S*55
$GPHDT,,T*1B
$GPGGA,053016.75,3047.17820811,N,12056.16092808,E,4,20,0.7,5.798,M,8.730,M,0.7,2441*72
$GPRMC,053016.75,A,3047.17820811,N,12056.16092808,E,0.05,44.06,031117,5.7,W,D,S*62
$GPHDT,,T*1B
$GPGGA,053016.80,3047.17820814,N,12056.16092861,E,4,20,0.7,5.799,M,8.730,M,0.8,2441*7C
$GPRMC,053016.80,A,3047.17820814,N,12056.16092861,E,0.04,123.12,031117,5.7,W,D,S*56
$GPHDT,,T*1B
$GPGGA,053016.85,3047.17820810,N,12056.16092889,E,4,20,0.7,5.798,M,8.730,M,0.8,2441*7A
$GPRMC,053016.85,A,3047.17820810,N,12056.16092889,E,0.02,320.31,031117,5.7,W,D,S*57
$GPHDT,,T*1B
$GPGGA,053016.90,3047.17820769,N,12056.16092889,E,4,20,0.7,5.799,M,8.730,M,0.9,2441*7F
$GPRMC,053016.90,A,3047.17820769,N,12056.16092889,E,0.05,164.68,031117,5.7,W,D,S*5B
$GPHDT,,T*1B
$GPGGA,053016.95,3047.17820781,N,12056.16092952,E,4,20,0.7,5.798,M,8.730,M,0.9,2441*7A
$GPRMC,053016.95,A,3047.17820781,N,12056.16092952,E,0.07,44.26,031117,5.7,W,D,S*64
$GPHDT,,T*1B
$GPGGA,053017.00,3047.17820765,N,12056.16093002,E,4,20,0.7,5.799,M,8.730,M,1.0,2441*79
$GPRMC,053017.00,A,3047.17820765,N,12056.16093002,E,0.05,163.37,031117,5.7,W,D,S*58
$GPHDT,,T*1B
$GPGGA,053017.05,3047.17820748,N,12056.16093076,E,4,20,0.7,5.798,M,8.730,M,1.0,2441*71
$GPRMC,053017.05,A,3047.17820748,N,12056.16093076,E,0.06,73.61,031117,5.7,W,D,S*61
$GPHDT,,T*1B
$GPGGA,053017.10,3047.17820754,N,12056.16093077,E,4,20,0.7,5.802,M,8.730,M,1.1,2441*74
$GPRMC,053017.10,A,3047.17820754,N,12056.16093077,E,0.04,304.39,031117,5.7,W,D,S*55
$GPHDT,,T*1B
$GPGGA,053017.15,3047.17820770,N,12056.16093087,E,4,20,0.7,5.801,M,8.730,M,1.2,2441*78
$GPRMC,053017.15,A,3047.17820770,N,12056.16093087,E,0.03,108.31,031117,5.7,W,D,S*58
$GPHDT,,T*1B
$GPGGA,053017.20,3047.17820747,N,12056.16093083,E,4,20,0.7,5.802,M,8.730,M,1.2,2441*7D
$GPRMC,053017.20,A,3047.17820747,N,12056.16093083,E,0.05,229.79,031117,5.7,W,D,S*54
$GPHDT,,T*1B
$GPGGA,053017.25,3047.17820734,N,12056.16093056,E,4,20,0.7,5.801,M,8.730,M,1.2,2441*77
$GPRMC,053017.25,A,3047.17820734,N,12056.16093056,E,0.01,306.53,031117,5.7,W,D,S*5D
$GPHDT,,T*1B
$GPGGA,053017.30,3047.17820737,N,12056.16093060,E,4,20,0.7,5.802,M,8.730,M,0.3,2441*76
$GPRMC,053017.30,A,3047.17820737,N,12056.16093060,E,0.02,56.13,031117,5.7,W,D,S*6E
$GPHDT,,T*1B
$GPGGA,053017.35,3047.17820743,N,12056.16093064,E,4,20,0.7,5.801,M,8.730,M,0.3,2441*77
$GPRMC,053017.35,A,3047.17820743,N,12056.16093064,E,0.02,319.46,031117,5.7,W,D,S*54
$GPHDT,,T*1B
$GPGGA,053017.40,3047.17820744,N,12056.16093015,E,4,20,0.7,5.801,M,8.730,M,0.4,2441*73
$GPRMC,053017.40,A,3047.17820744,N,12056.16093015,E,0.04,293.89,031117,5.7,W,D,S*51
$GPHDT,,T*1B
$GPGGA,053017.45,3047.17820738,N,12056.16092955,E,4,20,0.7,5.802,M,8.730,M,0.4,2441*72
$GPRMC,053017.45,A,3047.17820738,N,12056.16092955,E,0.03,255.82,031117,5.7,W,D,S*55
$GPHDT,,T*1B
$GPGGA,053017.50,3047.17820757,N,12056.16092927,E,4,20,0.7,5.802,M,8.730,M,0.5,2441*7B
$GPRMC,053017.50,A,3047.17820757,N,12056.16092927,E,0.04,334.75,031117,5.7,W,D,S*54
$GPHDT,,T*1B
$GPGGA,053017.55,3047.17820765,N,12056.16092891,E,4,20,0.7,5.801,M,8.730,M,0.6,2441*73
$GPRMC,053017.55,A,3047.17820765,N,12056.16092891,E,0.02,262.30,031117,5.7,W,D,S*59
$GPHDT,,T*1B
$GPGGA,053017.60,3047.17820748,N,12056.16092886,E,4,20,0.7,5.801,M,8.730,M,0.6,2441*7C
$GPRMC,053017.60,A,3047.17820748,N,12056.16092886,E,0.02,81.49,031117,5.7,W,D,S*67
$GPHDT,,T*1B
$GPGGA,053017.65,3047.17820808,N,12056.16092854,E,4,20,0.7,5.802,M,8.730,M,0.6,2441*7E
$GPRMC,053017.65,A,3047.17820808,N,12056.16092854,E,0.10,324.18,031117,5.7,W,D,S*5D
$GPHDT,,T*1B
$GPGGA,053017.70,3047.17820906,N,12056.16092871,E,4,20,0.7,5.801,M,8.730,M,0.7,2441*70
$GPRMC,053017.70,A,3047.17820906,N,12056.16092871,E,0.09,41.79,031117,5.7,W,D,S*6E
$GPHDT,,T*1B
$GPGGA,053017.75,3047.17820933,N,12056.16092863,E,4,20,0.7,5.802,M,8.730,M,0.7,2441*73
$GPRMC,053017.75,A,3047.17820933,N,12056.16092863,E,0.06,269.20,031117,5.7,W,D,S*55
$GPHDT,,T*1B
$GPGGA,053017.80,3047.17820932,N,12056.16092829,E,4,20,0.7,5.802,M,8.730,M,0.8,2441*79
$GPRMC,053017.80,A,3047.17820932,N,12056.16092829,E,0.01,42.29,031117,5.7,W,D,S*65
$GPHDT,,T*1B
$GPGGA,053017.85,3047.17820960,N,12056.16092863,E,4,20,0.7,5.802,M,8.730,M,0.8,2441*75
$GPRMC,053017.85,A,3047.17820960,N,12056.16092863,E,0.03,39.14,031117,5.7,W,D,S*69
$GPHDT,,T*1B
$GPGGA,053017.90,3047.17821030,N,12056.16092936,E,4,20,0.7,5.802,M,8.730,M,0.9,2441*7C
$GPRMC,053017.90,A,3047.17821030,N,12056.16092936,E,0.08,37.35,031117,5.7,W,D,S*67
$GPHDT,,T*1B
$GPGGA,053017.95,3047.17821113,N,12056.16093029,E,4,20,0.7,5.800,M,8.730,M,1.0,2441*75
$GPRMC,053017.95,A,3047.17821113,N,12056.16093029,E,0.08,39.67,031117,5.7,W,D,S*6D
$GPHDT,,T*1B
$GPGGA,053018.00,3047.17821154,N,12056.16093079,E,4,20,0.7,5.801,M,8.730,M,1.0,2441*71
$GPRMC,053018.00,A,3047.17821154,N,12056.16093079,E,0.02,55.96,031117,5.7,W,D,S*66
$GPHDT,,T*1B
$GPGGA,053018.05,3047.17821181,N,12056.16093110,E,4,20,0.7,5.801,M,8.730,M,1.0,2441*72
$GPRMC,053018.05,A,3047.17821181,N,12056.16093110,E,0.05,33.27,031117,5.7,W,D,S*68
$GPHDT,,T*1B
$GPGGA,053018.10,3047.17821179,N,12056.16093148,E,4,20,0.7,5.802,M,8.730,M,1.1,2441*7E
$GPRMC,053018.10,A,3047.17821179,N,12056.16093148,E,0.04,117.93,031117,5.7,W,D,S*5F
$GPHDT,,T*1B
$GPGGA,053018.15,3047.17821192,N,12056.16093179,E,4,20,0.7,5.802,M,8.730,M,1.1,2441*7C
$GPRMC,053018.15,A,3047.17821192,N,12056.16093179,E,0.05,19.62,031117,5.7,W,D,S*6D
$GPHDT,,T*1B
$GPGGA,053018.20,3047.17821247,N,12056.16093193,E,4,20,0.7,5.803,M,8.730,M,1.2,2441*77
$GPRMC,053018.20,A,3047.17821247,N,12056.16093193,E,0.03,7.83,031117,5.7,W,D,S*52
$GPHDT,,T*1B
$GPGGA,053018.25,3047.17821291,N,12056.16093210,E,4,20,0.7,5.803,M,8.730,M,1.2,2441*71
$GPRMC,053018.25,A,3047.17821291,N,12056.16093210,E,0.06,24.84,031117,5.7,W,D,S*67
$GPHDT,,T*1B
$GPGGA,053018.30,3047.17821353,N,12056.16093252,E,4,20,0.7,5.803,M,8.730,M,0.3,2441*7C
$GPRMC,053018.30,A,3047.17821353,N,12056.16093252,E,0.09,29.43,031117,5.7,W,D,S*63
$GPHDT,,T*1B
$GPGGA,053018.35,3047.17821453,N,12056.16093315,E,4,20,0.7,5.804,M,8.730,M,0.4,2441*7C
$GPRMC,053018.35,A,3047.17821453,N,12056.16093315,E,0.11,28.57,031117,5.7,W,D,S*6E
$GPHDT,,T*1B
$GPGGA,053018.40,3047.17821499,N,12056.16093376,E,4,20,0.7,5.804,M,8.730,M,0.4,2441*7D
$GPRMC,053018.40,A,3047.17821499,N,12056.16093376,E,0.04,77.93,031117,5.7,W,D,S*69
$GPHDT,,T*1B
$GPGGA,053018.45,3047.17821513,N,12056.16093388,E,4,20,0.7,5.805,M,8.730,M,0.4,2441*7B
$GPRMC,053018.45,A,3047.17821513,N,12056.16093388,E,0.03,1.87,031117,5.7,W,D,S*5D
$GPHDT,,T*1B
$GPGGA,053018.50,3047.17821526,N,12056.16093346,E,4,20,0.7,5.807,M,8.730,M,0.5,2441*78
$GPRMC,053018.50,A,3047.17821526,N,12056.16093346,E,0.05,288.89,031117,5.7,W,D,S*56
$GPHDT,,T*1B
$GPGGA,053018.55,3047.17821498,N,12056.16093305,E,4,20,0.7,5.809,M,8.730,M,0.5,2441*70
$GPRMC,053018.55,A,3047.17821498,N,12056.16093305,E,0.03,194.86,031117,5.7,W,D,S*57
$GPHDT,,T*1B
$GPGGA,053018.60,3047.17821363,N,12056.16093293,E,4,20,0.7,5.810,M,8.730,M,0.6,2441*70
$GPRMC,053018.60,A,3047.17821363,N,12056.16093293,E,0.13,183.18,031117,5.7,W,D,S*5C
$GPHDT,,T*1B
$GPGGA,053018.65,3047.17821227,N,12056.16093281,E,4,20,0.7,5.811,M,8.730,M,0.6,2441*76
$GPRMC,053018.65,A,3047.17821227,N,12056.16093281,E,0.05,194.32,031117,5.7,W,D,S*52
$GPHDT,,T*1B
$GPGGA,053018.70,3047.17821155,N,12056.16093300,E,4,20,0.7,5.810,M,8.730,M,0.7,2441*7C
$GPRMC,053018.70,A,3047.17821155,N,12056.16093300,E,0.06,156.41,031117,5.7,W,D,S*51
$GPHDT,,T*1B
$GPGGA,053018.75,3047.17821065,N,12056.16093385,E,4,20,0.7,5.810,M,8.730,M,0.7,2441*76
$GPRMC,053018.75,A,3047.17821065,N,12056.16093385,E,0.10,129.57,031117,5.7,W,D,S*53
$GPHDT,,T*1B
$GPGGA,053018.80,3047.17820975,N,12056.16093472,E,4,20,0.7,5.808,M,8.730,M,0.8,2441*7C
$GPRMC,053018.80,A,3047.17820975,N,12056.16093472,E,0.06,149.25,031117,5.7,W,D,S*5B
$GPHDT,,T*1B
$GPGGA,053018.85,3047.17820911,N,12056.16093617,E,4,20,0.7,5.807,M,8.730,M,0.8,2441*75
$GPRMC,053018.85,A,3047.17820911,N,12056.16093617,E,0.14,108.37,031117,5.7,W,D,S*58
$GPHDT,,T*1B
$GPGGA,053018.90,3047.17820922,N,12056.16093830,E,4,20,0.7,5.806,M,8.730,M,0.9,2441*7A
$GPRMC,053018.90,A,3047.17820922,N,12056.16093830,E,0.12,78.41,031117,5.7,W,D,S*66
$GPHDT,,T*1B
$GPGGA,053018.95,3047.17820841,N,12056.16093931,E,4,20,0.7,5.806,M,8.730,M,0.9,2441*7B
$GPRMC,053018.95,A,3047.17820841,N,12056.16093931,E,0.11,166.87,031117,5.7,W,D,S*50
$GPHDT,,T*1B
$GPGGA,053019.00,3047.17820641,N,12056.16093993,E,4,20,0.7,5.805,M,8.730,M,1.0,2441*7B
$GPRMC,053019.00,A,3047.17820641,N,12056.16093993,E,0.16,160.07,031117,5.7,W,D,S*52
$GPHDT,,T*1B
$GPGGA,053019.05,3047.17820485,N,12056.16094124,E,4,20,0.7,5.802,M,8.730,M,1.0,2441*70
$GPRMC,053019.05,A,3047.17820485,N,12056.16094124,E,0.12,138.15,031117,5.7,W,D,S*54
$GPHDT,,T*1B
$GPGGA,053019.10,3047.17820384,N,12056.16094273,E,4,20,0.7,5.802,M,8.730,M,1.1,2441*72
$GPRMC,053019.10,A,3047.17820384,N,12056.16094273,E,0.11,118.39,031117,5.7,W,D,S*58
$GPHDT,,T*1B
$GPGGA,053019.15,3047.17820152,N,12056.16094444,E,4,20,0.7,5.801,M,8.730,M,1.1,2441*7F
$GPRMC,053019.15,A,3047.17820152,N,12056.16094444,E,0.27,155.79,031117,5.7,W,D,S*5E
$GPHDT,,T*1B
$GPGGA,053019.20,3047.17819741,N,12056.16094575,E,4,20,0.7,5.804,M,8.730,M,1.2,2441*72
$GPRMC,053019.20,A,3047.17819741,N,12056.16094575,E,0.31,169.38,031117,5.7,W,D,S*58
$GPHDT,,T*1B
$GPGGA,053019.25,3047.17819382,N,12056.16094769,E,4,20,0.7,5.804,M,8.730,M,1.2,2441*73
$GPRMC,053019.25,A,3047.17819382,N,12056.16094769,E,0.28,152.66,031117,5.7,W,D,S*52
$GPHDT,,T*1B
$GPGGA,053019.30,3047.17818946,N,12056.16094909,E,4,20,0.7,5.807,M,8.730,M,0.3,2441*7F
$GPRMC,053019.30,A,3047.17818946,N,12056.16094909,E,0.37,171.26,031117,5.7,W,D,S*56
$GPHDT,,T*1B
$GPGGA,053019.35,3047.17818426,N,12056.16095061,E,4,20,0.7,5.812,M,8.730,M,0.3,2441*73
$GPRMC,053019.35,A,3047.17818426,N,12056.16095061,E,0.39,159.66,031117,5.7,W,D,S*5E
$GPHDT,,T*1B
$GPGGA,053019.40,3047.17817876,N,12056.16095317,E,4,20,0.7,5.814,M,8.730,M,0.4,2441*74
$GPRMC,053019.40,A,3047.17817876,N,12056.16095317,E,0.47,160.09,031117,5.7,W,D,S*52
$GPHDT,,T*1B
$GPGGA,053019.45,3047.17817068,N,12056.16095402,E,4,20,0.7,5.814,M,8.730,M,0.4,2441*75
$GPRMC,053019.45,A,3047.17817068,N,12056.16095402,E,0.70,183.16,031117,5.7,W,D,S*54
$GPHDT,,T*1B
$GPGGA,053019.50,3047.17816028,N,12056.16095319,E,4,20,0.7,5.817,M,8.730,M,0.5,2441*7B
$GPRMC,053019.50,A,3047.17816028,N,12056.16095319,E,0.74,183.13,031117,5.7,W,D,S*59
$GPHDT,,T*1B
$GPGGA,053019.55,3047.17814986,N,12056.16095295,E,4,20,0.7,5.819,M,8.730,M,0.5,2441*7A
$GPRMC,053019.55,A,3047.17814986,N,12056.16095295,E,0.75,179.53,031117,5.7,W,D,S*56
$GPHDT,,T*1B
$GPGGA,053019.60,3047.17813672,N,12056.16095267,E,4,20,0.7,5.821,M,8.730,M,0.6,2441*7A
$GPRMC,053019.60,A,3047.17813672,N,12056.16095267,E,1.06,182.16,031117,5.7,W,D,S*5E
$GPHDT,,T*1B
$GPGGA,053019.65,3047.17811985,N,12056.16095199,E,4,20,0.7,5.821,M,8.730,M,0.6,2441*78
$GPRMC,053019.65,A,3047.17811985,N,12056.16095199,E,1.28,181.71,031117,5.7,W,D,S*52
$GPHDT,,T*1B
$GPGGA,053019.70,3047.17810056,N,12056.16095071,E,4,20,0.7,5.820,M,8.730,M,0.7,2441*7D
$GPRMC,053019.70,A,3047.17810056,N,12056.16095071,E,1.40,184.21,031117,5.7,W,D,S*59
$GPHDT,,T*1B
$GPGGA,053019.75,3047.17808030,N,12056.16094924,E,4,20,0.7,5.821,M,8.730,M,0.7,2441*78
$GPRMC,053019.75,A,3047.17808030,N,12056.16094924,E,1.43,182.88,031117,5.7,W,D,S*5B
$GPHDT,,T*1B
$GPGGA,053019.80,3047.17805969,N,12056.16094657,E,4,20,0.7,5.823,M,8.730,M,0.8,2441*7C
$GPRMC,053019.80,A,3047.17805969,N,12056.16094657,E,1.46,189.19,031117,5.7,W,D,S*54
$GPHDT,,T*1B
$GPGGA,053019.85,3047.17803851,N,12056.16094258,E,4,20,0.7,5.825,M,8.730,M,0.8,2441*78
$GPRMC,053019.85,A,3047.17803851,N,12056.16094258,E,1.54,189.18,031117,5.7,W,D,S*54
$GPHDT,,T*1B
$GPGGA,053019.90,3047.17801418,N,12056.16093876,E,4,20,0.7,5.830,M,8.730,M,0.9,2441*7B
$GPRMC,053019.90,A,3047.17801418,N,12056.16093876,E,1.84,186.22,031117,5.7,W,D,S*59
$GPHDT,,T*1B
$GPGGA,053019.95,3047.17798818,N,12056.16093619,E,4,20,0.7,5.838,M,8.730,M,0.9,2441*72
$GPRMC,053019.95,A,3047.17798818,N,12056.16093619,E,1.83,184.12,031117,5.7,W,D,S*5E
$GPHDT,,T*1B
$GPGGA,053020.00,3047.17796212,N,12056.16093370,E,4,20,0.7,5.845,M,8.730,M,1.0,2441*72
$GPRMC,053020.00,A,3047.17796212,N,12056.16093370,E,1.85,185.42,031117,5.7,W,D,S*5E
$GPHDT,,T*1B
$GPGGA,053020.05,3047.17793648,N,12056.16093217,E,4,20,0.7,5.851,M,8.730,M,1.0,2441*7C
$GPRMC,053020.05,A,3047.17793648,N,12056.16093217,E,1.80,181.03,031117,5.7,W,D,S*51
$GPHDT,,T*1B
$GPGGA,053020.10,3047.17790960,N,12056.16093163,E,4,20,0.7,5.855,M,8.730,M,1.1,2441*7B
$GPRMC,053020.10,A,3047.17790960,N,12056.16093163,E,2.02,181.62,031117,5.7,W,D,S*5D
$GPHDT,,T*1B
$GPGGA,053020.15,3047.17788153,N,12056.16093077,E,4,20,0.7,5.853,M,8.730,M,1.1,2441*7D
$GPRMC,053020.15,A,3047.17788153,N,12056.16093077,E,2.02,182.51,031117,5.7,W,D,S*5E
$GPHDT,,T*1B
$GPGGA,053020.20,3047.17785269,N,12056.16092894,E,4,20,0.7,5.852,M,8.730,M,1.2,2441*7A
$GPRMC,053020.20,A,3047.17785269,N,12056.16092894,E,2.08,184.09,031117,5.7,W,D,S*5A
$GPHDT,,T*1B
$GPGGA,053020.25,3047.17782276,N,12056.16092669,E,4,20,0.7,5.847,M,8.730,M,1.2,2441*7E
$GPRMC,053020.25,A,3047.17782276,N,12056.16092669,E,2.20,184.22,031117,5.7,W,D,S*59
$GPHDT,,T*1B
$GPGGA,053020.30,3047.17779143,N,12056.16092434,E,4,20,0.7,5.839,M,8.730,M,0.3,2441*78
$GPRMC,053020.30,A,3047.17779143,N,12056.16092434,E,2.30,184.28,031117,5.7,W,D,S*5D
$GPHDT,,T*1B
$GPGGA,053020.35,3047.17775783,N,12056.16092365,E,4,20,0.7,5.830,M,8.730,M,0.3,2441*71
$GPRMC,053020.35,A,3047.17775783,N,12056.16092365,E,2.46,179.22,031117,5.7,W,D,S*54
$GPHDT,,T*1B
$GPGGA,053020.40,3047.17772378,N,12056.16092577,E,4,20,0.7,5.830,M,8.730,M,0.4,2441*76
$GPRMC,053020.40,A,3047.17772378,N,12056.16092577,E,2.34,175.32,031117,5.7,W,D,S*5C
$GPHDT,,T*1B
$GPGGA,053020.45,3047.17768984,N,12056.16092810,E,4,20,0.7,5.835,M,8.730,M,0.4,2441*78
$GPRMC,053020.45,A,3047.17768984,N,12056.16092810,E,2.43,177.53,031117,5.7,W,D,S*52
$GPHDT,,T*1B
$GPGGA,053020.50,3047.17765722,N,12056.16093029,E,4,20,0.7,5.839,M,8.730,M,0.5,2441*7D
$GPRMC,053020.50,A,3047.17765722,N,12056.16093029,E,2.25,176.75,031117,5.7,W,D,S*5F
$GPHDT,,T*1B
$GPGGA,053020.55,3047.17762482,N,12056.16093062,E,4,20,0.7,5.849,M,8.730,M,0.5,2441*7E
$GPRMC,053020.55,A,3047.17762482,N,12056.16093062,E,2.35,181.34,031117,5.7,W,D,S*57
$GPHDT,,T*1B
$GPGGA,053020.60,3047.17759134,N,12056.16092918,E,4,20,0.7,5.855,M,8.730,M,0.6,2441*73
$GPRMC,053020.60,A,3047.17759134,N,12056.16092918,E,2.41,182.57,031117,5.7,W,D,S*51
$GPHDT,,T*1B
$GPGGA,053020.65,3047.17755875,N,12056.16092934,E,4,20,0.7,5.860,M,8.730,M,0.6,2441*7E
$GPRMC,053020.65,A,3047.17755875,N,12056.16092934,E,2.29,177.42,031117,5.7,W,D,S*5A
$GPHDT,,T*1B
$GPGGA,053020.70,3047.17752636,N,12056.16093005,E,4,20,0.7,5.864,M,8.730,M,0.7,2441*7B
$GPRMC,053020.70,A,3047.17752636,N,12056.16093005,E,2.33,180.06,031117,5.7,W,D,S*59
$GPHDT,,T*1B
$GPGGA,053020.75,3047.17749243,N,12056.16092932,E,4,20,0.7,5.863,M,8.730,M,0.7,2441*79
$GPRMC,053020.75,A,3047.17749243,N,12056.16092932,E,2.52,182.15,031117,5.7,W,D,S*5B
$GPHDT,,T*1B
$GPGGA,053020.80,3047.17745661,N,12056.16092780,E,4,20,0.7,5.857,M,8.730,M,0.8,2441*74
$GPRMC,053020.80,A,3047.17745661,N,12056.16092780,E,2.59,182.46,031117,5.7,W,D,S*53
$GPHDT,,T*1B
$GPGGA,053020.85,3047.17742078,N,12056.16092571,E,4,20,0.7,5.854,M,8.730,M,0.8,2441*77
$GPRMC,053020.85,A,3047.17742078,N,12056.16092571,E,2.58,183.54,031117,5.7,W,D,S*50
$GPHDT,,T*1B
$GPGGA,053020.90,3047.17738392,N,12056.16092248,E,4,20,0.7,5.857,M,8.730,M,0.9,2441*76
$GPRMC,053020.90,A,3047.17738392,N,12056.16092248,E,2.71,184.52,031117,5.7,W,D,S*59
$GPHDT,,T*1B
$GPGGA,053020.95,3047.17734780,N,12056.16091913,E,4,20,0.7,5.859,M,8.730,M,0.9,2441*70
$GPRMC,053020.95,A,3047.17734780,N,12056.16091913,E,2.56,184.33,031117,5.7,W,D,S*53
$GPHDT,,T*1B
$GPGGA,053021.00,3047.17731332,N,12056.16091596,E,4,20,0.7,5.861,M,8.730,M,1.0,2441*77
$GPRMC,053021.00,A,3047.17731332,N,12056.16091596,E,2.45,184.77,031117,5.7,W,D,S*55
$GPHDT,,T*1B
$GPGGA,053021.05,3047.17727974,N,12056.16091324,E,4,20,0.7,5.865,M,8.730,M,1.0,2441*76
$GPRMC,053021.05,A,3047.17727974,N,12056.16091324,E,2.40,183.15,031117,5.7,W,D,S*56
$GPHDT,,T*1B
$GPGGA,053021.10,3047.17724730,N,12056.16091188,E,4,20,0.7,5.867,M,8.730,M,1.1,2441*78
$GPRMC,053021.10,A,3047.17724730,N,12056.16091188,E,2.31,181.39,031117,5.7,W,D,S*51
$GPHDT,,T*1B
$GPGGA,053021.15,3047.17721532,N,12056.16091209,E,4,20,0.7,5.871,M,8.730,M,1.1,2441*75
$GPRMC,053021.15,A,3047.17721532,N,12056.16091209,E,2.30,178.67,031117,5.7,W,D,S*57
$GPHDT,,T*1B
$GPGGA,053021.20,3047.17718272,N,12056.16091300,E,4,20,0.7,5.871,M,8.730,M,1.2,2441*71
$GPRMC,053021.20,A,3047.17718272,N,12056.16091300,E,2.41,179.58,031117,5.7,W,D,S*5B
$GPHDT,,T*1B
$GPGGA,053021.25,3047.17714892,N,12056.16091248,E,4,20,0.7,5.867,M,8.730,M,1.2,2441*76
$GPRMC,053021.25,A,3047.17714892,N,12056.16091248,E,2.45,182.36,031117,5.7,W,D,S*53
$GPHDT,,T*1B
$GPGGA,053021.30,3047.17711496,N,12056.16091066,E,4,20,0.7,5.862,M,8.730,M,0.3,2441*74
$GPRMC,053021.30,A,3047.17711496,N,12056.16091066,E,2.43,182.85,031117,5.7,W,D,S*5A
$GPHDT,,T*1B
$GPGGA,053021.35,3047.17708052,N,12056.16090789,E,4,20,0.7,5.858,M,8.730,M,0.3,2441*7B
$GPRMC,053021.35,A,3047.17708052,N,12056.16090789,E,2.49,184.79,031117,5.7,W,D,S*53
$GPHDT,,T*1B
$GPGGA,053021.40,3047.17704497,N,12056.16090527,E,4,20,0.7,5.857,M,8.730,M,0.4,2441*76
$GPRMC,053021.40,A,3047.17704497,N,12056.16090527,E,2.59,182.33,031117,5.7,W,D,S*5F
$GPHDT,,T*1B
$GPGGA,053021.45,3047.17700793,N,12056.16090423,E,4,20,0.7,5.861,M,8.730,M,0.4,2441*70
$GPRMC,053021.45,A,3047.17700793,N,12056.16090423,E,2.67,180.38,031117,5.7,W,D,S*58
$GPHDT,,T*1B
$GPGGA,053021.50,3047.17697167,N,12056.16090325,E,4,20,0.7,5.863,M,8.730,M,0.5,2441*74
$GPRMC,053021.50,A,3047.17697167,N,12056.16090325,E,2.53,182.16,031117,5.7,W,D,S*56
$GPHDT,,T*1B
$GPGGA,053021.55,3047.17693568,N,12056.16090005,E,4,20,0.7,5.868,M,8.730,M,0.5,2441*74
$GPRMC,053021.55,A,3047.17693568,N,12056.16090005,E,2.63,185.72,031117,5.7,W,D,S*5B
$GPHDT,,T*1B
$GPGGA,053021.60,3047.17689958,N,12056.16089519,E,4,20,0.7,5.867,M,8.730,M,0.6,2441*7A
$GPRMC,053021.60,A,3047.17689958,N,12056.16089519,E,2.62,187.61,031117,5.7,W,D,S*58
$GPHDT,,T*1B
$GPGGA,053021.65,3047.17686428,N,12056.16089030,E,4,20,0.7,5.867,M,8.730,M,0.6,2441*74
$GPRMC,053021.65,A,3047.17686428,N,12056.16089030,E,2.50,185.98,031117,5.7,W,D,S*53
$GPHDT,,T*1B
$GPGGA,053021.70,3047.17682872,N,12056.16088601,E,4,20,0.7,5.865,M,8.730,M,0.7,2441*71
$GPRMC,053021.70,A,3047.17682872,N,12056.16088601,E,2.66,186.01,031117,5.7,W,D,S*53
$GPHDT,,T*1B
$GPGGA,053021.75,3047.17679234,N,12056.16088269,E,4,20,0.7,5.859,M,8.730,M,0.7,2441*7D
$GPRMC,053021.75,A,3047.17679234,N,12056.16088269,E,2.61,183.76,031117,5.7,W,D,S*52
$GPHDT,,T*1B
$GPGGA,053021.80,3047.17675765,N,12056.16088062,E,4,20,0.7,5.850,M,8.730,M,0.8,2441*75
$GPRMC,053021.80,A,3047.17675765,N,12056.16088062,E,2.45,183.24,031117,5.7,W,D,S*5D
$GPHDT,,T*1B
$GPGGA,053021.85,3047.17672167,N,12056.16087778,E,4,20,0.7,5.847,M,8.730,M,0.9,2441*77
$GPRMC,053021.85,A,3047.17672167,N,12056.16087778,E,2.68,184.06,031117,5.7,W,D,S*50
$GPHDT,,T*1B
$GPGGA,053021.90,3047.17668483,N,12056.16087435,E,4,20,0.7,5.848,M,8.730,M,0.9,2441*72
$GPRMC,053021.90,A,3047.17668483,N,12056.16087435,E,2.61,184.84,031117,5.7,W,D,S*59
$GPHDT,,T*1B
$GPGGA,053021.95,3047.17664829,N,12056.16087078,E,4,20,0.7,5.850,M,8.730,M,0.9,2441*73
$GPRMC,053021.95,A,3047.17664829,N,12056.16087078,E,2.65,184.56,031117,5.7,W,D,S*5A
$GPHDT,,T*1B
$GPGGA,053022.00,3047.17661247,N,12056.16086785,E,4,20,0.7,5.850,M,8.730,M,1.0,2441*77
$GPRMC,053022.00,A,3047.17661247,N,12056.16086785,E,2.55,183.63,031117,5.7,W,D,S*54
$GPHDT,,T*1B
$GPGGA,053022.05,3047.17657918,N,12056.16086594,E,4,20,0.7,5.850,M,8.730,M,1.0,2441*74
$GPRMC,053022.05,A,3047.17657918,N,12056.16086594,E,2.28,182.24,031117,5.7,W,D,S*5F
$GPHDT,,T*1B
$GPGGA,053022.10,3047.17654761,N,12056.16086631,E,4,20,0.7,5.850,M,8.730,M,1.1,2441*7E
$GPRMC,053022.10,A,3047.17654761,N,12056.16086631,E,2.29,177.88,031117,5.7,W,D,S*59
$GPHDT,,T*1B
$GPGGA,053022.15,3047.17651393,N,12056.16086762,E,4,20,0.7,5.846,M,8.730,M,1.1,2441*77
$GPRMC,053022.15,A,3047.17651393,N,12056.16086762,E,2.54,179.04,031117,5.7,W,D,S*57
$GPHDT,,T*1B
$GPGGA,053022.20,3047.17647793,N,12056.16086800,E,4,19,0.7,5.840,M,8.730,M,1.2,2441*76
$GPRMC,053022.20,A,3047.17647793,N,12056.16086800,E,2.63,180.45,031117,5.7,W,D,S*5E
$GPHDT,,T*1B
$GPGGA,053022.25,3047.17644253,N,12056.16086744,E,4,19,0.8,5.833,M,8.730,M,1.3,2441*7C
$GPRMC,053022.25,A,3047.17644253,N,12056.16086744,E,2.48,181.28,031117,5.7,W,D,S*5D
$GPHDT,,T*1B
$GPGGA,053022.30,3047.17640606,N,12056.16086652,E,4,19,0.8,5.831,M,8.730,M,0.3,2441*7D
$GPRMC,053022.30,A,3047.17640606,N,12056.16086652,E,2.69,180.66,031117,5.7,W,D,S*57
$GPHDT,,T*1B
$GPGGA,053022.35,3047.17636790,N,12056.16086552,E,4,19,0.8,5.835,M,8.730,M,0.3,2441*70
$GPRMC,053022.35,A,3047.17636790,N,12056.16086552,E,2.71,181.39,031117,5.7,W,D,S*5C
$GPHDT,,T*1B
$GPGGA,053022.40,3047.17632905,N,12056.16086528,E,4,19,0.8,5.841,M,8.730,M,0.4,2441*7D
$GPRMC,053022.40,A,3047.17632905,N,12056.16086528,E,2.82,179.30,031117,5.7,W,D,S*57
$GPHDT,,T*1B
$GPGGA,053022.45,3047.17629196,N,12056.16086566,E,4,19,0.8,5.846,M,8.730,M,0.4,2441*7D
$GPRMC,053022.45,A,3047.17629196,N,12056.16086566,E,2.51,179.88,031117,5.7,W,D,S*5D
$GPHDT,,T*1B
$GPGGA,053022.50,3047.17625512,N,12056.16086554,E,4,19,0.8,5.855,M,8.730,M,0.5,2441*7F
$GPRMC,053022.50,A,3047.17625512,N,12056.16086554,E,2.72,180.22,031117,5.7,W,D,S*5B
$GPHDT,,T*1B
$GPGGA,053022.55,3047.17621853,N,12056.16086551,E,4,19,0.8,5.858,M,8.730,M,0.5,2441*7E
$GPRMC,053022.55,A,3047.17621853,N,12056.16086551,E,2.59,180.10,031117,5.7,W,D,S*5F
$GPHDT,,T*1B
$GPGGA,053022.60,3047.17618251,N,12056.16086446,E,4,19,0.8,5.860,M,8.730,M,0.6,2441*75
$GPRMC,053022.60,A,3047.17618251,N,12056.16086446,E,2.60,182.57,031117,5.7,W,D,S*57
$GPHDT,,T*1B
$GPGGA,053022.65,3047.17614656,N,12056.16086351,E,4,19,0.8,5.856,M,8.730,M,0.7,2441*7A
$GPRMC,053022.65,A,3047.17614656,N,12056.16086351,E,2.60,180.70,031117,5.7,W,D,S*5B
$GPHDT,,T*1B
$GPGGA,053022.70,3047.17610998,N,12056.16086304,E,4,19,0.8,5.853,M,8.730,M,0.7,2441*72
$GPRMC,053022.70,A,3047.17610998,N,12056.16086304,E,2.67,180.86,031117,5.7,W,D,S*58
$GPHDT,,T*1B
$GPGGA,053022.75,3047.17607278,N,12056.16086230,E,4,19,0.8,5.846,M,8.730,M,0.7,2441*76
$GPRMC,053022.75,A,3047.17607278,N,12056.16086230,E,2.69,181.15,031117,5.7,W,D,S*5D
$GPHDT,,T*1B
$GPGGA,053022.80,3047.17603721,N,12056.16086076,E,4,19,0.8,5.845,M,8.730,M,0.8,2441*7D
$GPRMC,053022.80,A,3047.17603721,N,12056.16086076,E,2.44,182.90,031117,5.7,W,D,S*5B
$GPHDT,,T*1B
$GPGGA,053022.85,3047.17600359,N,12056.16085904,E,4,19,0.8,5.848,M,8.730,M,0.8,2441*72
$GPRMC,053022.85,A,3047.17600359,N,12056.16085904,E,2.41,181.86,031117,5.7,W,D,S*58
$GPHDT,,T*1B
$GPGGA,053022.90,3047.17596904,N,12056.16085777,E,4,19,0.8,5.852,M,8.730,M,0.9,2441*78
$GPRMC,053022.90,A,3047.17596904,N,12056.16085777,E,2.57,181.65,031117,5.7,W,D,S*52
$GPHDT,,T*1B
$GPGGA,053022.95,3047.17593688,N,12056.16085706,E,4,19,0.8,5.854,M,8.730,M,0.9,2441*73
$GPRMC,053022.95,A,3047.17593688,N,12056.16085706,E,2.15,180.66,031117,5.7,W,D,S*5B
$GPHDT,,T*1B
$GPGGA,053023.00,3047.17590647,N,12056.16085722,E,4,19,0.8,5.861,M,8.730,M,1.0,2441*76
$GPRMC,053023.00,A,3047.17590647,N,12056.16085722,E,2.23,178.64,031117,5.7,W,D,S*50
$GPHDT,,T*1B
$GPGGA,053023.05,3047.17587656,N,12056.16085824,E,4,19,0.8,5.864,M,8.730,M,1.1,2441*78
$GPRMC,053023.05,A,3047.17587656,N,12056.16085824,E,2.18,179.10,031117,5.7,W,D,S*50
$GPHDT,,T*1B
$GPGGA,053023.10,3047.17584547,N,12056.16085828,E,4,19,0.8,5.858,M,8.730,M,1.1,2441*7F
$GPRMC,053023.10,A,3047.17584547,N,12056.16085828,E,2.39,181.67,031117,5.7,W,D,S*5C
$GPHDT,,T*1B
$GPGGA,053023.15,3047.17581132,N,12056.16085684,E,4,19,0.8,5.856,M,8.730,M,1.1,2441*7F
$GPRMC,053023.15,A,3047.17581132,N,12056.16085684,E,2.50,182.14,031117,5.7,W,D,S*5A
$GPHDT,,T*1B
$GPGGA,053023.20,3047.17577771,N,12056.16085660,E,4,19,0.8,5.854,M,8.730,M,0.2,2441*7B
$GPRMC,053023.20,A,3047.17577771,N,12056.16085660,E,2.39,179.30,031117,5.7,W,D,S*53
$GPHDT,,T*1B
$GPGGA,053023.25,3047.17574490,N,12056.16085729,E,4,19,0.8,5.850,M,8.730,M,0.2,2441*79
$GPRMC,053023.25,A,3047.17574490,N,12056.16085729,E,2.39,179.43,031117,5.7,W,D,S*51
$GPHDT,,T*1B
$GPGGA,053023.30,3047.17571194,N,12056.16085848,E,4,19,0.8,5.845,M,8.730,M,0.3,2441*74
$GPRMC,053023.30,A,3047.17571194,N,12056.16085848,E,2.40,178.12,031117,5.7,W,D,S*52
$GPHDT,,T*1B
$GPGGA,053023.35,3047.17567837,N,12056.16085956,E,4,19,0.8,5.844,M,8.730,M,0.3,2441*79
$GPRMC,053023.35,A,3047.17567837,N,12056.16085956,E,2.44,178.95,031117,5.7,W,D,S*55
$GPHDT,,T*1B
$GPGGA,053023.40,3047.17564420,N,12056.16086066,E,4,19,0.8,5.850,M,8.730,M,0.4,2441*79
$GPRMC,053023.40,A,3047.17564420,N,12056.16086066,E,2.47,177.91,031117,5.7,W,D,S*5F
$GPHDT,,T*1B
$GPGGA,053023.45,3047.17561213,N,12056.16086282,E,4,19,0.8,5.857,M,8.730,M,0.5,2441*71
$GPRMC,053023.45,A,3047.17561213,N,12056.16086282,E,2.20,175.77,031117,5.7,W,D,S*5A
$GPHDT,,T*1B
$GPGGA,053023.50,3047.17558168,N,12056.16086551,E,4,19,0.8,5.861,M,8.730,M,0.5,2441*7C
$GPRMC,053023.50,A,3047.17558168,N,12056.16086551,E,2.23,176.37,031117,5.7,W,D,S*56
$GPHDT,,T*1B
$GPGGA,053023.55,3047.17555033,N,12056.16086709,E,4,19,0.8,5.864,M,8.730,M,0.5,2441*71
$GPRMC,053023.55,A,3047.17555033,N,12056.16086709,E,2.29,178.70,031117,5.7,W,D,S*59
$GPHDT,,T*1B
$GPGGA,053023.60,3047.17551820,N,12056.16086814,E,4,19,0.8,5.863,M,8.730,M,0.6,2441*7E
$GPRMC,053023.60,A,3047.17551820,N,12056.16086814,E,2.35,178.60,031117,5.7,W,D,S*5E
$GPHDT,,T*1B
$GPGGA,053023.65,3047.17548585,N,12056.16086845,E,4,19,0.8,5.857,M,8.730,M,0.6,2441*72
$GPRMC,053023.65,A,3047.17548585,N,12056.16086845,E,2.33,180.99,031117,5.7,W,D,S*52
$GPHDT,,T*1B
$GPGGA,053023.70,3047.17545293,N,12056.16086810,E,4,19,0.8,5.853,M,8.730,M,0.7,2441*7E
$GPRMC,053023.70,A,3047.17545293,N,12056.16086810,E,2.40,180.02,031117,5.7,W,D,S*5D
$GPHDT,,T*1B
$GPGGA,053023.75,3047.17541949,N,12056.16086892,E,4,19,0.8,5.846,M,8.730,M,0.7,2441*7D
$GPRMC,053023.75,A,3047.17541949,N,12056.16086892,E,2.42,178.02,031117,5.7,W,D,S*5F
$GPHDT,,T*1B
$GPGGA,053023.80,3047.17538720,N,12056.16086949,E,4,19,0.8,5.841,M,8.730,M,0.8,2441*77
$GPRMC,053023.80,A,3047.17538720,N,12056.16086949,E,2.23,179.94,031117,5.7,W,D,S*54
$GPHDT,,T*1B
$GPGGA,053023.85,3047.17535653,N,12056.16086934,E,4,19,0.8,5.842,M,8.730,M,0.9,2441*72
$GPRMC,053023.85,A,3047.17535653,N,12056.16086934,E,2.18,179.69,031117,5.7,W,D,S*59
$GPHDT,,T*1B
$GPGGA,053023.90,3047.17532547,N,12056.16086824,E,4,19,0.8,5.847,M,8.730,M,0.9,2441*72
$GPRMC,053023.90,A,3047.17532547,N,12056.16086824,E,2.23,181.90,031117,5.7,W,D,S*55
$GPHDT,,T*1B
$GPGGA,053023.95,3047.17529567,N,12056.16086774,E,4,19,0.8,5.849,M,8.730,M,0.9,2441*7B
$GPRMC,053023.95,A,3047.17529567,N,12056.16086774,E,2.09,179.64,031117,5.7,W,D,S*56
$GPHDT,,T*1B
$GPGGA,053024.00,3047.17526531,N,12056.16086803,E,4,19,0.8,5.856,M,8.730,M,1.0,2441*75
$GPRMC,053024.00,A,3047.17526531,N,12056.16086803,E,2.24,178.70,031117,5.7,W,D,S*55
$GPHDT,,T*1B
$GPGGA,053024.05,3047.17523576,N,12056.16086991,E,4,19,0.8,5.859,M,8.730,M,1.0,2441*73
$GPRMC,053024.05,A,3047.17523576,N,12056.16086991,E,2.06,175.52,031117,5.7,W,D,S*51
$GPHDT,,T*1B
$GPGGA,053024.10,3047.17520552,N,12056.16087202,E,4,19,0.8,5.859,M,8.730,M,1.1,2441*73
$GPRMC,053024.10,A,3047.17520552,N,12056.16087202,E,2.30,177.80,031117,5.7,W,D,S*58
$GPHDT,,T*1B
$GPGGA,053024.15,3047.17517284,N,12056.16087278,E,4,19,0.8,5.856,M,8.730,M,1.1,2441*7C
$GPRMC,053024.15,A,3047.17517284,N,12056.16087278,E,2.38,179.66,031117,5.7,W,D,S*56
$GPHDT,,T*1B
$GPGGA,053024.20,3047.17514055,N,12056.16087303,E,4,19,0.8,5.850,M,8.730,M,1.2,2441*7F
$GPRMC,053024.20,A,3047.17514055,N,12056.16087303,E,2.26,179.63,031117,5.7,W,D,S*5A
$GPHDT,,T*1B
$GPGGA,053024.25,3047.17510798,N,12056.16087278,E,4,19,0.8,5.846,M,8.730,M,1.3,2441*73
$GPRMC,053024.25,A,3047.17510798,N,12056.16087278,E,2.37,180.55,031117,5.7,W,D,S*53
$GPHDT,,T*1B
$GPGGA,053024.30,3047.17507542,N,12056.16087296,E,4,20,0.8,5.846,M,8.730,M,0.3,2441*7F
$GPRMC,053024.30,A,3047.17507542,N,12056.16087296,E,2.28,178.68,031117,5.7,W,D,S*53
$GPHDT,,T*1B
$GPGGA,053024.35,3047.17504308,N,12056.16087462,E,4,20,0.7,5.847,M,8.730,M,0.3,2441*72
$GPRMC,053024.35,A,3047.17504308,N,12056.16087462,E,2.37,176.55,031117,5.7,W,D,S*5E
$GPHDT,,T*1B
$GPGGA,053024.40,3047.17500978,N,12056.16087610,E,4,20,0.7,5.850,M,8.730,M,0.4,2441*7F
$GPRMC,053024.40,A,3047.17500978,N,12056.16087610,E,2.40,178.59,031117,5.7,W,D,S*50
$GPHDT,,T*1B
$GPGGA,053024.45,3047.17497694,N,12056.16087650,E,4,20,0.7,5.857,M,8.730,M,0.4,2441*7B
$GPRMC,053024.45,A,3047.17497694,N,12056.16087650,E,2.29,179.46,031117,5.7,W,D,S*53
$GPHDT,,T*1B
$GPGGA,053024.50,3047.17494583,N,12056.16087698,E,4,20,0.7,5.861,M,8.730,M,0.5,2441*79
$GPRMC,053024.50,A,3047.17494583,N,12056.16087698,E,2.24,179.22,031117,5.7,W,D,S*5A
$GPHDT,,T*1B
$GPGGA,053024.55,3047.17491490,N,12056.16087690,E,4,20,0.7,5.863,M,8.730,M,0.5,2441*70
$GPRMC,053024.55,A,3047.17491490,N,12056.16087690,E,2.24,180.80,031117,5.7,W,D,S*5F
$GPHDT,,T*1B
$GPGGA,053024.60,3047.17488406,N,12056.16087767,E,4,20,0.7,5.860,M,8.730,M,0.6,2441*78
$GPRMC,053024.60,A,3047.17488406,N,12056.16087767,E,2.23,177.70,031117,5.7,W,D,S*57
$GPHDT,,T*1B
$GPGGA,053024.65,3047.17485230,N,12056.16087884,E,4,20,0.7,5.857,M,8.730,M,0.6,2441*75
$GPRMC,053024.65,A,3047.17485230,N,12056.16087884,E,2.31,178.54,031117,5.7,W,D,S*54
$GPHDT,,T*1B
$GPGGA,053024.70,3047.17481912,N,12056.16087899,E,4,20,0.7,5.856,M,8.730,M,0.7,2441*72
$GPRMC,053024.70,A,3047.17481912,N,12056.16087899,E,2.40,180.19,031117,5.7,W,D,S*5B
$GPHDT,,T*1B
$GPGGA,053024.75,3047.17478567,N,12056.16087873,E,4,20,0.7,5.850,M,8.730,M,0.7,2441*7D
$GPRMC,053024.75,A,3047.17478567,N,12056.16087873,E,2.40,180.95,031117,5.7,W,D,S*56
$GPHDT,,T*1B
$GPGGA,053024.80,3047.17475256,N,12056.16087748,E,4,20,0.7,5.848,M,8.730,M,0.8,2441*7E
$GPRMC,053024.80,A,3047.17475256,N,12056.16087748,E,2.35,181.96,031117,5.7,W,D,S*53
$GPHDT,,T*1B
$GPGGA,053024.85,3047.17472016,N,12056.16087511,E,4,20,0.7,5.851,M,8.730,M,0.8,2441*7C
$GPRMC,053024.85,A,3047.17472016,N,12056.16087511,E,2.32,184.03,031117,5.7,W,D,S*57
$GPHDT,,T*1B
$GPGGA,053024.90,3047.17468719,N,12056.16087287,E,4,20,0.7,5.852,M,8.730,M,0.9,2441*71
$GPRMC,053024.90,A,3047.17468719,N,12056.16087287,E,2.44,182.42,031117,5.7,W,D,S*5A
$GPHDT,,T*1B
$GPGGA,053024.95,3047.17465630,N,12056.16087164,E,4,20,0.7,5.855,M,8.730,M,0.9,2441*7A
$GPRMC,053024.95,A,3047.17465630,N,12056.16087164,E,2.05,180.95,031117,5.7,W,D,S*5B
$GPHDT,,T*1B
$GPGGA,053025.00,3047.17462706,N,12056.16087112,E,4,20,0.7,5.861,M,8.730,M,1.0,2441*7A
$GPRMC,053025.00,A,3047.17462706,N,12056.16087112,E,2.18,180.15,031117,5.7,W,D,S*50
$GPHDT,,T*1B
$GPGGA,053025.05,3047.17459737,N,12056.16087130,E,4,20,0.7,5.862,M,8.730,M,1.0,2441*76
$GPRMC,053025.05,A,3047.17459737,N,12056.16087130,E,2.14,179.84,031117,5.7,W,D,S*5D
$GPHDT,,T*1B
$GPGGA,053025.10,3047.17456605,N,12056.16087119,E,4,20,0.7,5.859,M,8.730,M,1.1,2441*7F
$GPRMC,053025.10,A,3047.17456605,N,12056.16087119,E,2.37,180.84,031117,5.7,W,D,S*5A
$GPHDT,,T*1B
$GPGGA,053025.15,3047.17453304,N,12056.16087103,E,4,20,0.7,5.855,M,8.730,M,1.1,2441*7C
$GPRMC,053025.15,A,3047.17453304,N,12056.16087103,E,2.38,179.95,031117,5.7,W,D,S*5C
$GPHDT,,T*1B
$GPGGA,053025.20,3047.17450103,N,12056.16087145,E,4,20,0.7,5.853,M,8.730,M,1.2,2441*7B
$GPRMC,053025.20,A,3047.17450103,N,12056.16087145,E,2.24,179.14,031117,5.7,W,D,S*5A
$GPHDT,,T*1B
$GPGGA,053025.25,3047.17446900,N,12056.16087112,E,4,20,0.7,5.849,M,8.730,M,1.2,2441*7B
$GPRMC,053025.25,A,3047.17446900,N,12056.16087112,E,2.34,181.81,031117,5.7,W,D,S*5B
$GPHDT,,T*1B
$GPGGA,053025.30,3047.17443512,N,12056.16087088,E,4,20,0.7,5.846,M,8.730,M,0.3,2441*78
$GPRMC,053025.30,A,3047.17443512,N,12056.16087088,E,2.54,179.30,031117,5.7,W,D,S*5C
$GPHDT,,T*1B
$GPGGA,053025.35,3047.17440006,N,12056.16087180,E,4,20,0.7,5.843,M,8.730,M,0.3,2441*72
$GPRMC,053025.35,A,3047.17440006,N,12056.16087180,E,2.48,178.18,031117,5.7,W,D,S*55
$GPHDT,,T*1B
$GPGGA,053025.40,3047.17436656,N,12056.16087334,E,4,20,0.7,5.847,M,8.730,M,0.4,2441*7C
$GPRMC,053025.40,A,3047.17436656,N,12056.16087334,E,2.32,176.71,031117,5.7,W,D,S*54
$GPHDT,,T*1B
$GPGGA,053025.45,3047.17433408,N,12056.16087438,E,4,20,0.7,5.853,M,8.730,M,0.4,2441*7B
$GPRMC,053025.45,A,3047.17433408,N,12056.16087438,E,2.28,178.91,031117,5.7,W,D,S*5D
$GPHDT,,T*1B
$GPGGA,053025.50,3047.17430288,N,12056.16087379,E,4,20,0.7,5.858,M,8.730,M,0.5,2441*7A
$GPRMC,053025.50,A,3047.17430288,N,12056.16087379,E,2.20,181.86,031117,5.7,W,D,S*5E
$GPHDT,,T*1B
$GPGGA,053025.55,3047.17427245,N,12056.16087369,E,4,20,0.7,5.860,M,8.730,M,0.5,2441*72
$GPRMC,053025.55,A,3047.17427245,N,12056.16087369,E,2.18,178.24,031117,5.7,W,D,S*58
$GPHDT,,T*1B
$GPGGA,053025.60,3047.17424203,N,12056.16087537,E,4,20,0.7,5.862,M,8.730,M,0.6,2441*79
$GPRMC,053025.60,A,3047.17424203,N,12056.16087537,E,2.12,175.44,031117,5.7,W,D,S*53
$GPHDT,,T*1B
$GPGGA,053025.65,3047.17421146,N,12056.16087784,E,4,20,0.7,5.858,M,8.730,M,0.6,2441*78
$GPRMC,053025.65,A,3047.17421146,N,12056.16087784,E,2.27,176.82,031117,5.7,W,D,S*54
$GPHDT,,T*1B
$GPGGA,053025.70,3047.17417857,N,12056.16087846,E,4,20,0.7,5.851,M,8.730,M,0.7,2441*79
$GPRMC,053025.70,A,3047.17417857,N,12056.16087846,E,2.41,180.69,031117,5.7,W,D,S*51
$GPHDT,,T*1B
$GPGGA,053025.75,3047.17414519,N,12056.16087863,E,4,20,0.7,5.848,M,8.730,M,0.7,2441*77
$GPRMC,053025.75,A,3047.17414519,N,12056.16087863,E,2.36,178.30,031117,5.7,W,D,S*5C
$GPHDT,,T*1B
$GPGGA,053025.80,3047.17411319,N,12056.16087945,E,4,20,0.7,5.846,M,8.730,M,0.8,2441*7A
$GPRMC,053025.80,A,3047.17411319,N,12056.16087945,E,2.22,178.62,031117,5.7,W,D,S*52
$GPHDT,,T*1B
$GPGGA,053025.85,3047.17408225,N,12056.16088032,E,4,20,0.7,5.845,M,8.730,M,0.8,2441*7C
$GPRMC,053025.85,A,3047.17408225,N,12056.16088032,E,2.23,178.20,031117,5.7,W,D,S*50
$GPHDT,,T*1B
$GPGGA,053025.90,3047.17405008,N,12056.16088052,E,4,20,0.7,5.849,M,8.730,M,0.9,2441*73
$GPRMC,053025.90,A,3047.17405008,N,12056.16088052,E,2.36,180.09,031117,5.7,W,D,S*5A
$GPHDT,,T*1B
$GPGGA,053025.95,3047.17401966,N,12056.16088154,E,4,20,0.7,5.854,M,8.730,M,0.9,2441*78
$GPRMC,053025.95,A,3047.17401966,N,12056.16088154,E,2.04,176.38,031117,5.7,W,D,S*57
$GPHDT,,T*1B
$GPGGA,053026.00,3047.17399272,N,12056.16088397,E,4,20,0.7,5.855,M,8.730,M,1.0,2441*7B
$GPRMC,053026.00,A,3047.17399272,N,12056.16088397,E,1.83,175.13,031117,5.7,W,D,S*5B
$GPHDT,,T*1B
$GPGGA,053026.05,3047.17396517,N,12056.16088651,E,4,20,0.7,5.856,M,8.730,M,1.0,2441*79
$GPRMC,053026.05,A,3047.17396517,N,12056.16088651,E,2.07,175.43,031117,5.7,W,D,S*50
$GPHDT,,T*1B
$GPGGA,053026.10,3047.17393423,N,12056.16088860,E,4,20,0.7,5.855,M,8.730,M,1.1,2441*70
$GPRMC,053026.10,A,3047.17393423,N,12056.16088860,E,2.30,177.47,031117,5.7,W,D,S*59
$GPHDT,,T*1B
$GPGGA,053026.15,3047.17390197,N,12056.16088975,E,4,20,0.7,5.855,M,8.730,M,1.1,2441*79
$GPRMC,053026.15,A,3047.17390197,N,12056.16088975,E,2.28,178.42,031117,5.7,W,D,S*53
$GPHDT,,T*1B
$GPGGA,053026.20,3047.17387106,N,12056.16089096,E,4,20,0.7,5.848,M,8.730,M,0.2,2441*7A
$GPRMC,053026.20,A,3047.17387106,N,12056.16089096,E,2.18,178.28,031117,5.7,W,D,S*51
$GPHDT,,T*1B
$GPGGA,053026.25,3047.17384036,N,12056.16089258,E,4,20,0.7,5.844,M,8.730,M,0.2,2441*72
$GPRMC,053026.25,A,3047.17384036,N,12056.16089258,E,2.22,177.09,031117,5.7,W,D,S*50
$GPHDT,,T*1B
$GPGGA,053026.30,3047.17380840,N,12056.16089419,E,4,20,0.7,5.842,M,8.730,M,0.3,2441*7F
$GPRMC,053026.30,A,3047.17380840,N,12056.16089419,E,2.32,177.87,031117,5.7,W,D,S*5D
$GPHDT,,T*1B
$GPGGA,053026.35,3047.17377673,N,12056.16089631,E,4,20,0.7,5.841,M,8.730,M,0.3,2441*77
$GPRMC,053026.35,A,3047.17377673,N,12056.16089631,E,2.22,175.92,031117,5.7,W,D,S*51
$GPHDT,,T*1B
$GPGGA,053026.40,3047.17374587,N,12056.16089919,E,4,20,0.7,5.842,M,8.730,M,0.4,2441*7F
$GPRMC,053026.40,A,3047.17374587,N,12056.16089919,E,2.20,175.36,031117,5.7,W,D,S*51
$GPHDT,,T*1B
$GPGGA,053026.45,3047.17371544,N,12056.16090171,E,4,20,0.7,5.848,M,8.730,M,0.4,2441*74
$GPRMC,053026.45,A,3047.17371544,N,12056.16090171,E,2.14,176.46,031117,5.7,W,D,S*53
$GPHDT,,T*1B
$GPGGA,053026.50,3047.17368570,N,12056.16090417,E,4,20,0.7,5.851,M,8.730,M,0.5,2441*73
$GPRMC,053026.50,A,3047.17368570,N,12056.16090417,E,2.14,175.84,031117,5.7,W,D,S*50
$GPHDT,,T*1B
$GPGGA,053026.55,3047.17365629,N,12056.16090643,E,4,20,0.7,5.854,M,8.730,M,0.5,2441*72
$GPRMC,053026.55,A,3047.17365629,N,12056.16090643,E,2.11,176.95,031117,5.7,W,D,S*52
$GPHDT,,T*1B
$GPGGA,053026.60,3047.17362784,N,12056.16090832,E,4,20,0.7,5.853,M,8.730,M,0.6,2441*79
$GPRMC,053026.60,A,3047.17362784,N,12056.16090832,E,2.02,177.22,031117,5.7,W,D,S*52
$GPHDT,,T*1B
$GPGGA,053026.65,3047.17359814,N,12056.16091022,E,4,20,0.7,5.852,M,8.730,M,0.6,2441*7B
$GPRMC,053026.65,A,3047.17359814,N,12056.16091022,E,2.24,176.87,031117,5.7,W,D,S*5B
$GPHDT,,T*1B
$GPGGA,053026.70,3047.17356747,N,12056.16091154,E,4,20,0.7,5.850,M,8.730,M,0.7,2441*7A
$GPRMC,053026.70,A,3047.17356747,N,12056.16091154,E,2.17,178.53,031117,5.7,W,D,S*5E
$GPHDT,,T*1B
$GPGGA,053026.75,3047.17353763,N,12056.16091127,E,4,20,0.7,5.851,M,8.730,M,0.7,2441*79
$GPRMC,053026.75,A,3047.17353763,N,12056.16091127,E,2.15,181.61,031117,5.7,W,D,S*59
$GPHDT,,T*1B
$GPGGA,053026.80,3047.17350693,N,12056.16091056,E,4,20,0.7,5.853,M,8.730,M,0.8,2441*74
$GPRMC,053026.80,A,3047.17350693,N,12056.16091056,E,2.28,180.56,031117,5.7,W,D,S*52
$GPHDT,,T*1B
$GPGGA,053026.85,3047.17347524,N,12056.16091052,E,4,20,0.7,5.852,M,8.730,M,0.8,2441*7D
$GPRMC,053026.85,A,3047.17347524,N,12056.16091052,E,2.29,179.76,031117,5.7,W,D,S*5F
$GPHDT,,T*1B
$GPGGA,053026.90,3047.17344523,N,12056.16091072,E,4,20,0.7,5.855,M,8.730,M,0.9,2441*79
$GPRMC,053026.90,A,3047.17344523,N,12056.16091072,E,2.05,179.08,031117,5.7,W,D,S*5A
$GPHDT,,T*1B
$GPGGA,053026.95,3047.17341831,N,12056.16091067,E,4,20,0.7,5.857,M,8.730,M,0.9,2441*71
$GPRMC,053026.95,A,3047.17341831,N,12056.16091067,E,1.86,180.69,031117,5.7,W,D,S*59
$GPHDT,,T*1B
$GPGGA,053027.00,3047.17339234,N,12056.16091080,E,4,20,0.7,5.862,M,8.730,M,1.0,2441*7B
$GPRMC,053027.00,A,3047.17339234,N,12056.16091080,E,1.89,178.29,031117,5.7,W,D,S*51
$GPHDT,,T*1B
$GPGGA,053027.05,3047.17336664,N,12056.16091140,E,4,20,0.7,5.862,M,8.730,M,1.0,2441*7D
$GPRMC,053027.05,A,3047.17336664,N,12056.16091140,E,1.84,179.64,031117,5.7,W,D,S*52
$GPHDT,,T*1B
$GPGGA,053027.10,3047.17334028,N,12056.16091215,E,4,20,0.7,5.859,M,8.730,M,1.1,2441*7F
$GPRMC,053027.10,A,3047.17334028,N,12056.16091215,E,1.96,177.99,031117,5.7,W,D,S*56
$GPHDT,,T*1B
$GPGGA,053027.15,3047.17331223,N,12056.16091424,E,4,20,0.7,5.855,M,8.730,M,1.1,2441*7E
$GPRMC,053027.15,A,3047.17331223,N,12056.16091424,E,2.08,175.46,031117,5.7,W,D,S*5F
$GPHDT,,T*1B
$GPGGA,053027.20,3047.17328307,N,12056.16091752,E,4,20,0.7,5.847,M,8.730,M,1.2,2441*75
$GPRMC,053027.20,A,3047.17328307,N,12056.16091752,E,2.12,174.50,031117,5.7,W,D,S*59
$GPHDT,,T*1B
$GPGGA,053027.25,3047.17325377,N,12056.16092037,E,4,20,0.7,5.842,M,8.730,M,1.2,2441*78
$GPRMC,053027.25,A,3047.17325377,N,12056.16092037,E,2.07,176.34,031117,5.7,W,D,S*55
$GPHDT,,T*1B
$GPGGA,053027.30,3047.17322347,N,12056.16092265,E,4,20,0.7,5.839,M,8.730,M,1.3,2441*70
$GPRMC,053027.30,A,3047.17322347,N,12056.16092265,E,2.23,176.24,031117,5.7,W,D,S*57
$GPHDT,,T*1B
$GPGGA,053027.35,3047.17319134,N,12056.16092444,E,4,20,0.7,5.836,M,8.730,M,1.3,2441*71
$GPRMC,053027.35,A,3047.17319134,N,12056.16092444,E,2.34,178.45,031117,5.7,W,D,S*56
$GPHDT,,T*1B
$GPGGA,053027.40,3047.17315989,N,12056.16092686,E,4,20,0.7,5.833,M,8.730,M,1.4,2441*7F
$GPRMC,053027.40,A,3047.17315989,N,12056.16092686,E,2.17,174.61,031117,5.7,W,D,S*51
$GPHDT,,T*1B
$GPGGA,053027.45,3047.17313068,N,12056.16093061,E,4,20,0.7,5.835,M,8.730,M,1.4,2441*72
$GPRMC,053027.45,A,3047.17313068,N,12056.16093061,E,2.03,172.92,031117,5.7,W,D,S*55
$GPHDT,,T*1B
$GPGGA,053027.50,3047.17310129,N,12056.16093314,E,4,20,0.7,5.838,M,8.730,M,1.5,2441*7C
$GPRMC,053027.50,A,3047.17310129,N,12056.16093314,E,2.18,177.84,031117,5.7,W,D,S*5F
$GPHDT,,T*1B
$GPGGA,053027.55,3047.17307097,N,12056.16093436,E,4,20,0.7,5.840,M,8.730,M,1.5,2441*73
$GPRMC,053027.55,A,3047.17307097,N,12056.16093436,E,2.16,178.13,031117,5.7,W,D,S*50
$GPHDT,,T*1B
$GPGGA,053027.60,3047.17304078,N,12056.16093527,E,4,20,0.7,5.842,M,8.730,M,0.6,2441*76
$GPRMC,053027.60,A,3047.17304078,N,12056.16093527,E,2.16,178.62,031117,5.7,W,D,S*53
$GPHDT,,T*1B
$GPGGA,053027.65,3047.17300941,N,12056.16093565,E,4,20,0.7,5.841,M,8.730,M,0.6,2441*71
$GPRMC,053027.65,A,3047.17300941,N,12056.16093565,E,2.32,180.03,031117,5.7,W,D,S*51
$GPHDT,,T*1B
$GPGGA,053027.70,3047.17297760,N,12056.16093618,E,4,20,0.7,5.834,M,8.730,M,0.7,2441*7D
$GPRMC,053027.70,A,3047.17297760,N,12056.16093618,E,2.28,179.05,031117,5.7,W,D,S*55
$GPHDT,,T*1B
$GPGGA,053027.75,3047.17294577,N,12056.16093679,E,4,20,0.7,5.825,M,8.730,M,0.7,2441*78
$GPRMC,053027.75,A,3047.17294577,N,12056.16093679,E,2.29,179.40,031117,5.7,W,D,S*50
$GPHDT,,T*1B
$GPGGA,053027.80,3047.17291343,N,12056.16093665,E,4,20,0.7,5.823,M,8.730,M,0.8,2441*72
$GPRMC,053027.80,A,3047.17291343,N,12056.16093665,E,2.33,180.32,031117,5.7,W,D,S*5B
$GPHDT,,T*1B
$GPGGA,053027.85,3047.17288097,N,12056.16093659,E,4,20,0.7,5.823,M,8.730,M,0.8,2441*7A
$GPRMC,053027.85,A,3047.17288097,N,12056.16093659,E,2.31,179.17,031117,5.7,W,D,S*50
$GPHDT,,T*1B
$GPGGA,053027.90,3047.17284949,N,12056.16093763,E,4,20,0.7,5.825,M,8.730,M,0.9,2441*77
$GPRMC,053027.90,A,3047.17284949,N,12056.16093763,E,2.25,177.50,031117,5.7,W,D,S*52
$GPHDT,,T*1B
$GPGGA,053027.95,3047.17281903,N,12056.16093876,E,4,20,0.7,5.829,M,8.730,M,0.9,2441*7E
$GPRMC,053027.95,A,3047.17281903,N,12056.16093876,E,2.16,178.58,031117,5.7,W,D,S*50
$GPHDT,,T*1B
$GPGGA,053028.00,3047.17278960,N,12056.16093980,E,4,20,0.7,5.835,M,8.730,M,1.0,2441*73
$GPRMC,053028.00,A,3047.17278960,N,12056.16093980,E,2.09,177.53,031117,5.7,W,D,S*52
$GPHDT,,T*1B
$GPGGA,053028.05,3047.17276211,N,12056.16094267,E,4,20,0.7,5.836,M,8.730,M,1.0,2441*73
$GPRMC,053028.05,A,3047.17276211,N,12056.16094267,E,1.93,173.27,031117,5.7,W,D,S*56
$GPHDT,,T*1B
$GPGGA,053028.10,3047.17273326,N,12056.16094637,E,4,20,0.7,5.839,M,8.730,M,1.1,2441*78
$GPRMC,053028.10,A,3047.17273326,N,12056.16094637,E,2.22,174.19,031117,5.7,W,D,S*50
$GPHDT,,T*1B
$GPGGA,053028.15,3047.17270125,N,12056.16094931,E,4,20,0.7,5.836,M,8.730,M,1.1,2441*79
$GPRMC,053028.15,A,3047.17270125,N,12056.16094931,E,2.38,177.22,031117,5.7,W,D,S*5E
$GPHDT,,T*1B
$GPGGA,053028.20,3047.17266845,N,12056.16095154,E,4,20,0.7,5.833,M,8.730,M,1.2,2441*7B
$GPRMC,053028.20,A,3047.17266845,N,12056.16095154,E,2.35,176.48,031117,5.7,W,D,S*5A
$GPHDT,,T*1B
$GPGGA,053028.25,3047.17263645,N,12056.16095391,E,4,20,0.7,5.831,M,8.730,M,1.2,2441*7C
$GPRMC,053028.25,A,3047.17263645,N,12056.16095391,E,2.26,176.34,031117,5.7,W,D,S*56
$GPHDT,,T*1B
$GPGGA,053028.30,3047.17260355,N,12056.16095649,E,4,20,0.7,5.833,M,8.730,M,0.3,2441*7D
$GPRMC,053028.30,A,3047.17260355,N,12056.16095649,E,2.44,175.47,031117,5.7,W,D,S*56
$GPHDT,,T*1B
$GPGGA,053028.35,3047.17256938,N,12056.16095861,E,4,20,0.7,5.831,M,8.730,M,0.3,2441*7A
$GPRMC,053028.35,A,3047.17256938,N,12056.16095861,E,2.47,178.44,031117,5.7,W,D,S*5E
$GPHDT,,T*1B
$GPGGA,053028.40,3047.17253677,N,12056.16096072,E,4,20,0.7,5.831,M,8.730,M,0.4,2441*77
$GPRMC,053028.40,A,3047.17253677,N,12056.16096072,E,2.25,175.49,031117,5.7,W,D,S*50
$GPHDT,,T*1B
$GPGGA,053028.45,3047.17250461,N,12056.16096240,E,4,20,0.7,5.835,M,8.730,M,0.4,2441*73
$GPRMC,053028.45,A,3047.17250461,N,12056.16096240,E,2.32,178.16,031117,5.7,W,D,S*51
$GPHDT,,T*1B
$GPGGA,053028.50,3047.17247190,N,12056.16096303,E,4,20,0.7,5.843,M,8.730,M,0.5,2441*7C
$GPRMC,053028.50,A,3047.17247190,N,12056.16096303,E,2.35,178.87,031117,5.7,W,D,S*51
$GPHDT,,T*1B
$GPGGA,053028.55,3047.17244080,N,12056.16096417,E,4,20,0.7,5.848,M,8.730,M,0.5,2441*73
$GPRMC,053028.55,A,3047.17244080,N,12056.16096417,E,2.17,177.31,031117,5.7,W,D,S*57
$GPHDT,,T*1B
$GPGGA,053028.60,3047.17241031,N,12056.16096583,E,4,20,0.7,5.852,M,8.730,M,0.6,2441*7E
$GPRMC,053028.60,A,3047.17241031,N,12056.16096583,E,2.22,177.36,031117,5.7,W,D,S*53
$GPHDT,,T*1B
$GPGGA,053028.65,3047.17238024,N,12056.16096781,E,4,20,0.7,5.850,M,8.730,M,0.6,2441*73
$GPRMC,053028.65,A,3047.17238024,N,12056.16096781,E,2.16,177.12,031117,5.7,W,D,S*5D
$GPHDT,,T*1B
$GPGGA,053028.70,3047.17234793,N,12056.16096806,E,4,20,0.7,5.847,M,8.730,M,0.7,2441*77
$GPRMC,053028.70,A,3047.17234793,N,12056.16096806,E,2.42,181.31,031117,5.7,W,D,S*57
$GPHDT,,T*1B
$GPGGA,053028.75,3047.17231502,N,12056.16096881,E,4,20,0.7,5.841,M,8.730,M,0.7,2441*74
$GPRMC,053028.75,A,3047.17231502,N,12056.16096881,E,2.29,177.03,031117,5.7,W,D,S*57
$GPHDT,,T*1B
$GPGGA,053028.80,3047.17228168,N,12056.16096909,E,4,20,0.7,5.841,M,8.730,M,0.8,2441*70
$GPRMC,053028.80,A,3047.17228168,N,12056.16096909,E,2.39,180.61,031117,5.7,W,D,S*51
$GPHDT,,T*1B
$GPGGA,053028.85,3047.17224994,N,12056.16096912,E,4,20,0.7,5.840,M,8.730,M,0.8,2441*79
$GPRMC,053028.85,A,3047.17224994,N,12056.16096912,E,2.22,179.69,031117,5.7,W,D,S*5D
$GPHDT,,T*1B
$GPGGA,053028.90,3047.17221797,N,12056.16097000,E,4,20,0.7,5.844,M,8.730,M,0.9,2441*7B
$GPRMC,053028.90,A,3047.17221797,N,12056.16097000,E,2.38,177.22,031117,5.7,W,D,S*50
$GPHDT,,T*1B
$GPGGA,053028.95,3047.17218774,N,12056.16097190,E,4,20,0.7,5.846,M,8.730,M,0.9,2441*73
$GPRMC,053028.95,A,3047.17218774,N,12056.16097190,E,2.06,176.96,031117,5.7,W,D,S*59
$GPHDT,,T*1B
$GPGGA,053029.00,3047.17215932,N,12056.16097419,E,4,20,0.7,5.848,M,8.730,M,1.0,2441*7D
$GPRMC,053029.00,A,3047.17215932,N,12056.16097419,E,2.10,175.32,031117,5.7,W,D,S*5B
$GPHDT,,T*1B
$GPGGA,053029.05,3047.17213176,N,12056.16097624,E,4,20,0.7,5.851,M,8.730,M,1.0,2441*72
$GPRMC,053029.05,A,3047.17213176,N,12056.16097624,E,1.92,177.17,031117,5.7,W,D,S*50
$GPHDT,,T*1B
$GPGGA,053029.10,3047.17210359,N,12056.16097833,E,4,20,0.7,5.852,M,8.730,M,1.1,2441*70
$GPRMC,053029.10,A,3047.17210359,N,12056.16097833,E,2.15,175.89,031117,5.7,W,D,S*59
$GPHDT,,T*1B
$GPGGA,053029.15,3047.17207386,N,12056.16098063,E,4,20,0.7,5.846,M,8.730,M,1.1,2441*76
$GPRMC,053029.15,A,3047.17207386,N,12056.16098063,E,2.15,177.21,031117,5.7,W,D,S*5A
$GPHDT,,T*1B
$GPGGA,053029.20,3047.17204247,N,12056.16098209,E,4,20,0.7,5.839,M,8.730,M,1.2,2441*7A
$GPRMC,053029.20,A,3047.17204247,N,12056.16098209,E,2.33,178.39,031117,5.7,W,D,S*5F
$GPHDT,,T*1B
$GPGGA,053029.25,3047.17201093,N,12056.16098293,E,4,20,0.7,5.833,M,8.730,M,1.2,2441*78
$GPRMC,053029.25,A,3047.17201093,N,12056.16098293,E,2.19,179.17,031117,5.7,W,D,S*52
$GPHDT,,T*1B
$GPGGA,053029.30,3047.17197865,N,12056.16098338,E,4,20,0.7,5.828,M,8.730,M,0.3,2441*7B
$GPRMC,053029.30,A,3047.17197865,N,12056.16098338,E,2.40,179.70,031117,5.7,W,D,S*56
$GPHDT,,T*1B
$GPGGA,053029.35,3047.17194525,N,12056.16098474,E,4,20,0.7,5.826,M,8.730,M,0.3,2441*75
$GPRMC,053029.35,A,3047.17194525,N,12056.16098474,E,2.39,177.02,031117,5.7,W,D,S*53
$GPHDT,,T*1B
$GPGGA,053029.40,3047.17191184,N,12056.16098788,E,4,20,0.7,5.829,M,8.730,M,0.4,2441*75
$GPRMC,053029.40,A,3047.17191184,N,12056.16098788,E,2.37,173.89,031117,5.7,W,D,S*52
$GPHDT,,T*1B
$GPGGA,053029.45,3047.17187943,N,12056.16099118,E,4,20,0.7,5.837,M,8.730,M,0.4,2441*75
$GPRMC,053029.45,A,3047.17187943,N,12056.16099118,E,2.26,175.54,031117,5.7,W,D,S*5B
$GPHDT,,T*1B
$GPGGA,053029.50,3047.17184742,N,12056.16099298,E,4,20,0.7,5.847,M,8.730,M,0.5,2441*70
$GPRMC,053029.50,A,3047.17184742,N,12056.16099298,E,2.32,178.44,031117,5.7,W,D,S*51
$GPHDT,,T*1B
$GPGGA,053029.55,3047.17181573,N,12056.16099312,E,4,20,0.7,5.851,M,8.730,M,0.5,2441*74
$GPRMC,053029.55,A,3047.17181573,N,12056.16099312,E,2.26,181.36,031117,5.7,W,D,S*54
$GPHDT,,T*1B
$GPGGA,053029.60,3047.17178547,N,12056.16099353,E,4,20,0.7,5.852,M,8.730,M,0.6,2441*76
$GPRMC,053029.60,A,3047.17178547,N,12056.16099353,E,2.13,178.13,031117,5.7,W,D,S*51
$GPHDT,,T*1B
$GPGGA,053029.65,3047.17175376,N,12056.16099455,E,4,20,0.7,5.852,M,8.730,M,0.6,2441*7B
$GPRMC,053029.65,A,3047.17175376,N,12056.16099455,E,2.38,178.90,031117,5.7,W,D,S*5E
$GPHDT,,T*1B
$GPGGA,053029.70,3047.17171933,N,12056.16099619,E,4,20,0.7,5.846,M,8.730,M,0.7,2441*7E
$GPRMC,053029.70,A,3047.17171933,N,12056.16099619,E,2.56,177.45,031117,5.7,W,D,S*50
$GPHDT,,T*1B
$GPGGA,053029.75,3047.17168348,N,12056.16099712,E,4,20,0.7,5.846,M,8.730,M,0.7,2441*7F
$GPRMC,053029.75,A,3047.17168348,N,12056.16099712,E,2.55,179.56,031117,5.7,W,D,S*5E
$GPHDT,,T*1B
$GPGGA,053029.80,3047.17164834,N,12056.16099811,E,4,20,0.7,5.843,M,8.730,M,0.8,2441*7F
$GPRMC,053029.80,A,3047.17164834,N,12056.16099811,E,2.53,177.87,031117,5.7,W,D,S*50
$GPHDT,,T*1B
$GPGGA,053029.85,3047.17161475,N,12056.16099863,E,4,20,0.7,5.843,M,8.730,M,0.8,2441*73
$GPRMC,053029.85,A,3047.17161475,N,12056.16099863,E,2.33,179.78,031117,5.7,W,D,S*54
$GPHDT,,T*1B
$GPGGA,053029.90,3047.17158220,N,12056.16099822,E,4,20,0.7,5.846,M,8.730,M,0.9,2441*7A
$GPRMC,053029.90,A,3047.17158220,N,12056.16099822,E,2.34,180.40,031117,5.7,W,D,S*53
$GPHDT,,T*1B
$GPGGA,053029.95,3047.17155232,N,12056.16099885,E,4,20,0.7,5.849,M,8.730,M,0.9,2441*73
$GPRMC,053029.95,A,3047.17155232,N,12056.16099885,E,2.00,177.02,031117,5.7,W,D,S*5C
$GPHDT,,T*1B
$GPGGA,053030.00,3047.17152332,N,12056.16100031,E,4,20,0.7,5.850,M,8.730,M,1.0,2441*77
$GPRMC,053030.00,A,3047.17152332,N,12056.16100031,E,2.20,177.83,031117,5.7,W,D,S*53
$GPHDT,,T*1B
$GPGGA,053030.05,3047.17149369,N,12056.16100240,E,4,20,0.7,5.850,M,8.730,M,1.0,2441*72
$GPRMC,053030.05,A,3047.17149369,N,12056.16100240,E,2.11,176.03,031117,5.7,W,D,S*5D
$GPHDT,,T*1B
$GPGGA,053030.10,3047.17146247,N,12056.16100601,E,4,20,0.7,5.845,M,8.730,M,1.1,2441*70
$GPRMC,053030.10,A,3047.17146247,N,12056.16100601,E,2.39,174.05,031117,5.7,W,D,S*54
$GPHDT,,T*1B
$GPGGA,053030.15,3047.17142821,N,12056.16101004,E,4,20,0.7,5.838,M,8.730,M,1.1,2441*73
$GPRMC,053030.15,A,3047.17142821,N,12056.16101004,E,2.53,175.53,031117,5.7,W,D,S*53
$GPHDT,,T*1B
$GPGGA,053030.20,3047.17139289,N,12056.16101246,E,4,20,0.7,5.830,M,8.730,M,1.2,2441*7E
$GPRMC,053030.20,A,3047.17139289,N,12056.16101246,E,2.54,178.02,031117,5.7,W,D,S*5B
$GPHDT,,T*1B
$GPGGA,053030.25,3047.17135701,N,12056.16101392,E,4,20,0.7,5.826,M,8.730,M,1.2,2441*7D
$GPRMC,053030.25,A,3047.17135701,N,12056.16101392,E,2.56,177.77,031117,5.7,W,D,S*50
$GPHDT,,T*1B
$GPGGA,053030.30,3047.17132246,N,12056.16101590,E,4,20,0.7,5.820,M,8.730,M,0.3,2441*7A
$GPRMC,053030.30,A,3047.17132246,N,12056.16101590,E,2.41,176.59,031117,5.7,W,D,S*5A
$GPHDT,,T*1B
$GPGGA,053030.35,3047.17128581,N,12056.16101729,E,4,20,0.7,5.820,M,8.730,M,0.3,2441*78
$GPRMC,053030.35,A,3047.17128581,N,12056.16101729,E,2.77,178.91,031117,5.7,W,D,S*57
$GPHDT,,T*1B
$GPGGA,053030.40,3047.17124955,N,12056.16101953,E,4,20,0.7,5.827,M,8.730,M,0.4,2441*70
$GPRMC,053030.40,A,3047.17124955,N,12056.16101953,E,2.47,175.14,031117,5.7,W,D,S*5C
$GPHDT,,T*1B
$GPGGA,053030.45,3047.17121545,N,12056.16102247,E,4,20,0.7,5.838,M,8.730,M,0.4,2441*7E
$GPRMC,053030.45,A,3047.17121545,N,12056.16102247,E,2.44,176.02,031117,5.7,W,D,S*5B
$GPHDT,,T*1B
$GPGGA,053030.50,3047.17118115,N,12056.16102534,E,4,20,0.7,5.852,M,8.730,M,0.5,2441*7F
$GPRMC,053030.50,A,3047.17118115,N,12056.16102534,E,2.50,175.79,031117,5.7,W,D,S*5D
$GPHDT,,T*1B
$GPGGA,053030.55,3047.17114709,N,12056.16102730,E,4,20,0.7,5.860,M,8.730,M,0.5,2441*7A
$GPRMC,053030.55,A,3047.17114709,N,12056.16102730,E,2.45,178.84,031117,5.7,W,D,S*52
$GPHDT,,T*1B
$GPGGA,053030.60,3047.17111367,N,12056.16102828,E,4,20,0.7,5.863,M,8.730,M,0.6,2441*73
$GPRMC,053030.60,A,3047.17111367,N,12056.16102828,E,2.45,179.18,031117,5.7,W,D,S*5F
$GPHDT,,T*1B
$GPGGA,053030.65,3047.17108092,N,12056.16102869,E,4,20,0.7,5.860,M,8.730,M,0.6,2441*71
$GPRMC,053030.65,A,3047.17108092,N,12056.16102869,E,2.31,180.34,031117,5.7,W,D,S*55
$GPHDT,,T*1B
$GPGGA,053030.70,3047.17104558,N,12056.16102859,E,4,20,0.7,5.855,M,8.730,M,0.7,2441*7E
$GPRMC,053030.70,A,3047.17104558,N,12056.16102859,E,2.71,179.85,031117,5.7,W,D,S*55
$GPHDT,,T*1B
$GPGGA,053030.75,3047.17100964,N,12056.16102710,E,4,20,0.7,5.852,M,8.730,M,0.7,2441*79
$GPRMC,053030.75,A,3047.17100964,N,12056.16102710,E,2.45,183.80,031117,5.7,W,D,S*52
$GPHDT,,T*1B
$GPGGA,053030.80,3047.17097485,N,12056.16102448,E,4,20,0.7,5.846,M,8.730,M,0.8,2441*7A
$GPRMC,053030.80,A,3047.17097485,N,12056.16102448,E,2.56,183.65,031117,5.7,W,D,S*52
$GPHDT,,T*1B
$GPGGA,053030.85,3047.17093918,N,12056.16102279,E,4,20,0.7,5.847,M,8.730,M,0.8,2441*77
$GPRMC,053030.85,A,3047.17093918,N,12056.16102279,E,2.52,180.68,031117,5.7,W,D,S*54
$GPHDT,,T*1B
$GPGGA,053030.90,3047.17090469,N,12056.16102202,E,4,20,0.7,5.851,M,8.730,M,0.9,2441*71
$GPRMC,053030.90,A,3047.17090469,N,12056.16102202,E,2.38,180.83,031117,5.7,W,D,S*5D
$GPHDT,,T*1B
$GPGGA,053030.95,3047.17087226,N,12056.16102146,E,4,20,0.7,5.858,M,8.730,M,0.9,2441*75
$GPRMC,053030.95,A,3047.17087226,N,12056.16102146,E,2.24,179.80,031117,5.7,W,D,S*58
$GPHDT,,T*1B
$GPGGA,053031.00,3047.17083991,N,12056.16102225,E,4,20,0.7,5.862,M,8.730,M,1.0,2441*7C
$GPRMC,053031.00,A,3047.17083991,N,12056.16102225,E,2.38,178.18,031117,5.7,W,D,S*5D
$GPHDT,,T*1B
$GPGGA,053031.05,3047.17080707,N,12056.16102325,E,4,20,0.7,5.862,M,8.730,M,1.0,2441*7A
$GPRMC,053031.05,A,3047.17080707,N,12056.16102325,E,2.33,179.17,031117,5.7,W,D,S*5E
$GPHDT,,T*1B
$GPGGA,053031.10,3047.17077336,N,12056.16102399,E,4,20,0.7,5.859,M,8.730,M,1.1,2441*7E
$GPRMC,053031.10,A,3047.17077336,N,12056.16102399,E,2.50,179.16,031117,5.7,W,D,S*57
$GPHDT,,T*1B
$GPGGA,053031.15,3047.17073799,N,12056.16102423,E,4,20,0.7,5.856,M,8.730,M,1.1,2441*77
$GPRMC,053031.15,A,3047.17073799,N,12056.16102423,E,2.56,180.21,031117,5.7,W,D,S*55
$GPHDT,,T*1B
$GPGGA,053031.20,3047.17070316,N,12056.16102507,E,4,20,0.7,5.853,M,8.730,M,1.2,2441*70
$GPRMC,053031.20,A,3047.17070316,N,12056.16102507,E,2.44,177.89,031117,5.7,W,D,S*5D
$GPHDT,,T*1B
$GPGGA,053031.25,3047.17066709,N,12056.16102650,E,4,20,0.7,5.853,M,8.730,M,1.2,2441*79
$GPRMC,053031.25,A,3047.17066709,N,12056.16102650,E,2.67,178.04,031117,5.7,W,D,S*5F
$GPHDT,,T*1B
$GPGGA,053031.30,3047.17062921,N,12056.16102740,E,4,20,0.7,5.857,M,8.730,M,0.3,2441*79
$GPRMC,053031.30,A,3047.17062921,N,12056.16102740,E,2.71,179.12,031117,5.7,W,D,S*5A
$GPHDT,,T*1B
$GPGGA,053031.35,3047.17059307,N,12056.16102929,E,4,20,0.7,5.859,M,8.730,M,0.3,2441*75
$GPRMC,053031.35,A,3047.17059307,N,12056.16102929,E,2.52,176.40,031117,5.7,W,D,S*51
$GPHDT,,T*1B
$GPGGA,053031.40,3047.17055910,N,12056.16103187,E,4,20,0.7,5.867,M,8.730,M,0.4,2441*70
$GPRMC,053031.40,A,3047.17055910,N,12056.16103187,E,2.37,175.93,031117,5.7,W,D,S*50
$GPHDT,,T*1B
$GPGGA,053031.45,3047.17052554,N,12056.16103498,E,4,20,0.7,5.874,M,8.730,M,0.4,2441*77
$GPRMC,053031.45,A,3047.17052554,N,12056.16103498,E,2.46,175.25,031117,5.7,W,D,S*5E
$GPHDT,,T*1B
$GPGGA,053031.50,3047.17049131,N,12056.16103775,E,4,20,0.7,5.880,M,8.730,M,0.5,2441*74
$GPRMC,053031.50,A,3047.17049131,N,12056.16103775,E,2.48,176.82,031117,5.7,W,D,S*57
$GPHDT,,T*1B
$GPGGA,053031.55,3047.17045841,N,12056.16104024,E,4,20,0.7,5.875,M,8.730,M,0.5,2441*7D
$GPRMC,053031.55,A,3047.17045841,N,12056.16104024,E,2.30,177.72,031117,5.7,W,D,S*55
$GPHDT,,T*1B
$GPGGA,053031.60,3047.17042493,N,12056.16104232,E,4,20,0.7,5.870,M,8.730,M,0.6,2441*7C
$GPRMC,053031.60,A,3047.17042493,N,12056.16104232,E,2.50,177.18,031117,5.7,W,D,S*58
$GPHDT,,T*1B
$GPGGA,053031.65,3047.17038888,N,12056.16104366,E,4,20,0.7,5.863,M,8.730,M,0.6,2441*70
$GPRMC,053031.65,A,3047.17038888,N,12056.16104366,E,2.65,179.18,031117,5.7,W,D,S*5E
$GPHDT,,T*1B
$GPGGA,053031.70,3047.17035355,N,12056.16104386,E,4,20,0.7,5.857,M,8.730,M,0.7,2441*7A
$GPRMC,053031.70,A,3047.17035355,N,12056.16104386,E,2.46,180.51,031117,5.7,W,D,S*58
$GPHDT,,T*1B
$GPGGA,053031.75,3047.17031785,N,12056.16104261,E,4,20,0.7,5.856,M,8.730,M,0.7,2441*7B
$GPRMC,053031.75,A,3047.17031785,N,12056.16104261,E,2.60,181.49,031117,5.7,W,D,S*54
$GPHDT,,T*1B
$GPGGA,053031.80,3047.17028159,N,12056.16104035,E,4,20,0.7,5.861,M,8.730,M,0.8,2441*76
$GPRMC,053031.80,A,3047.17028159,N,12056.16104035,E,2.58,183.21,031117,5.7,W,D,S*55
$GPHDT,,T*1B
$GPGGA,053031.85,3047.17024607,N,12056.16103771,E,4,20,0.7,5.864,M,8.730,M,0.8,2441*76
$GPRMC,053031.85,A,3047.17024607,N,12056.16103771,E,2.55,183.42,031117,5.7,W,D,S*58
$GPHDT,,T*1B
$GPGGA,053031.90,3047.17021284,N,12056.16103599,E,4,20,0.7,5.867,M,8.730,M,0.9,2441*7E
$GPRMC,053031.90,A,3047.17021284,N,12056.16103599,E,2.27,181.09,031117,5.7,W,D,S*5A
$GPHDT,,T*1B
$GPGGA,053031.95,3047.17017990,N,12056.16103657,E,4,20,0.7,5.874,M,8.730,M,0.9,2441*73
$GPRMC,053031.95,A,3047.17017990,N,12056.16103657,E,2.43,176.78,031117,5.7,W,D,S*59
$GPHDT,,T*1B
