$GPGGA,051433.55,3946.77715105,N,11631.16050807,E,4,21,0.7,29.385,M,-7.733,M,0.5,1084*65
$GPRMC,051433.55,A,3946.77715105,N,11631.16050807,E,0.05,2.18,220817,6.8,W,D,S*55
$GPHDT,56.216,T*03
$GPGGA,051433.60,3946.77715088,N,11631.16050812,E,4,21,0.7,29.386,M,-7.733,M,0.6,1084*63
$GPRMC,051433.60,A,3946.77715088,N,11631.16050812,E,0.05,166.10,220817,6.8,W,D,S*58
$GPHDT,56.206,T*02
$GPGGA,051433.65,3946.77715064,N,11631.16050823,E,4,21,0.7,29.386,M,-7.733,M,0.6,1084*66
$GPRMC,051433.65,A,3946.77715064,N,11631.16050823,E,0.01,41.31,220817,6.8,W,D,S*6E
$GPHDT,56.272,T*01
$GPGGA,051433.70,3946.77715084,N,11631.16050867,E,4,21,0.7,29.387,M,-7.733,M,0.7,1084*6C
$GPRMC,051433.70,A,3946.77715084,N,11631.16050867,E,0.05,58.61,220817,6.8,W,D,S*6D
$GPHDT,56.253,T*02
$GPGGA,051433.75,3946.77715061,N,11631.16050870,E,4,21,0.7,29.388,M,-7.733,M,0.7,1084*6B
$GPRMC,051433.75,A,3946.77715061,N,11631.16050870,E,0.05,214.71,220817,6.8,W,D,S*5E
$GPHDT,56.270,T*03
$GPGGA,051433.80,3946.77715073,N,11631.16050839,E,4,21,0.7,29.387,M,-7.733,M,0.8,1084*6F
$GPRMC,051433.80,A,3946.77715073,N,11631.16050839,E,0.04,357.31,220817,6.8,W,D,S*59
$GPHDT,56.231,T*06
$GPGGA,051433.85,3946.77715077,N,11631.16050838,E,4,21,0.7,29.387,M,-7.733,M,0.8,1084*6F
$GPRMC,051433.85,A,3946.77715077,N,11631.16050838,E,0.01,146.09,220817,6.8,W,D,S*55
$GPHDT,56.244,T*04
$GPGGA,051433.90,3946.77715056,N,11631.16050853,E,4,21,0.7,29.389,M,-7.733,M,0.9,1084*6A
$GPRMC,051433.90,A,3946.77715056,N,11631.16050853,E,0.02,73.19,220817,6.8,W,D,S*6A
$GPHDT,56.281,T*0D
$GPGGA,051433.95,3946.77715095,N,11631.16050860,E,4,21,0.7,29.387,M,-7.733,M,0.9,1084*6E
$GPRMC,051433.95,A,3946.77715095,N,11631.16050860,E,0.03,327.33,220817,6.8,W,D,S*5B
$GPHDT,56.233,T*04
$GPGGA,051434.00,3946.77715056,N,11631.16050854,E,4,21,0.7,29.388,M,-7.733,M,1.0,1084*6A
$GPRMC,051434.00,A,3946.77715056,N,11631.16050854,E,0.04,165.20,220817,6.8,W,D,S*59
$GPHDT,56.243,T*03
$GPGGA,051434.05,3946.77715048,N,11631.16050870,E,4,21,0.7,29.388,M,-7.733,M,1.0,1084*66
$GPRMC,051434.05,A,3946.77715048,N,11631.16050870,E,0.03,19.76,220817,6.8,W,D,S*6B
$GPHDT,56.248,T*08
$GPGGA,051434.10,3946.77715021,N,11631.16050846,E,4,21,0.7,29.390,M,-7.733,M,1.1,1084*60
$GPRMC,051434.10,A,3946.77715021,N,11631.16050846,E,0.04,221.67,220817,6.8,W,D,S*5B
$GPHDT,56.261,T*03
$GPGGA,051434.15,3946.77715026,N,11631.16050832,E,4,21,0.7,29.389,M,-7.733,M,1.1,1084*69
$GPRMC,051434.15,A,3946.77715026,N,11631.16050832,E,0.02,5.16,220817,6.8,W,D,S*5E
$GPHDT,56.214,T*01
$GPGGA,051434.20,3946.77715008,N,11631.16050853,E,4,21,0.7,29.390,M,-7.733,M,1.2,1084*6F
$GPRMC,051434.20,A,3946.77715008,N,11631.16050853,E,0.04,144.58,220817,6.8,W,D,S*5B
$GPHDT,56.220,T*06
$GPGGA,051434.25,3946.77714992,N,11631.16050854,E,4,21,0.7,29.389,M,-7.733,M,1.2,1084*6E
$GPRMC,051434.25,A,3946.77714992,N,11631.16050854,E,0.02,283.07,220817,6.8,W,D,S*56
$GPHDT,56.216,T*03
$GPGGA,051434.30,3946.77714986,N,11631.16050853,E,4,21,0.7,29.389,M,-7.733,M,1.3,1084*69
$GPRMC,051434.30,A,3946.77714986,N,11631.16050853,E,0.02,79.77,220817,6.8,W,D,S*60
$GPHDT,56.274,T*07
$GPGGA,051434.35,3946.77715003,N,11631.16050889,E,4,21,0.7,29.388,M,-7.733,M,1.3,1084*6F
$GPRMC,051434.35,A,3946.77715003,N,11631.16050889,E,0.03,47.24,220817,6.8,W,D,S*6D
$GPHDT,56.257,T*06
$GPGGA,051434.40,3946.77714988,N,11631.16050873,E,4,21,0.7,29.389,M,-7.733,M,1.4,1084*65
$GPRMC,051434.40,A,3946.77714988,N,11631.16050873,E,0.04,241.91,220817,6.8,W,D,S*5C
$GPHDT,56.236,T*01
$GPGGA,051434.45,3946.77715022,N,11631.16050841,E,4,21,0.7,29.388,M,-7.733,M,0.4,1084*69
$GPRMC,051434.45,A,3946.77715022,N,11631.16050841,E,0.05,353.89,220817,6.8,W,D,S*5A
$GPHDT,56.264,T*06
$GPGGA,051434.50,3946.77715020,N,11631.16050845,E,4,21,0.7,29.388,M,-7.733,M,0.5,1084*6A
$GPRMC,051434.50,A,3946.77715020,N,11631.16050845,E,0.04,163.42,220817,6.8,W,D,S*5F
$GPHDT,56.288,T*04
$GPGGA,051434.55,3946.77715020,N,11631.16050840,E,4,21,0.7,29.388,M,-7.733,M,0.5,1084*6A
$GPRMC,051434.55,A,3946.77715020,N,11631.16050840,E,0.05,346.71,220817,6.8,W,D,S*5B
$GPHDT,56.270,T*03
$GPGGA,051434.60,3946.77715033,N,11631.16050846,E,4,21,0.7,29.390,M,-7.733,M,0.6,1084*62
$GPRMC,051434.60,A,3946.77715033,N,11631.16050846,E,0.04,124.68,220817,6.8,W,D,S*56
$GPHDT,56.202,T*06
$GPGGA,051434.65,3946.77715035,N,11631.16050865,E,4,21,0.7,29.389,M,-7.733,M,0.6,1084*68
$GPRMC,051434.65,A,3946.77715035,N,11631.16050865,E,0.01,250.23,220817,6.8,W,D,S*5E
$GPHDT,56.296,T*0B
$GPGGA,051434.70,3946.77715050,N,11631.16050857,E,4,21,0.7,29.389,M,-7.733,M,0.7,1084*6F
$GPRMC,051434.70,A,3946.77715050,N,11631.16050857,E,0.02,15.65,220817,6.8,W,D,S*6A
$GPHDT,56.263,T*01
$GPGGA,051434.75,3946.77715050,N,11631.16050836,E,4,21,0.7,29.390,M,-7.733,M,0.7,1084*65
$GPRMC,051434.75,A,3946.77715050,N,11631.16050836,E,0.03,227.77,220817,6.8,W,D,S*59
$GPHDT,56.240,T*00
$GPGGA,051434.80,3946.77715068,N,11631.16050800,E,4,21,0.7,29.388,M,-7.733,M,0.8,1084*67
$GPRMC,051434.80,A,3946.77715068,N,11631.16050800,E,0.03,325.81,220817,6.8,W,D,S*57
$GPHDT,56.255,T*04
$GPGGA,051434.85,3946.77715068,N,11631.16050804,E,4,21,0.7,29.389,M,-7.733,M,0.8,1084*67
$GPRMC,051434.85,A,3946.77715068,N,11631.16050804,E,0.03,116.08,220817,6.8,W,D,S*55
$GPHDT,56.241,T*01
$GPGGA,051434.90,3946.77715077,N,11631.16050825,E,4,21,0.7,29.388,M,-7.733,M,0.9,1084*6E
$GPRMC,051434.90,A,3946.77715077,N,11631.16050825,E,0.01,344.21,220817,6.8,W,D,S*50
$GPHDT,56.281,T*0D
$GPGGA,051434.95,3946.77715086,N,11631.16050831,E,4,21,0.7,29.389,M,-7.733,M,0.9,1084*61
$GPRMC,051434.95,A,3946.77715086,N,11631.16050831,E,0.03,49.85,220817,6.8,W,D,S*6C
$GPHDT,56.250,T*01
$GPGGA,051435.00,3946.77715107,N,11631.16050823,E,4,21,0.7,29.388,M,-7.733,M,1.0,1084*6E
$GPRMC,051435.00,A,3946.77715107,N,11631.16050823,E,0.02,272.23,220817,6.8,W,D,S*5D
$GPHDT,56.313,T*07
$GPGGA,051435.05,3946.77715096,N,11631.16050805,E,4,21,0.7,29.388,M,-7.733,M,1.0,1084*66
$GPRMC,051435.05,A,3946.77715096,N,11631.16050805,E,0.01,114.72,220817,6.8,W,D,S*51
$GPHDT,56.227,T*01
$GPGGA,051435.10,3946.77715076,N,11631.16050798,E,4,21,0.7,29.389,M,-7.733,M,1.1,1084*67
$GPRMC,051435.10,A,3946.77715076,N,11631.16050798,E,0.02,224.09,220817,6.8,W,D,S*5F
$GPHDT,56.247,T*07
$GPGGA,051435.15,3946.77715093,N,11631.16050820,E,4,21,0.7,29.388,M,-7.733,M,1.1,1084*64
$GPRMC,051435.15,A,3946.77715093,N,11631.16050820,E,0.04,72.29,220817,6.8,W,D,S*68
$GPHDT,56.254,T*05
$GPGGA,051435.20,3946.77715079,N,11631.16050802,E,4,21,0.7,29.387,M,-7.733,M,1.2,1084*6A
$GPRMC,051435.20,A,3946.77715079,N,11631.16050802,E,0.06,242.71,220817,6.8,W,D,S*54
$GPHDT,56.268,T*0A
$GPGGA,051435.25,3946.77715118,N,11631.16050750,E,4,21,0.7,29.387,M,-7.733,M,1.2,1084*61
$GPRMC,051435.25,A,3946.77715118,N,11631.16050750,E,0.08,357.75,220817,6.8,W,D,S*50
$GPHDT,56.246,T*06
$GPGGA,051435.30,3946.77715156,N,11631.16050788,E,4,21,0.7,29.387,M,-7.733,M,1.3,1084*6B
$GPRMC,051435.30,A,3946.77715156,N,11631.16050788,E,0.05,111.74,220817,6.8,W,D,S*57
$GPHDT,56.242,T*02
$GPGGA,051435.35,3946.77715174,N,11631.16050801,E,4,21,0.7,29.386,M,-7.733,M,0.3,1084*60
$GPRMC,051435.35,A,3946.77715174,N,11631.16050801,E,0.04,324.45,220817,6.8,W,D,S*5B
$GPHDT,56.215,T*00
$GPGGA,051435.40,3946.77715187,N,11631.16050772,E,4,21,0.7,29.386,M,-7.733,M,0.4,1084*62
$GPRMC,051435.40,A,3946.77715187,N,11631.16050772,E,0.00,324.45,220817,6.8,W,D,S*5A
$GPHDT,56.244,T*04
$GPGGA,051435.45,3946.77715184,N,11631.16050765,E,4,21,0.7,29.386,M,-7.733,M,0.4,1084*62
$GPRMC,051435.45,A,3946.77715184,N,11631.16050765,E,0.01,194.19,220817,6.8,W,D,S*5B
$GPHDT,56.256,T*07
$GPGGA,051435.50,3946.77715204,N,11631.16050759,E,4,21,0.7,29.384,M,-7.733,M,0.5,1084*61
$GPRMC,051435.50,A,3946.77715204,N,11631.16050759,E,0.03,359.52,220817,6.8,W,D,S*55
$GPHDT,56.271,T*02
$GPGGA,051435.55,3946.77715196,N,11631.16050769,E,4,21,0.7,29.384,M,-7.733,M,0.5,1084*6F
$GPRMC,051435.55,A,3946.77715196,N,11631.16050769,E,0.04,150.07,220817,6.8,W,D,S*57
$GPHDT,56.255,T*04
$GPGGA,051435.60,3946.77715196,N,11631.16050784,E,4,21,0.7,29.383,M,-7.733,M,0.6,1084*6E
$GPRMC,051435.60,A,3946.77715196,N,11631.16050784,E,0.02,8.17,220817,6.8,W,D,S*59
$GPHDT,56.240,T*00
$GPGGA,051435.65,3946.77715205,N,11631.16050793,E,4,21,0.7,29.384,M,-7.733,M,0.6,1084*63
$GPRMC,051435.65,A,3946.77715205,N,11631.16050793,E,0.02,74.99,220817,6.8,W,D,S*6E
$GPHDT,56.298,T*05
$GPGGA,051435.70,3946.77715267,N,11631.16050770,E,4,21,0.7,29.382,M,-7.733,M,0.7,1084*69
$GPRMC,051435.70,A,3946.77715267,N,11631.16050770,E,0.06,319.28,220817,6.8,W,D,S*55
$GPHDT,56.231,T*06
$GPGGA,051435.75,3946.77715254,N,11631.16050757,E,4,21,0.7,29.382,M,-7.733,M,0.7,1084*69
$GPRMC,051435.75,A,3946.77715254,N,11631.16050757,E,0.05,142.45,220817,6.8,W,D,S*51
$GPHDT,56.206,T*02
$GPGGA,051435.80,3946.77715206,N,11631.16050760,E,4,21,0.7,29.382,M,-7.733,M,0.8,1084*6F
$GPRMC,051435.80,A,3946.77715206,N,11631.16050760,E,0.04,189.98,220817,6.8,W,D,S*5E
$GPHDT,56.219,T*0C
$GPGGA,051435.85,3946.77715213,N,11631.16050726,E,4,21,0.7,29.382,M,-7.733,M,0.8,1084*6C
$GPRMC,051435.85,A,3946.77715213,N,11631.16050726,E,0.05,333.53,220817,6.8,W,D,S*58
$GPHDT,56.210,T*05
$GPGGA,051435.90,3946.77715230,N,11631.16050737,E,4,21,0.7,29.381,M,-7.733,M,0.9,1084*6B
$GPRMC,051435.90,A,3946.77715230,N,11631.16050737,E,0.05,136.63,220817,6.8,W,D,S*59
$GPHDT,56.257,T*06
$GPGGA,051435.95,3946.77715185,N,11631.16050724,E,4,21,0.7,29.383,M,-7.733,M,0.9,1084*63
$GPRMC,051435.95,A,3946.77715185,N,11631.16050724,E,0.03,254.57,220817,6.8,W,D,S*55
$GPHDT,56.223,T*05
$GPGGA,051436.00,3946.77715224,N,11631.16050720,E,4,21,0.7,29.381,M,-7.733,M,1.0,1084*6A
$GPRMC,051436.00,A,3946.77715224,N,11631.16050720,E,0.03,34.50,220817,6.8,W,D,S*65
$GPHDT,56.277,T*04
$GPGGA,051436.05,3946.77715259,N,11631.16050731,E,4,21,0.7,29.380,M,-7.733,M,1.0,1084*64
$GPRMC,051436.05,A,3946.77715259,N,11631.16050731,E,0.03,1.40,220817,6.8,W,D,S*5D
$GPHDT,56.258,T*09
$GPGGA,051436.10,3946.77715302,N,11631.16050737,E,4,21,0.7,29.379,M,-7.733,M,1.1,1084*6E
$GPRMC,051436.10,A,3946.77715302,N,11631.16050737,E,0.02,20.23,220817,6.8,W,D,S*67
$GPHDT,56.196,T*08
$GPGGA,051436.15,3946.77715293,N,11631.16050767,E,4,21,0.7,29.379,M,-7.733,M,1.1,1084*67
$GPRMC,051436.15,A,3946.77715293,N,11631.16050767,E,0.04,144.04,220817,6.8,W,D,S*5E
$GPHDT,56.314,T*00
$GPGGA,051436.20,3946.77715305,N,11631.16050747,E,4,21,0.7,29.380,M,-7.733,M,1.2,1084*68
$GPRMC,051436.20,A,3946.77715305,N,11631.16050747,E,0.07,331.61,220817,6.8,W,D,S*54
$GPHDT,56.236,T*01
$GPGGA,051436.25,3946.77715323,N,11631.16050723,E,4,21,0.7,29.379,M,-7.733,M,1.2,1084*6D
$GPRMC,051436.25,A,3946.77715323,N,11631.16050723,E,0.05,182.35,220817,6.8,W,D,S*5E
$GPHDT,56.225,T*03
$GPGGA,051436.30,3946.77715287,N,11631.16050748,E,4,21,0.7,29.380,M,-7.733,M,1.3,1084*6C
$GPRMC,051436.30,A,3946.77715287,N,11631.16050748,E,0.04,63.71,220817,6.8,W,D,S*67
$GPHDT,56.281,T*0D
$GPGGA,051436.35,3946.77715327,N,11631.16050723,E,4,21,0.7,29.378,M,-7.733,M,0.3,1084*69
$GPRMC,051436.35,A,3946.77715327,N,11631.16050723,E,0.06,271.21,220817,6.8,W,D,S*52
$GPHDT,56.231,T*06
$GPGGA,051436.40,3946.77715349,N,11631.16050694,E,4,21,0.7,29.378,M,-7.733,M,0.4,1084*69
$GPRMC,051436.40,A,3946.77715349,N,11631.16050694,E,0.06,42.06,220817,6.8,W,D,S*62
$GPHDT,56.203,T*07
$GPGGA,051436.45,3946.77715337,N,11631.16050700,E,4,21,0.7,29.379,M,-7.733,M,0.4,1084*68
$GPRMC,051436.45,A,3946.77715337,N,11631.16050700,E,0.06,203.33,220817,6.8,W,D,S*53
$GPHDT,56.247,T*07
$GPGGA,051436.50,3946.77715295,N,11631.16050676,E,4,21,0.7,29.379,M,-7.733,M,0.5,1084*64
$GPRMC,051436.50,A,3946.77715295,N,11631.16050676,E,0.02,192.56,220817,6.8,W,D,S*52
$GPHDT,56.244,T*04
$GPGGA,051436.55,3946.77715282,N,11631.16050685,E,4,21,0.7,29.380,M,-7.733,M,0.5,1084*6D
$GPRMC,051436.55,A,3946.77715282,N,11631.16050685,E,0.02,81.96,220817,6.8,W,D,S*62
$GPHDT,56.227,T*01
$GPGGA,051436.60,3946.77715330,N,11631.16050697,E,4,21,0.7,29.378,M,-7.733,M,0.6,1084*64
$GPRMC,051436.60,A,3946.77715330,N,11631.16050697,E,0.04,347.80,220817,6.8,W,D,S*57
$GPHDT,56.264,T*06
$GPGGA,051436.65,3946.77715322,N,11631.16050681,E,4,21,0.7,29.380,M,-7.733,M,0.6,1084*62
$GPRMC,051436.65,A,3946.77715322,N,11631.16050681,E,0.03,180.03,220817,6.8,W,D,S*53
$GPHDT,56.265,T*07
$GPGGA,051436.70,3946.77715347,N,11631.16050687,E,4,21,0.7,29.379,M,-7.733,M,0.7,1084*64
$GPRMC,051436.70,A,3946.77715347,N,11631.16050687,E,0.04,6.78,220817,6.8,W,D,S*56
$GPHDT,56.218,T*0D
$GPGGA,051436.75,3946.77715366,N,11631.16050687,E,4,21,0.7,29.379,M,-7.733,M,0.7,1084*62
$GPRMC,051436.75,A,3946.77715366,N,11631.16050687,E,0.02,200.04,220817,6.8,W,D,S*59
$GPHDT,56.265,T*07
$GPGGA,051436.80,3946.77715365,N,11631.16050697,E,4,21,0.7,29.378,M,-7.733,M,0.8,1084*64
$GPRMC,051436.80,A,3946.77715365,N,11631.16050697,E,0.03,50.44,220817,6.8,W,D,S*63
$GPHDT,56.221,T*07
$GPGGA,051436.85,3946.77715330,N,11631.16050720,E,4,21,0.7,29.380,M,-7.733,M,0.8,1084*6B
$GPRMC,051436.85,A,3946.77715330,N,11631.16050720,E,0.04,160.10,220817,6.8,W,D,S*5F
$GPHDT,56.253,T*02
$GPGGA,051436.90,3946.77715364,N,11631.16050724,E,4,21,0.7,29.378,M,-7.733,M,0.9,1084*6C
$GPRMC,051436.90,A,3946.77715364,N,11631.16050724,E,0.05,348.42,220817,6.8,W,D,S*50
$GPHDT,56.271,T*02
$GPGGA,051436.95,3946.77715390,N,11631.16050687,E,4,21,0.7,29.378,M,-7.733,M,0.9,1084*6A
$GPRMC,051436.95,A,3946.77715390,N,11631.16050687,E,0.03,303.43,220817,6.8,W,D,S*5E
$GPHDT,56.275,T*06
$GPGGA,051437.00,3946.77715368,N,11631.16050683,E,4,21,0.7,29.379,M,-7.733,M,1.0,1084*6D
$GPRMC,051437.00,A,3946.77715368,N,11631.16050683,E,0.03,146.06,220817,6.8,W,D,S*52
$GPHDT,56.277,T*04
$GPGGA,051437.05,3946.77715367,N,11631.16050692,E,4,21,0.7,29.379,M,-7.733,M,1.0,1084*67
$GPRMC,051437.05,A,3946.77715367,N,11631.16050692,E,0.02,336.67,220817,6.8,W,D,S*5B
$GPHDT,56.283,T*0F
$GPGGA,051437.10,3946.77715400,N,11631.16050659,E,4,21,0.7,29.377,M,-7.733,M,1.1,1084*6D
$GPRMC,051437.10,A,3946.77715400,N,11631.16050659,E,0.03,299.22,220817,6.8,W,D,S*5A
$GPHDT,56.305,T*00
$GPGGA,051437.15,3946.77715373,N,11631.16050671,E,4,21,0.7,29.379,M,-7.733,M,1.1,1084*6F
$GPRMC,051437.15,A,3946.77715373,N,11631.16050671,E,0.05,106.73,220817,6.8,W,D,S*51
$GPHDT,56.272,T*01
$GPGGA,051437.20,3946.77715415,N,11631.16050704,E,4,21,0.7,29.375,M,-7.733,M,1.2,1084*62
$GPRMC,051437.20,A,3946.77715415,N,11631.16050704,E,0.04,339.90,220817,6.8,W,D,S*51
$GPHDT,56.201,T*05
$GPGGA,051437.25,3946.77715370,N,11631.16050699,E,4,21,0.7,29.378,M,-7.733,M,0.2,1084*6A
$GPRMC,051437.25,A,3946.77715370,N,11631.16050699,E,0.05,164.64,220817,6.8,W,D,S*55
$GPHDT,56.308,T*0D
$GPGGA,051437.30,3946.77715364,N,11631.16050689,E,4,21,0.7,29.379,M,-7.733,M,0.3,1084*6A
$GPRMC,051437.30,A,3946.77715364,N,11631.16050689,E,0.03,323.94,220817,6.8,W,D,S*5D
$GPHDT,56.211,T*04
$GPGGA,051437.35,3946.77715360,N,11631.16050662,E,4,21,0.7,29.380,M,-7.733,M,0.3,1084*68
$GPRMC,051437.35,A,3946.77715360,N,11631.16050662,E,0.04,184.98,220817,6.8,W,D,S*5D
$GPHDT,56.267,T*05
$GPGGA,051437.40,3946.77715397,N,11631.16050679,E,4,21,0.7,29.378,M,-7.733,M,0.4,1084*68
$GPRMC,051437.40,A,3946.77715397,N,11631.16050679,E,0.06,15.44,220817,6.8,W,D,S*67
$GPHDT,56.287,T*0B
$GPGGA,051437.45,3946.77715422,N,11631.16050707,E,4,21,0.7,29.378,M,-7.733,M,0.4,1084*6C
$GPRMC,051437.45,A,3946.77715422,N,11631.16050707,E,0.02,105.53,220817,6.8,W,D,S*51
$GPHDT,56.266,T*04
$GPGGA,051437.50,3946.77715390,N,11631.16050714,E,4,21,0.7,29.378,M,-7.733,M,0.5,1084*65
$GPRMC,051437.50,A,3946.77715390,N,11631.16050714,E,0.04,184.01,220817,6.8,W,D,S*51
$GPHDT,56.299,T*04
$GPGGA,051437.55,3946.77715371,N,11631.16050719,E,4,21,0.7,29.379,M,-7.733,M,0.5,1084*63
$GPRMC,051437.55,A,3946.77715371,N,11631.16050719,E,0.02,29.26,220817,6.8,W,D,S*63
$GPHDT,56.174,T*04
$GPGGA,051437.60,3946.77715361,N,11631.16050722,E,4,21,0.7,29.379,M,-7.733,M,0.6,1084*6F
$GPRMC,051437.60,A,3946.77715361,N,11631.16050722,E,0.03,185.43,220817,6.8,W,D,S*59
$GPHDT,56.287,T*0B
$GPGGA,051437.65,3946.77715394,N,11631.16050698,E,4,21,0.7,29.378,M,-7.733,M,0.6,1084*61
$GPRMC,051437.65,A,3946.77715394,N,11631.16050698,E,0.06,334.47,220817,6.8,W,D,S*5F
$GPHDT,56.228,T*0E
$GPGGA,051437.70,3946.77715380,N,11631.16050700,E,4,21,0.7,29.380,M,-7.733,M,0.7,1084*66
$GPRMC,051437.70,A,3946.77715380,N,11631.16050700,E,0.04,140.28,220817,6.8,W,D,S*54
$GPHDT,56.274,T*07
$GPGGA,051437.75,3946.77715404,N,11631.16050703,E,4,21,0.7,29.380,M,-7.733,M,0.7,1084*6B
$GPRMC,051437.75,A,3946.77715404,N,11631.16050703,E,0.06,338.55,220817,6.8,W,D,S*5C
$GPHDT,56.233,T*04
$GPGGA,051437.80,3946.77715393,N,11631.16050694,E,4,21,0.7,29.380,M,-7.733,M,0.8,1084*68
$GPRMC,051437.80,A,3946.77715393,N,11631.16050694,E,0.06,166.07,220817,6.8,W,D,S*5E
$GPHDT,56.232,T*05
$GPGGA,051437.85,3946.77715366,N,11631.16050720,E,4,21,0.7,29.380,M,-7.733,M,0.8,1084*69
$GPRMC,051437.85,A,3946.77715366,N,11631.16050720,E,0.02,74.78,220817,6.8,W,D,S*61
$GPHDT,56.256,T*07
$GPGGA,051437.90,3946.77715377,N,11631.16050770,E,4,21,0.7,29.379,M,-7.733,M,0.9,1084*6F
$GPRMC,051437.90,A,3946.77715377,N,11631.16050770,E,0.03,78.48,220817,6.8,W,D,S*6E
$GPHDT,56.270,T*03
$GPGGA,051437.95,3946.77715389,N,11631.16050756,E,4,21,0.7,29.379,M,-7.733,M,0.9,1084*6F
$GPRMC,051437.95,A,3946.77715389,N,11631.16050756,E,0.05,295.19,220817,6.8,W,D,S*5D
$GPHDT,56.279,T*0A
$GPGGA,051438.00,3946.77715402,N,11631.16050690,E,4,21,0.7,29.378,M,-7.733,M,1.0,1084*6A
$GPRMC,051438.00,A,3946.77715402,N,11631.16050690,E,0.03,262.67,220817,6.8,W,D,S*56
$GPHDT,56.277,T*04
$GPGGA,051438.05,3946.77715377,N,11631.16050702,E,4,21,0.7,29.380,M,-7.733,M,1.0,1084*67
$GPRMC,051438.05,A,3946.77715377,N,11631.16050702,E,0.04,100.33,220817,6.8,W,D,S*5D
$GPHDT,56.245,T*05
$GPGGA,051438.10,3946.77715389,N,11631.16050739,E,4,21,0.7,29.379,M,-7.733,M,1.1,1084*6D
$GPRMC,051438.10,A,3946.77715389,N,11631.16050739,E,0.01,344.07,220817,6.8,W,D,S*50
$GPHDT,56.271,T*02
$GPGGA,051438.15,3946.77715389,N,11631.16050702,E,4,21,0.7,29.379,M,-7.733,M,1.1,1084*60
$GPRMC,051438.15,A,3946.77715389,N,11631.16050702,E,0.03,280.65,220817,6.8,W,D,S*52
$GPHDT,56.218,T*0D
$GPGGA,051438.20,3946.77715406,N,11631.16050683,E,4,21,0.7,29.379,M,-7.733,M,1.2,1084*6D
$GPRMC,051438.20,A,3946.77715406,N,11631.16050683,E,0.02,16.95,220817,6.8,W,D,S*6F
$GPHDT,56.262,T*00
$GPGGA,051438.25,3946.77715426,N,11631.16050733,E,4,21,0.7,29.378,M,-7.733,M,0.2,1084*60
$GPRMC,051438.25,A,3946.77715426,N,11631.16050733,E,0.05,73.21,220817,6.8,W,D,S*69
$GPHDT,56.279,T*0A
$GPGGA,051438.30,3946.77715421,N,11631.16050783,E,4,21,0.7,29.379,M,-7.733,M,0.3,1084*68
$GPRMC,051438.30,A,3946.77715421,N,11631.16050783,E,0.01,137.12,220817,6.8,W,D,S*54
$GPHDT,56.272,T*01
$GPGGA,051438.35,3946.77715415,N,11631.16050775,E,4,21,0.7,29.379,M,-7.733,M,0.3,1084*63
$GPRMC,051438.35,A,3946.77715415,N,11631.16050775,E,0.02,256.45,220817,6.8,W,D,S*5A
$GPHDT,56.210,T*05
$GPGGA,051438.40,3946.77715422,N,11631.16050805,E,4,21,0.7,29.379,M,-7.733,M,0.4,1084*6A
$GPRMC,051438.40,A,3946.77715422,N,11631.16050805,E,0.05,65.66,220817,6.8,W,D,S*60
$GPHDT,56.265,T*07
$GPGGA,051438.45,3946.77715448,N,11631.16050818,E,4,21,0.7,29.378,M,-7.733,M,0.4,1084*6E
$GPRMC,051438.45,A,3946.77715448,N,11631.16050818,E,0.03,288.58,220817,6.8,W,D,S*5F
$GPHDT,56.263,T*01
$GPGGA,051438.50,3946.77715463,N,11631.16050809,E,4,21,0.7,29.378,M,-7.733,M,0.5,1084*62
$GPRMC,051438.50,A,3946.77715463,N,11631.16050809,E,0.02,54.59,220817,6.8,W,D,S*61
$GPHDT,56.276,T*05
$GPGGA,051438.55,3946.77715475,N,11631.16050821,E,4,21,0.7,29.377,M,-7.733,M,0.5,1084*65
$GPRMC,051438.55,A,3946.77715475,N,11631.16050821,E,0.01,324.06,220817,6.8,W,D,S*54
$GPHDT,56.257,T*06
$GPGGA,051438.60,3946.77715487,N,11631.16050829,E,4,21,0.7,29.375,M,-7.733,M,0.6,1084*67
$GPRMC,051438.60,A,3946.77715487,N,11631.16050829,E,0.02,75.31,220817,6.8,W,D,S*67
$GPHDT,56.263,T*01
$GPGGA,051438.65,3946.77715425,N,11631.16050846,E,4,21,0.7,29.377,M,-7.733,M,0.6,1084*61
$GPRMC,051438.65,A,3946.77715425,N,11631.16050846,E,0.05,168.12,220817,6.8,W,D,S*58
$GPHDT,56.234,T*03
$GPGGA,051438.70,3946.77715437,N,11631.16050841,E,4,21,0.7,29.377,M,-7.733,M,0.7,1084*60
$GPRMC,051438.70,A,3946.77715437,N,11631.16050841,E,0.05,343.37,220817,6.8,W,D,S*54
$GPHDT,56.269,T*0B
$GPGGA,051438.75,3946.77715489,N,11631.16050865,E,4,21,0.7,29.376,M,-7.733,M,0.7,1084*67
$GPRMC,051438.75,A,3946.77715489,N,11631.16050865,E,0.04,69.37,220817,6.8,W,D,S*68
$GPHDT,56.305,T*00
$GPGGA,051438.80,3946.77715482,N,11631.16050854,E,4,21,0.7,29.376,M,-7.733,M,0.8,1084*6B
$GPRMC,051438.80,A,3946.77715482,N,11631.16050854,E,0.05,263.82,220817,6.8,W,D,S*5C
$GPHDT,56.280,T*0C
$GPGGA,051438.85,3946.77715483,N,11631.16050830,E,4,21,0.7,29.375,M,-7.733,M,0.8,1084*6E
$GPRMC,051438.85,A,3946.77715483,N,11631.16050830,E,0.03,57.52,220817,6.8,W,D,S*64
$GPHDT,56.225,T*03
$GPGGA,051438.90,3946.77715481,N,11631.16050842,E,4,21,0.7,29.377,M,-7.733,M,0.9,1084*6E
$GPRMC,051438.90,A,3946.77715481,N,11631.16050842,E,0.01,356.49,220817,6.8,W,D,S*5D
$GPHDT,56.286,T*0A
$GPGGA,051438.95,3946.77715472,N,11631.16050826,E,4,21,0.7,29.376,M,-7.733,M,0.9,1084*64
$GPRMC,051438.95,A,3946.77715472,N,11631.16050826,E,0.03,215.57,220817,6.8,W,D,S*5D
$GPHDT,56.231,T*06
$GPGGA,051439.00,3946.77715472,N,11631.16050816,E,4,21,0.7,29.376,M,-7.733,M,1.0,1084*62
$GPRMC,051439.00,A,3946.77715472,N,11631.16050816,E,0.03,16.94,220817,6.8,W,D,S*6D
$GPHDT,56.299,T*04
$GPGGA,051439.05,3946.77715491,N,11631.16050817,E,4,21,0.7,29.376,M,-7.733,M,1.0,1084*6B
$GPRMC,051439.05,A,3946.77715491,N,11631.16050817,E,0.00,278.05,220817,6.8,W,D,S*55
$GPHDT,56.231,T*06
$GPGGA,051439.10,3946.77715485,N,11631.16050845,E,4,21,0.7,29.377,M,-7.733,M,1.1,1084*6D
$GPRMC,051439.10,A,3946.77715485,N,11631.16050845,E,0.03,91.74,220817,6.8,W,D,S*63
$GPHDT,56.230,T*07
$GPGGA,051439.15,3946.77715465,N,11631.16050853,E,4,21,0.7,29.377,M,-7.733,M,1.1,1084*61
$GPRMC,051439.15,A,3946.77715465,N,11631.16050853,E,0.03,221.40,220817,6.8,W,D,S*51
$GPHDT,56.245,T*05
$GPGGA,051439.20,3946.77715436,N,11631.16050846,E,4,21,0.7,29.377,M,-7.733,M,1.2,1084*66
$GPRMC,051439.20,A,3946.77715436,N,11631.16050846,E,0.02,151.49,220817,6.8,W,D,S*59
$GPHDT,56.310,T*04
$GPGGA,051439.25,3946.77715469,N,11631.16050830,E,4,21,0.7,29.378,M,-7.733,M,1.2,1084*67
$GPRMC,051439.25,A,3946.77715469,N,11631.16050830,E,0.07,339.51,220817,6.8,W,D,S*57
$GPHDT,56.282,T*0E
$GPGGA,051439.30,3946.77715519,N,11631.16050796,E,4,21,0.7,29.378,M,-7.733,M,1.3,1084*67
$GPRMC,051439.30,A,3946.77715519,N,11631.16050796,E,0.01,258.12,220817,6.8,W,D,S*51
$GPHDT,56.224,T*02
$GPGGA,051439.35,3946.77715472,N,11631.16050805,E,4,21,0.7,29.377,M,-7.733,M,1.3,1084*64
$GPRMC,051439.35,A,3946.77715472,N,11631.16050805,E,0.06,163.80,220817,6.8,W,D,S*5A
$GPHDT,56.271,T*02
$GPGGA,051439.40,3946.77715475,N,11631.16050840,E,4,21,0.7,29.377,M,-7.733,M,1.4,1084*67
$GPRMC,051439.40,A,3946.77715475,N,11631.16050840,E,0.06,19.19,220817,6.8,W,D,S*62
$GPHDT,56.292,T*0F
$GPGGA,051439.45,3946.77715503,N,11631.16050833,E,4,21,0.7,29.378,M,-7.733,M,1.4,1084*69
$GPRMC,051439.45,A,3946.77715503,N,11631.16050833,E,0.02,266.97,220817,6.8,W,D,S*5B
$GPHDT,56.276,T*05
$GPGGA,051439.50,3946.77715509,N,11631.16050812,E,4,21,0.7,29.379,M,-7.733,M,1.5,1084*64
$GPRMC,051439.50,A,3946.77715509,N,11631.16050812,E,0.01,13.42,220817,6.8,W,D,S*6D
$GPHDT,56.214,T*01
$GPGGA,051439.55,3946.77715509,N,11631.16050817,E,4,21,0.7,29.378,M,-7.733,M,0.5,1084*64
$GPRMC,051439.55,A,3946.77715509,N,11631.16050817,E,0.02,131.21,220817,6.8,W,D,S*5A
$GPHDT,56.189,T*06
$GPGGA,051439.60,3946.77715478,N,11631.16050812,E,4,21,0.7,29.378,M,-7.733,M,0.6,1084*63
$GPRMC,051439.60,A,3946.77715478,N,11631.16050812,E,0.02,167.15,220817,6.8,W,D,S*5A
$GPHDT,56.284,T*08
$GPGGA,051439.65,3946.77715505,N,11631.16050818,E,4,21,0.7,29.377,M,-7.733,M,0.6,1084*68
$GPRMC,051439.65,A,3946.77715505,N,11631.16050818,E,0.05,15.88,220817,6.8,W,D,S*69
$GPHDT,56.308,T*0D
$GPGGA,051439.70,3946.77715516,N,11631.16050784,E,4,21,0.7,29.378,M,-7.733,M,0.7,1084*6A
$GPRMC,051439.70,A,3946.77715516,N,11631.16050784,E,0.02,282.63,220817,6.8,W,D,S*5B
$GPHDT,56.261,T*03
$GPGGA,051439.75,3946.77715515,N,11631.16050753,E,4,21,0.7,29.378,M,-7.733,M,0.7,1084*66
$GPRMC,051439.75,A,3946.77715515,N,11631.16050753,E,0.02,183.37,220817,6.8,W,D,S*54
$GPHDT,56.258,T*09
$GPGGA,051439.80,3946.77715520,N,11631.16050751,E,4,21,0.7,29.377,M,-7.733,M,0.8,1084*68
$GPRMC,051439.80,A,3946.77715520,N,11631.16050751,E,0.03,26.91,220817,6.8,W,D,S*69
$GPHDT,56.209,T*0D
$GPGGA,051439.85,3946.77715485,N,11631.16050727,E,4,21,0.7,29.378,M,-7.733,M,0.8,1084*6D
$GPRMC,051439.85,A,3946.77715485,N,11631.16050727,E,0.05,203.14,220817,6.8,W,D,S*5D
$GPHDT,56.250,T*01
$GPGGA,051439.90,3946.77715479,N,11631.16050715,E,4,21,0.7,29.378,M,-7.733,M,0.9,1084*6A
$GPRMC,051439.90,A,3946.77715479,N,11631.16050715,E,0.02,20.14,220817,6.8,W,D,S*6F
$GPHDT,56.248,T*08
$GPGGA,051439.95,3946.77715512,N,11631.16050694,E,4,21,0.7,29.377,M,-7.733,M,0.9,1084*64
$GPRMC,051439.95,A,3946.77715512,N,11631.16050694,E,0.04,326.47,220817,6.8,W,D,S*5B
$GPHDT,56.290,T*0D
$GPGGA,051440.00,3946.77715507,N,11631.16050681,E,4,21,0.7,29.378,M,-7.733,M,1.0,1084*61
$GPRMC,051440.00,A,3946.77715507,N,11631.16050681,E,0.03,148.17,220817,6.8,W,D,S*51
$GPHDT,56.288,T*04
$GPGGA,051440.05,3946.77715476,N,11631.16050699,E,4,21,0.7,29.379,M,-7.733,M,1.0,1084*6B
$GPRMC,051440.05,A,3946.77715476,N,11631.16050699,E,0.02,155.29,220817,6.8,W,D,S*5A
$GPHDT,56.282,T*0E
$GPGGA,051440.10,3946.77715520,N,11631.16050693,E,4,21,0.7,29.377,M,-7.733,M,1.1,1084*68
$GPRMC,051440.10,A,3946.77715520,N,11631.16050693,E,0.04,341.42,220817,6.8,W,D,S*5A
$GPHDT,56.247,T*07
$GPGGA,051440.15,3946.77715512,N,11631.16050703,E,4,21,0.7,29.378,M,-7.733,M,1.1,1084*6B
$GPRMC,051440.15,A,3946.77715512,N,11631.16050703,E,0.04,131.62,220817,6.8,W,D,S*51
$GPHDT,56.246,T*06
$GPGGA,051440.20,3946.77715509,N,11631.16050705,E,4,21,0.7,29.376,M,-7.733,M,1.2,1084*6C
$GPRMC,051440.20,A,3946.77715509,N,11631.16050705,E,0.03,268.09,220817,6.8,W,D,S*5E
$GPHDT,56.257,T*06
$GPGGA,051440.25,3946.77715519,N,11631.16050671,E,4,21,0.7,29.377,M,-7.733,M,1.2,1084*6B
$GPRMC,051440.25,A,3946.77715519,N,11631.16050671,E,0.02,347.54,220817,6.8,W,D,S*5D
$GPHDT,56.230,T*07
$GPGGA,051440.30,3946.77715554,N,11631.16050676,E,4,21,0.7,29.377,M,-7.733,M,1.3,1084*60
$GPRMC,051440.30,A,3946.77715554,N,11631.16050676,E,0.03,26.92,220817,6.8,W,D,S*68
$GPHDT,56.237,T*00
$GPGGA,051440.35,3946.77715575,N,11631.16050681,E,4,21,0.7,29.377,M,-7.733,M,1.3,1084*6E
$GPRMC,051440.35,A,3946.77715575,N,11631.16050681,E,0.00,301.06,220817,6.8,W,D,S*5E
$GPHDT,56.249,T*09
$GPGGA,051440.40,3946.77715580,N,11631.16050697,E,4,21,0.7,29.377,M,-7.733,M,1.4,1084*66
$GPRMC,051440.40,A,3946.77715580,N,11631.16050697,E,0.02,88.51,220817,6.8,W,D,S*63
$GPHDT,56.303,T*06
$GPGGA,051440.45,3946.77715531,N,11631.16050699,E,4,21,0.7,29.380,M,-7.733,M,0.4,1084*6E
$GPRMC,051440.45,A,3946.77715531,N,11631.16050699,E,0.02,214.60,220817,6.8,W,D,S*57
$GPHDT,56.276,T*05
$GPGGA,051440.50,3946.77715520,N,11631.16050678,E,4,21,0.7,29.378,M,-7.733,M,0.5,1084*63
$GPRMC,051440.50,A,3946.77715520,N,11631.16050678,E,0.03,210.51,220817,6.8,W,D,S*5B
$GPHDT,56.259,T*08
$GPGGA,051440.55,3946.77715512,N,11631.16050685,E,4,21,0.7,29.379,M,-7.733,M,0.5,1084*64
$GPRMC,051440.55,A,3946.77715512,N,11631.16050685,E,0.05,24.31,220817,6.8,W,D,S*68
$GPHDT,56.263,T*01
$GPGGA,051440.60,3946.77715552,N,11631.16050710,E,4,21,0.7,29.377,M,-7.733,M,0.6,1084*66
$GPRMC,051440.60,A,3946.77715552,N,11631.16050710,E,0.01,21.30,220817,6.8,W,D,S*67
$GPHDT,56.225,T*03
$GPGGA,051440.65,3946.77715526,N,11631.16050722,E,4,21,0.7,29.379,M,-7.733,M,0.6,1084*6F
$GPRMC,051440.65,A,3946.77715526,N,11631.16050722,E,0.02,127.99,220817,6.8,W,D,S*57
$GPHDT,56.254,T*05
$GPGGA,051440.70,3946.77715543,N,11631.16050723,E,4,21,0.7,29.377,M,-7.733,M,0.7,1084*66
$GPRMC,051440.70,A,3946.77715543,N,11631.16050723,E,0.02,308.06,220817,6.8,W,D,S*58
$GPHDT,56.277,T*04
$GPGGA,051440.75,3946.77715518,N,11631.16050691,E,4,21,0.7,29.378,M,-7.733,M,0.7,1084*6A
$GPRMC,051440.75,A,3946.77715518,N,11631.16050691,E,0.02,215.72,220817,6.8,W,D,S*55
$GPHDT,56.285,T*09
$GPGGA,051440.80,3946.77715494,N,11631.16050675,E,4,21,0.7,29.379,M,-7.733,M,0.8,1084*61
$GPRMC,051440.80,A,3946.77715494,N,11631.16050675,E,0.01,305.37,220817,6.8,W,D,S*52
$GPHDT,56.222,T*04
$GPGGA,051440.85,3946.77715511,N,11631.16050693,E,4,21,0.7,29.379,M,-7.733,M,0.8,1084*60
$GPRMC,051440.85,A,3946.77715511,N,11631.16050693,E,0.03,51.89,220817,6.8,W,D,S*66
$GPHDT,56.225,T*03
$GPGGA,051440.90,3946.77715539,N,11631.16050712,E,4,21,0.7,29.377,M,-7.733,M,0.9,1084*69
$GPRMC,051440.90,A,3946.77715539,N,11631.16050712,E,0.01,310.70,220817,6.8,W,D,S*52
$GPHDT,56.213,T*06
$GPGGA,051440.95,3946.77715513,N,11631.16050713,E,4,21,0.7,29.377,M,-7.733,M,0.9,1084*65
$GPRMC,051440.95,A,3946.77715513,N,11631.16050713,E,0.03,136.70,220817,6.8,W,D,S*5A
$GPHDT,56.317,T*03
$GPGGA,051441.00,3946.77715515,N,11631.16050737,E,4,21,0.7,29.378,M,-7.733,M,1.0,1084*6F
$GPRMC,051441.00,A,3946.77715515,N,11631.16050737,E,0.03,19.45,220817,6.8,W,D,S*6D
$GPHDT,56.233,T*04
$GPGGA,051441.05,3946.77715539,N,11631.16050735,E,4,21,0.7,29.376,M,-7.733,M,1.0,1084*68
$GPRMC,051441.05,A,3946.77715539,N,11631.16050735,E,0.01,241.54,220817,6.8,W,D,S*59
$GPHDT,56.255,T*04
$GPGGA,051441.10,3946.77715511,N,11631.16050703,E,4,21,0.7,29.377,M,-7.733,M,1.1,1084*63
$GPRMC,051441.10,A,3946.77715511,N,11631.16050703,E,0.01,275.00,220817,6.8,W,D,S*54
$GPHDT,56.211,T*04
$GPGGA,051441.15,3946.77715504,N,11631.16050703,E,4,21,0.7,29.377,M,-7.733,M,1.1,1084*62
$GPRMC,051441.15,A,3946.77715504,N,11631.16050703,E,0.02,142.05,220817,6.8,W,D,S*54
$GPHDT,56.325,T*02
$GPGGA,051441.20,3946.77715538,N,11631.16050696,E,4,21,0.7,29.376,M,-7.733,M,1.2,1084*64
$GPRMC,051441.20,A,3946.77715538,N,11631.16050696,E,0.06,346.11,220817,6.8,W,D,S*57
$GPHDT,56.306,T*03
$GPGGA,051441.25,3946.77715541,N,11631.16050665,E,4,21,0.7,29.377,M,-7.733,M,1.2,1084*62
$GPRMC,051441.25,A,3946.77715541,N,11631.16050665,E,0.04,201.83,220817,6.8,W,D,S*5B
$GPHDT,56.283,T*0F
$GPGGA,051441.30,3946.77715545,N,11631.16050674,E,4,21,0.7,29.376,M,-7.733,M,1.3,1084*62
$GPRMC,051441.30,A,3946.77715545,N,11631.16050674,E,0.04,37.55,220817,6.8,W,D,S*67
$GPHDT,56.305,T*00
$GPGGA,051441.35,3946.77715563,N,11631.16050677,E,4,21,0.7,29.377,M,-7.733,M,1.3,1084*61
$GPRMC,051441.35,A,3946.77715563,N,11631.16050677,E,0.02,276.50,220817,6.8,W,D,S*51
$GPHDT,56.148,T*0B
$GPGGA,051441.40,3946.77715536,N,11631.16050690,E,4,21,0.7,29.376,M,-7.733,M,1.4,1084*6C
$GPRMC,051441.40,A,3946.77715536,N,11631.16050690,E,0.05,147.00,220817,6.8,W,D,S*59
$GPHDT,56.300,T*05
$GPGGA,051441.45,3946.77715522,N,11631.16050715,E,4,21,0.7,29.376,M,-7.733,M,0.4,1084*61
$GPRMC,051441.45,A,3946.77715522,N,11631.16050715,E,0.04,7.27,220817,6.8,W,D,S*54
$GPHDT,56.259,T*08
$GPGGA,051441.50,3946.77715527,N,11631.16050710,E,4,21,0.7,29.377,M,-7.733,M,0.5,1084*65
$GPRMC,051441.50,A,3946.77715527,N,11631.16050710,E,0.02,174.50,220817,6.8,W,D,S*53
$GPHDT,56.296,T*0B
$GPGGA,051441.55,3946.77715532,N,11631.16050665,E,4,21,0.7,29.376,M,-7.733,M,0.5,1084*66
$GPRMC,051441.55,A,3946.77715532,N,11631.16050665,E,0.05,291.92,220817,6.8,W,D,S*50
$GPHDT,56.303,T*06
$GPGGA,051441.60,3946.77715533,N,11631.16050645,E,4,21,0.7,29.378,M,-7.733,M,0.6,1084*6E
$GPRMC,051441.60,A,3946.77715533,N,11631.16050645,E,0.04,53.86,220817,6.8,W,D,S*6D
$GPHDT,56.236,T*01
$GPGGA,051441.65,3946.77715523,N,11631.16050668,E,4,21,0.7,29.377,M,-7.733,M,0.6,1084*6A
$GPRMC,051441.65,A,3946.77715523,N,11631.16050668,E,0.05,185.56,220817,6.8,W,D,S*50
$GPHDT,56.274,T*07
$GPGGA,051441.70,3946.77715491,N,11631.16050657,E,4,21,0.7,29.377,M,-7.733,M,0.7,1084*6B
$GPRMC,051441.70,A,3946.77715491,N,11631.16050657,E,0.01,0.71,220817,6.8,W,D,S*5D
$GPHDT,56.255,T*04
$GPGGA,051441.75,3946.77715494,N,11631.16050646,E,4,21,0.7,29.377,M,-7.733,M,0.7,1084*6B
$GPRMC,051441.75,A,3946.77715494,N,11631.16050646,E,0.01,274.42,220817,6.8,W,D,S*5C
$GPHDT,56.238,T*0F
$GPGGA,051441.80,3946.77715493,N,11631.16050645,E,4,21,0.7,29.377,M,-7.733,M,0.8,1084*6A
$GPRMC,051441.80,A,3946.77715493,N,11631.16050645,E,0.01,42.51,220817,6.8,W,D,S*67
$GPHDT,56.250,T*01
$GPGGA,051441.85,3946.77715489,N,11631.16050631,E,4,21,0.7,29.379,M,-7.733,M,0.8,1084*69
$GPRMC,051441.85,A,3946.77715489,N,11631.16050631,E,0.02,322.70,220817,6.8,W,D,S*5F
$GPHDT,56.283,T*0F
$GPGGA,051441.90,3946.77715520,N,11631.16050606,E,4,21,0.7,29.378,M,-7.733,M,0.9,1084*6B
$GPRMC,051441.90,A,3946.77715520,N,11631.16050606,E,0.02,302.99,220817,6.8,W,D,S*58
$GPHDT,56.248,T*08
$GPGGA,051441.95,3946.77715511,N,11631.16050601,E,4,21,0.7,29.378,M,-7.733,M,0.9,1084*6B
$GPRMC,051441.95,A,3946.77715511,N,11631.16050601,E,0.01,133.93,220817,6.8,W,D,S*51
$GPHDT,56.254,T*05
$GPGGA,051442.00,3946.77715512,N,11631.16050595,E,4,21,0.7,29.377,M,-7.733,M,1.0,1084*6E
$GPRMC,051442.00,A,3946.77715512,N,11631.16050595,E,0.01,295.72,220817,6.8,W,D,S*53
$GPHDT,56.271,T*02
$GPGGA,051442.05,3946.77715487,N,11631.16050608,E,4,21,0.7,29.378,M,-7.733,M,1.0,1084*6E
$GPRMC,051442.05,A,3946.77715487,N,11631.16050608,E,0.03,100.27,220817,6.8,W,D,S*51
$GPHDT,56.190,T*0E
$GPGGA,051442.10,3946.77715497,N,11631.16050650,E,4,21,0.7,29.378,M,-7.733,M,1.1,1084*67
$GPRMC,051442.10,A,3946.77715497,N,11631.16050650,E,0.02,44.03,220817,6.8,W,D,S*6F
$GPHDT,56.263,T*01
$GPGGA,051442.15,3946.77715519,N,11631.16050632,E,4,21,0.7,29.377,M,-7.733,M,1.1,1084*6E
$GPRMC,051442.15,A,3946.77715519,N,11631.16050632,E,0.04,299.94,220817,6.8,W,D,S*53
$GPHDT,56.245,T*05
$GPGGA,051442.20,3946.77715496,N,11631.16050600,E,4,21,0.7,29.379,M,-7.733,M,1.2,1084*62
$GPRMC,051442.20,A,3946.77715496,N,11631.16050600,E,0.02,166.17,220817,6.8,W,D,S*5C
$GPHDT,56.226,T*00
$GPGGA,051442.25,3946.77715469,N,11631.16050606,E,4,21,0.7,29.379,M,-7.733,M,1.2,1084*61
$GPRMC,051442.25,A,3946.77715469,N,11631.16050606,E,0.02,193.32,220817,6.8,W,D,S*52
$GPHDT,56.215,T*00
$GPGGA,051442.30,3946.77715469,N,11631.16050604,E,4,21,0.7,29.379,M,-7.733,M,1.3,1084*66
$GPRMC,051442.30,A,3946.77715469,N,11631.16050604,E,0.03,9.23,220817,6.8,W,D,S*57
$GPHDT,56.242,T*02
$GPGGA,051442.35,3946.77715474,N,11631.16050601,E,4,21,0.7,29.378,M,-7.733,M,1.3,1084*6B
$GPRMC,051442.35,A,3946.77715474,N,11631.16050601,E,0.03,206.42,220817,6.8,W,D,S*51
$GPHDT,56.228,T*0E
$GPGGA,051442.40,3946.77715461,N,11631.16050633,E,4,21,0.7,29.377,M,-7.733,M,1.4,1084*64
$GPRMC,051442.40,A,3946.77715461,N,11631.16050633,E,0.06,69.70,220817,6.8,W,D,S*69
$GPHDT,56.270,T*03
$GPGGA,051442.45,3946.77715423,N,11631.16050671,E,4,21,0.7,29.377,M,-7.733,M,0.4,1084*60
$GPRMC,051442.45,A,3946.77715423,N,11631.16050671,E,0.05,189.14,220817,6.8,W,D,S*52
$GPHDT,56.216,T*03
$GPGGA,051442.50,3946.77715375,N,11631.16050677,E,4,21,0.7,29.378,M,-7.733,M,0.5,1084*68
$GPRMC,051442.50,A,3946.77715375,N,11631.16050677,E,0.03,51.08,220817,6.8,W,D,S*6B
$GPHDT,56.249,T*09
$GPGGA,051442.55,3946.77715405,N,11631.16050663,E,4,21,0.7,29.377,M,-7.733,M,0.5,1084*67
$GPRMC,051442.55,A,3946.77715405,N,11631.16050663,E,0.04,285.61,220817,6.8,W,D,S*58
$GPHDT,56.224,T*02
$GPGGA,051442.60,3946.77715387,N,11631.16050635,E,4,21,0.7,29.377,M,-7.733,M,0.6,1084*6C
$GPRMC,051442.60,A,3946.77715387,N,11631.16050635,E,0.01,129.04,220817,6.8,W,D,S*53
$GPHDT,56.258,T*09
$GPGGA,051442.65,3946.77715384,N,11631.16050664,E,4,21,0.7,29.378,M,-7.733,M,0.6,1084*61
$GPRMC,051442.65,A,3946.77715384,N,11631.16050664,E,0.03,63.26,220817,6.8,W,D,S*6C
$GPHDT,56.215,T*00
$GPGGA,051442.70,3946.77715388,N,11631.16050687,E,4,21,0.7,29.376,M,-7.733,M,0.7,1084*6B
$GPRMC,051442.70,A,3946.77715388,N,11631.16050687,E,0.01,166.28,220817,6.8,W,D,S*51
$GPHDT,56.262,T*00
$GPGGA,051442.75,3946.77715360,N,11631.16050690,E,4,21,0.7,29.377,M,-7.733,M,0.7,1084*6F
$GPRMC,051442.75,A,3946.77715360,N,11631.16050690,E,0.01,88.23,220817,6.8,W,D,S*6E
$GPHDT,56.201,T*05
$GPGGA,051442.80,3946.77715381,N,11631.16050703,E,4,21,0.7,29.375,M,-7.733,M,0.8,1084*6C
$GPRMC,051442.80,A,3946.77715381,N,11631.16050703,E,0.02,5.57,220817,6.8,W,D,S*55
$GPHDT,56.238,T*0F
$GPGGA,051442.85,3946.77715345,N,11631.16050671,E,4,21,0.7,29.375,M,-7.733,M,0.8,1084*65
$GPRMC,051442.85,A,3946.77715345,N,11631.16050671,E,0.04,214.53,220817,6.8,W,D,S*5C
$GPHDT,56.265,T*07
$GPGGA,051442.90,3946.77715326,N,11631.16050670,E,4,21,0.7,29.376,M,-7.733,M,0.9,1084*67
$GPRMC,051442.90,A,3946.77715326,N,11631.16050670,E,0.03,45.34,220817,6.8,W,D,S*6C
$GPHDT,56.246,T*06
$GPGGA,051442.95,3946.77715366,N,11631.16050667,E,4,21,0.7,29.374,M,-7.733,M,0.9,1084*62
$GPRMC,051442.95,A,3946.77715366,N,11631.16050667,E,0.03,301.18,220817,6.8,W,D,S*56
$GPHDT,56.284,T*08
$GPGGA,051443.00,3946.77715341,N,11631.16050633,E,4,21,0.7,29.375,M,-7.733,M,1.0,1084*62
$GPRMC,051443.00,A,3946.77715341,N,11631.16050633,E,0.02,193.63,220817,6.8,W,D,S*5B
$GPHDT,56.252,T*03
$GPGGA,051443.05,3946.77715340,N,11631.16050644,E,4,21,0.7,29.375,M,-7.733,M,1.0,1084*66
$GPRMC,051443.05,A,3946.77715340,N,11631.16050644,E,0.02,59.80,220817,6.8,W,D,S*65
$GPHDT,56.195,T*0B
$GPGGA,051443.10,3946.77715375,N,11631.16050649,E,4,21,0.7,29.373,M,-7.733,M,1.1,1084*6E
$GPRMC,051443.10,A,3946.77715375,N,11631.16050649,E,0.04,336.88,220817,6.8,W,D,S*5E
$GPHDT,56.287,T*0B
$GPGGA,051443.15,3946.77715374,N,11631.16050618,E,4,21,0.7,29.373,M,-7.733,M,1.1,1084*6E
$GPRMC,051443.15,A,3946.77715374,N,11631.16050618,E,0.02,261.54,220817,6.8,W,D,S*5A
$GPHDT,56.258,T*09
$GPGGA,051443.20,3946.77715305,N,11631.16050595,E,4,21,0.7,29.375,M,-7.733,M,1.2,1084*6D
$GPRMC,051443.20,A,3946.77715305,N,11631.16050595,E,0.05,183.10,220817,6.8,W,D,S*54
$GPHDT,56.252,T*03
$GPGGA,051443.25,3946.77715280,N,11631.16050549,E,4,21,0.7,29.376,M,-7.733,M,1.2,1084*66
$GPRMC,051443.25,A,3946.77715280,N,11631.16050549,E,0.05,284.04,220817,6.8,W,D,S*5D
$GPHDT,56.267,T*05
$GPGGA,051443.30,3946.77715311,N,11631.16050533,E,4,21,0.7,29.374,M,-7.733,M,1.3,1084*65
$GPRMC,051443.30,A,3946.77715311,N,11631.16050533,E,0.02,54.33,220817,6.8,W,D,S*61
$GPHDT,56.239,T*0E
$GPGGA,051443.35,3946.77715322,N,11631.16050558,E,4,21,0.7,29.374,M,-7.733,M,0.3,1084*6C
$GPRMC,051443.35,A,3946.77715322,N,11631.16050558,E,0.02,112.50,220817,6.8,W,D,S*5F
$GPHDT,56.250,T*01
$GPGGA,051443.40,3946.77715339,N,11631.16050577,E,4,21,0.7,29.373,M,-7.733,M,0.4,1084*69
$GPRMC,051443.40,A,3946.77715339,N,11631.16050577,E,0.01,55.64,220817,6.8,W,D,S*6C
$GPHDT,56.267,T*05
$GPGGA,051443.45,3946.77715320,N,11631.16050566,E,4,21,0.7,29.374,M,-7.733,M,0.4,1084*63
$GPRMC,051443.45,A,3946.77715320,N,11631.16050566,E,0.02,203.64,220817,6.8,W,D,S*53
$GPHDT,56.239,T*0E
$GPGGA,051443.50,3946.77715363,N,11631.16050560,E,4,21,0.7,29.372,M,-7.733,M,0.5,1084*61
$GPRMC,051443.50,A,3946.77715363,N,11631.16050560,E,0.04,355.36,220817,6.8,W,D,S*55
$GPHDT,56.254,T*05
$GPGGA,051443.55,3946.77715349,N,11631.16050562,E,4,21,0.7,29.374,M,-7.733,M,0.5,1084*68
$GPRMC,051443.55,A,3946.77715349,N,11631.16050562,E,0.04,151.15,220817,6.8,W,D,S*5D
$GPHDT,56.260,T*02
$GPGGA,051443.60,3946.77715393,N,11631.16050570,E,4,21,0.7,29.372,M,-7.733,M,0.6,1084*6F
$GPRMC,051443.60,A,3946.77715393,N,11631.16050570,E,0.05,344.18,220817,6.8,W,D,S*55
$GPHDT,56.255,T*04
$GPGGA,051443.65,3946.77715405,N,11631.16050580,E,4,21,0.7,29.373,M,-7.733,M,0.6,1084*6C
$GPRMC,051443.65,A,3946.77715405,N,11631.16050580,E,0.04,93.96,220817,6.8,W,D,S*69
$GPHDT,56.277,T*04
$GPGGA,051443.70,3946.77715439,N,11631.16050602,E,4,21,0.7,29.372,M,-7.733,M,0.7,1084*6E
$GPRMC,051443.70,A,3946.77715439,N,11631.16050602,E,0.03,341.71,220817,6.8,W,D,S*59
$GPHDT,56.263,T*01
$GPGGA,051443.75,3946.77715445,N,11631.16050589,E,4,21,0.7,29.372,M,-7.733,M,0.7,1084*60
$GPRMC,051443.75,A,3946.77715445,N,11631.16050589,E,0.01,155.04,220817,6.8,W,D,S*50
$GPHDT,56.257,T*06
$GPGGA,051443.80,3946.77715440,N,11631.16050544,E,4,21,0.7,29.373,M,-7.733,M,0.8,1084*60
$GPRMC,051443.80,A,3946.77715440,N,11631.16050544,E,0.04,272.94,220817,6.8,W,D,S*54
$GPHDT,56.208,T*0C
$GPGGA,051443.85,3946.77715447,N,11631.16050542,E,4,21,0.7,29.372,M,-7.733,M,0.8,1084*65
$GPRMC,051443.85,A,3946.77715447,N,11631.16050542,E,0.04,75.71,220817,6.8,W,D,S*6E
$GPHDT,56.240,T*00
$GPGGA,051443.90,3946.77715477,N,11631.16050544,E,4,21,0.7,29.371,M,-7.733,M,0.9,1084*66
$GPRMC,051443.90,A,3946.77715477,N,11631.16050544,E,0.04,301.95,220817,6.8,W,D,S*55
$GPHDT,56.246,T*06
$GPGGA,051443.95,3946.77715459,N,11631.16050538,E,4,21,0.7,29.371,M,-7.733,M,0.9,1084*64
$GPRMC,051443.95,A,3946.77715459,N,11631.16050538,E,0.05,135.99,220817,6.8,W,D,S*5F
$GPHDT,56.244,T*04
$GPGGA,051444.00,3946.77715431,N,11631.16050538,E,4,21,0.7,29.372,M,-7.733,M,1.0,1084*6A
$GPRMC,051444.00,A,3946.77715431,N,11631.16050538,E,0.03,300.58,220817,6.8,W,D,S*55
$GPHDT,56.272,T*01
$GPGGA,051444.05,3946.77715461,N,11631.16050502,E,4,21,0.7,29.372,M,-7.733,M,1.0,1084*63
$GPRMC,051444.05,A,3946.77715461,N,11631.16050502,E,0.02,328.45,220817,6.8,W,D,S*5B
$GPHDT,56.247,T*07
$GPGGA,051444.10,3946.77715413,N,11631.16050488,E,4,21,0.7,29.373,M,-7.733,M,1.1,1084*61
$GPRMC,051444.10,A,3946.77715413,N,11631.16050488,E,0.06,175.59,220817,6.8,W,D,S*5A
$GPHDT,56.234,T*03
$GPGGA,051444.15,3946.77715386,N,11631.16050535,E,4,21,0.7,29.373,M,-7.733,M,1.1,1084*68
$GPRMC,051444.15,A,3946.77715386,N,11631.16050535,E,0.04,84.34,220817,6.8,W,D,S*65
$GPHDT,56.274,T*07
$GPGGA,051444.20,3946.77715404,N,11631.16050556,E,4,21,0.7,29.372,M,-7.733,M,1.2,1084*64
$GPRMC,051444.20,A,3946.77715404,N,11631.16050556,E,0.03,322.80,220817,6.8,W,D,S*5C
$GPHDT,56.192,T*0C
$GPGGA,051444.25,3946.77715401,N,11631.16050549,E,4,21,0.7,29.373,M,-7.733,M,1.2,1084*6B
$GPRMC,051444.25,A,3946.77715401,N,11631.16050549,E,0.01,136.76,220817,6.8,W,D,S*5E
$GPHDT,56.235,T*02
$GPGGA,051444.30,3946.77715398,N,11631.16050534,E,4,21,0.7,29.373,M,-7.733,M,1.3,1084*63
$GPRMC,051444.30,A,3946.77715398,N,11631.16050534,E,0.02,274.81,220817,6.8,W,D,S*59
$GPHDT,56.267,T*05
$GPGGA,051444.35,3946.77715359,N,11631.16050533,E,4,21,0.7,29.375,M,-7.733,M,0.3,1084*6B
$GPRMC,051444.35,A,3946.77715359,N,11631.16050533,E,0.03,148.56,220817,6.8,W,D,S*51
$GPHDT,56.258,T*09
$GPGGA,051444.40,3946.77715395,N,11631.16050562,E,4,21,0.7,29.374,M,-7.733,M,0.4,1084*6B
$GPRMC,051444.40,A,3946.77715395,N,11631.16050562,E,0.06,7.21,220817,6.8,W,D,S*58
$GPHDT,56.239,T*0E
$GPGGA,051444.45,3946.77715409,N,11631.16050587,E,4,21,0.7,29.374,M,-7.733,M,0.4,1084*67
$GPRMC,051444.45,A,3946.77715409,N,11631.16050587,E,0.01,114.04,220817,6.8,W,D,S*57
$GPHDT,56.221,T*07
$GPGGA,051444.50,3946.77715424,N,11631.16050611,E,4,21,0.7,29.373,M,-7.733,M,0.5,1084*66
$GPRMC,051444.50,A,3946.77715424,N,11631.16050611,E,0.03,20.37,220817,6.8,W,D,S*64
$GPHDT,56.241,T*01
$GPGGA,051444.55,3946.77715435,N,11631.16050613,E,4,21,0.7,29.373,M,-7.733,M,0.5,1084*61
$GPRMC,051444.55,A,3946.77715435,N,11631.16050613,E,0.02,328.17,220817,6.8,W,D,S*5B
$GPHDT,56.238,T*0F
$GPGGA,051444.60,3946.77715380,N,11631.16050638,E,4,21,0.7,29.375,M,-7.733,M,0.6,1084*62
$GPRMC,051444.60,A,3946.77715380,N,11631.16050638,E,0.07,148.60,220817,6.8,W,D,S*5C
$GPHDT,56.291,T*0C
$GPGGA,051444.65,3946.77715388,N,11631.16050660,E,4,21,0.7,29.374,M,-7.733,M,0.6,1084*63
$GPRMC,051444.65,A,3946.77715388,N,11631.16050660,E,0.06,338.38,220817,6.8,W,D,S*55
$GPHDT,56.211,T*04
$GPGGA,051444.70,3946.77715396,N,11631.16050675,E,4,21,0.7,29.375,M,-7.733,M,0.7,1084*6C
$GPRMC,051444.70,A,3946.77715396,N,11631.16050675,E,0.04,105.84,220817,6.8,W,D,S*53
$GPHDT,56.252,T*03
$GPGGA,051444.75,3946.77715394,N,11631.16050723,E,4,21,0.7,29.374,M,-7.733,M,0.7,1084*68
$GPRMC,051444.75,A,3946.77715394,N,11631.16050723,E,0.02,47.99,220817,6.8,W,D,S*6B
$GPHDT,56.240,T*00
$GPGGA,051444.80,3946.77715380,N,11631.16050707,E,4,21,0.7,29.373,M,-7.733,M,0.8,1084*69
$GPRMC,051444.80,A,3946.77715380,N,11631.16050707,E,0.04,237.76,220817,6.8,W,D,S*50
$GPHDT,56.271,T*02
$GPGGA,051444.85,3946.77715333,N,11631.16050690,E,4,21,0.7,29.375,M,-7.733,M,0.8,1084*6D
$GPRMC,051444.85,A,3946.77715333,N,11631.16050690,E,0.02,135.39,220817,6.8,W,D,S*5E
$GPHDT,56.255,T*04
$GPGGA,051444.90,3946.77715341,N,11631.16050719,E,4,21,0.7,29.376,M,-7.733,M,0.9,1084*6E
$GPRMC,051444.90,A,3946.77715341,N,11631.16050719,E,0.04,24.22,220817,6.8,W,D,S*62
$GPHDT,56.209,T*0D
$GPGGA,051444.95,3946.77715355,N,11631.16050722,E,4,21,0.7,29.374,M,-7.733,M,0.9,1084*64
$GPRMC,051444.95,A,3946.77715355,N,11631.16050722,E,0.02,213.50,220817,6.8,W,D,S*5F
$GPHDT,56.244,T*04
$GPGGA,051445.00,3946.77715330,N,11631.16050749,E,4,21,0.7,29.375,M,-7.733,M,1.0,1084*6E
$GPRMC,051445.00,A,3946.77715330,N,11631.16050749,E,0.04,81.19,220817,6.8,W,D,S*6E
$GPHDT,56.221,T*07
$GPGGA,051445.05,3946.77715311,N,11631.16050751,E,4,21,0.7,29.375,M,-7.733,M,1.0,1084*61
$GPRMC,051445.05,A,3946.77715311,N,11631.16050751,E,0.03,255.52,220817,6.8,W,D,S*52
$GPHDT,56.242,T*02
$GPGGA,051445.10,3946.77715287,N,11631.16050771,E,4,21,0.7,29.375,M,-7.733,M,1.1,1084*68
$GPRMC,051445.10,A,3946.77715287,N,11631.16050771,E,0.05,112.76,220817,6.8,W,D,S*5A
$GPHDT,56.261,T*03
$GPGGA,051445.15,3946.77715295,N,11631.16050755,E,4,21,0.7,29.374,M,-7.733,M,1.1,1084*69
$GPRMC,051445.15,A,3946.77715295,N,11631.16050755,E,0.07,294.62,220817,6.8,W,D,S*50
$GPHDT,56.258,T*09
$GPGGA,051445.20,3946.77715249,N,11631.16050731,E,4,21,0.7,29.376,M,-7.733,M,1.2,1084*6D
$GPRMC,051445.20,A,3946.77715249,N,11631.16050731,E,0.05,145.00,220817,6.8,W,D,S*5C
$GPHDT,56.189,T*06
$GPGGA,051445.25,3946.77715238,N,11631.16050780,E,4,21,0.7,29.376,M,-7.733,M,1.2,1084*64
$GPRMC,051445.25,A,3946.77715238,N,11631.16050780,E,0.02,71.40,220817,6.8,W,D,S*60
$GPHDT,56.263,T*01
$GPGGA,051445.30,3946.77715241,N,11631.16050781,E,4,21,0.7,29.376,M,-7.733,M,1.3,1084*6E
$GPRMC,051445.30,A,3946.77715241,N,11631.16050781,E,0.02,303.08,220817,6.8,W,D,S*51
$GPHDT,56.281,T*0D
$GPGGA,051445.35,3946.77715312,N,11631.16050779,E,4,21,0.7,29.374,M,-7.733,M,1.3,1084*69
$GPRMC,051445.35,A,3946.77715312,N,11631.16050779,E,0.07,5.79,220817,6.8,W,D,S*52
$GPHDT,56.270,T*03
$GPGGA,051445.40,3946.77715307,N,11631.16050784,E,4,21,0.7,29.375,M,-7.733,M,1.4,1084*6B
$GPRMC,051445.40,A,3946.77715307,N,11631.16050784,E,0.03,178.38,220817,6.8,W,D,S*5C
$GPHDT,56.255,T*04
$GPGGA,051445.45,3946.77715304,N,11631.16050778,E,4,21,0.7,29.374,M,-7.733,M,1.4,1084*6F
$GPRMC,051445.45,A,3946.77715304,N,11631.16050778,E,0.02,329.72,220817,6.8,W,D,S*50
$GPHDT,56.191,T*0F
$GPGGA,051445.50,3946.77715317,N,11631.16050773,E,4,21,0.7,29.373,M,-7.733,M,1.5,1084*64
$GPRMC,051445.50,A,3946.77715317,N,11631.16050773,E,0.00,217.13,220817,6.8,W,D,S*54
$GPHDT,56.306,T*03
$GPGGA,051445.55,3946.77715278,N,11631.16050770,E,4,21,0.7,29.375,M,-7.733,M,1.5,1084*6C
$GPRMC,051445.55,A,3946.77715278,N,11631.16050770,E,0.01,158.55,220817,6.8,W,D,S*51
$GPHDT,56.194,T*0A
$GPGGA,051445.60,3946.77715274,N,11631.16050794,E,4,21,0.7,29.374,M,-7.733,M,1.6,1084*6E
$GPRMC,051445.60,A,3946.77715274,N,11631.16050794,E,0.02,117.45,220817,6.8,W,D,S*58
$GPHDT,56.234,T*03
$GPGGA,051445.65,3946.77715296,N,11631.16050789,E,4,21,0.7,29.374,M,-7.733,M,0.6,1084*6A
$GPRMC,051445.65,A,3946.77715296,N,11631.16050789,E,0.03,327.71,220817,6.8,W,D,S*5A
$GPHDT,56.319,T*0D
$GPGGA,051445.70,3946.77715313,N,11631.16050774,E,4,21,0.7,29.375,M,-7.733,M,0.7,1084*60
$GPRMC,051445.70,A,3946.77715313,N,11631.16050774,E,0.01,36.97,220817,6.8,W,D,S*69
$GPHDT,56.252,T*03
$GPGGA,051445.75,3946.77715329,N,11631.16050785,E,4,21,0.7,29.374,M,-7.733,M,0.7,1084*63
$GPRMC,051445.75,A,3946.77715329,N,11631.16050785,E,0.01,171.26,220817,6.8,W,D,S*53
$GPHDT,56.294,T*09
$GPGGA,051445.80,3946.77715306,N,11631.16050768,E,4,21,0.7,29.376,M,-7.733,M,0.8,1084*6A
$GPRMC,051445.80,A,3946.77715306,N,11631.16050768,E,0.01,308.59,220817,6.8,W,D,S*53
$GPHDT,56.188,T*07
$GPGGA,051445.85,3946.77715297,N,11631.16050778,E,4,21,0.7,29.377,M,-7.733,M,0.8,1084*66
$GPRMC,051445.85,A,3946.77715297,N,11631.16050778,E,0.04,147.10,220817,6.8,W,D,S*5F
$GPHDT,56.237,T*00
$GPGGA,051445.90,3946.77715310,N,11631.16050807,E,4,21,0.7,29.377,M,-7.733,M,0.9,1084*6A
$GPRMC,051445.90,A,3946.77715310,N,11631.16050807,E,0.04,19.49,220817,6.8,W,D,S*64
$GPHDT,56.217,T*02
$GPGGA,051445.95,3946.77715301,N,11631.16050783,E,4,21,0.7,29.379,M,-7.733,M,0.9,1084*62
$GPRMC,051445.95,A,3946.77715301,N,11631.16050783,E,0.05,216.32,220817,6.8,W,D,S*52
$GPHDT,56.294,T*09
$GPGGA,051446.00,3946.77715327,N,11631.16050761,E,4,21,0.7,29.378,M,-7.733,M,1.0,1084*6C
$GPRMC,051446.00,A,3946.77715327,N,11631.16050761,E,0.04,357.23,220817,6.8,W,D,S*50
$GPHDT,56.228,T*0E
$GPGGA,051446.05,3946.77715342,N,11631.16050752,E,4,21,0.7,29.377,M,-7.733,M,1.0,1084*65
$GPRMC,051446.05,A,3946.77715342,N,11631.16050752,E,0.02,200.87,220817,6.8,W,D,S*5D
$GPHDT,56.259,T*08
$GPGGA,051446.10,3946.77715350,N,11631.16050762,E,4,21,0.7,29.376,M,-7.733,M,1.1,1084*61
$GPRMC,051446.10,A,3946.77715350,N,11631.16050762,E,0.02,40.00,220817,6.8,W,D,S*60
$GPHDT,56.251,T*00
$GPGGA,051446.15,3946.77715342,N,11631.16050748,E,4,21,0.7,29.377,M,-7.733,M,1.1,1084*6E
$GPRMC,051446.15,A,3946.77715342,N,11631.16050748,E,0.02,277.75,220817,6.8,W,D,S*5A
$GPHDT,56.293,T*0E
$GPGGA,051446.20,3946.77715357,N,11631.16050721,E,4,21,0.7,29.377,M,-7.733,M,1.2,1084*60
$GPRMC,051446.20,A,3946.77715357,N,11631.16050721,E,0.01,344.08,220817,6.8,W,D,S*5F
$GPHDT,56.196,T*08
$GPGGA,051446.25,3946.77715405,N,11631.16050749,E,4,21,0.7,29.375,M,-7.733,M,1.2,1084*69
$GPRMC,051446.25,A,3946.77715405,N,11631.16050749,E,0.05,32.59,220817,6.8,W,D,S*66
$GPHDT,56.186,T*09
$GPGGA,051446.30,3946.77715379,N,11631.16050758,E,4,21,0.7,29.377,M,-7.733,M,1.3,1084*62
$GPRMC,051446.30,A,3946.77715379,N,11631.16050758,E,0.04,190.70,220817,6.8,W,D,S*5D
$GPHDT,56.286,T*0A
$GPGGA,051446.35,3946.77715392,N,11631.16050757,E,4,21,0.7,29.376,M,-7.733,M,1.3,1084*6C
$GPRMC,051446.35,A,3946.77715392,N,11631.16050757,E,0.02,345.61,220817,6.8,W,D,S*5E
$GPHDT,56.237,T*00
$GPGGA,051446.40,3946.77715368,N,11631.16050750,E,4,21,0.7,29.378,M,-7.733,M,1.4,1084*65
$GPRMC,051446.40,A,3946.77715368,N,11631.16050750,E,0.02,177.25,220817,6.8,W,D,S*5D
$GPHDT,56.265,T*07
$GPGGA,051446.45,3946.77715384,N,11631.16050751,E,4,21,0.7,29.375,M,-7.733,M,1.4,1084*6E
$GPRMC,051446.45,A,3946.77715384,N,11631.16050751,E,0.02,297.45,220817,6.8,W,D,S*50
$GPHDT,56.217,T*02
$GPGGA,051446.50,3946.77715365,N,11631.16050734,E,4,21,0.7,29.376,M,-7.733,M,1.5,1084*64
$GPRMC,051446.50,A,3946.77715365,N,11631.16050734,E,0.00,196.79,220817,6.8,W,D,S*57
$GPHDT,56.245,T*05
$GPGGA,051446.55,3946.77715366,N,11631.16050751,E,4,21,0.7,29.375,M,-7.733,M,0.5,1084*63
$GPRMC,051446.55,A,3946.77715366,N,11631.16050751,E,0.02,94.57,220817,6.8,W,D,S*6F
$GPHDT,56.284,T*08
$GPGGA,051446.60,3946.77715363,N,11631.16050746,E,4,21,0.7,29.375,M,-7.733,M,0.6,1084*65
$GPRMC,051446.60,A,3946.77715363,N,11631.16050746,E,0.02,297.30,220817,6.8,W,D,S*5A
$GPHDT,56.251,T*00
$GPGGA,051446.65,3946.77715405,N,11631.16050734,E,4,21,0.7,29.374,M,-7.733,M,0.6,1084*63
$GPRMC,051446.65,A,3946.77715405,N,11631.16050734,E,0.05,9.13,220817,6.8,W,D,S*5E
$GPHDT,56.277,T*04
$GPGGA,051446.70,3946.77715428,N,11631.16050715,E,4,21,0.7,29.374,M,-7.733,M,0.7,1084*6A
$GPRMC,051446.70,A,3946.77715428,N,11631.16050715,E,0.02,260.00,220817,6.8,W,D,S*5E
$GPHDT,56.251,T*00
$GPGGA,051446.75,3946.77715412,N,11631.16050696,E,4,21,0.7,29.374,M,-7.733,M,0.7,1084*6C
$GPRMC,051446.75,A,3946.77715412,N,11631.16050696,E,0.01,132.97,220817,6.8,W,D,S*51
$GPHDT,56.209,T*0D
$GPGGA,051446.80,3946.77715383,N,11631.16050675,E,4,21,0.7,29.374,M,-7.733,M,0.8,1084*6B
$GPRMC,051446.80,A,3946.77715383,N,11631.16050675,E,0.04,217.82,220817,6.8,W,D,S*5C
$GPHDT,56.234,T*03
$GPGGA,051446.85,3946.77715391,N,11631.16050674,E,4,21,0.7,29.373,M,-7.733,M,0.8,1084*6B
$GPRMC,051446.85,A,3946.77715391,N,11631.16050674,E,0.05,22.14,220817,6.8,W,D,S*61
$GPHDT,56.261,T*03
$GPGGA,051446.90,3946.77715400,N,11631.16050689,E,4,21,0.7,29.373,M,-7.733,M,0.9,1084*63
$GPRMC,051446.90,A,3946.77715400,N,11631.16050689,E,0.03,171.29,220817,6.8,W,D,S*57
$GPHDT,56.307,T*02
$GPGGA,051446.95,3946.77715415,N,11631.16050704,E,4,21,0.7,29.372,M,-7.733,M,0.9,1084*67
$GPRMC,051446.95,A,3946.77715415,N,11631.16050704,E,0.03,22.17,220817,6.8,W,D,S*68
$GPHDT,56.248,T*08
$GPGGA,051447.00,3946.77715411,N,11631.16050746,E,4,21,0.7,29.372,M,-7.733,M,1.0,1084*60
$GPRMC,051447.00,A,3946.77715411,N,11631.16050746,E,0.04,129.29,220817,6.8,W,D,S*57
$GPHDT,56.248,T*08
$GPGGA,051447.05,3946.77715418,N,11631.16050760,E,4,21,0.7,29.371,M,-7.733,M,1.0,1084*6B
$GPRMC,051447.05,A,3946.77715418,N,11631.16050760,E,0.03,338.84,220817,6.8,W,D,S*5D
$GPHDT,56.257,T*06
$GPGGA,051447.10,3946.77715439,N,11631.16050711,E,4,21,0.7,29.371,M,-7.733,M,1.1,1084*6B
$GPRMC,051447.10,A,3946.77715439,N,11631.16050711,E,0.04,297.60,220817,6.8,W,D,S*55
$GPHDT,56.300,T*05
$GPGGA,051447.15,3946.77715428,N,11631.16050699,E,4,21,0.7,29.372,M,-7.733,M,1.1,1084*6C
$GPRMC,051447.15,A,3946.77715428,N,11631.16050699,E,0.03,136.48,220817,6.8,W,D,S*54
$GPHDT,56.219,T*0C
$GPGGA,051447.20,3946.77715392,N,11631.16050699,E,4,21,0.7,29.372,M,-7.733,M,1.2,1084*6F
$GPRMC,051447.20,A,3946.77715392,N,11631.16050699,E,0.03,213.08,220817,6.8,W,D,S*54
$GPHDT,56.226,T*00
$GPGGA,051447.25,3946.77715396,N,11631.16050663,E,4,21,0.7,29.370,M,-7.733,M,1.2,1084*69
$GPRMC,051447.25,A,3946.77715396,N,11631.16050663,E,0.03,319.68,220817,6.8,W,D,S*5D
$GPHDT,56.319,T*0D
$GPGGA,051447.30,3946.77715454,N,11631.16050676,E,4,21,0.7,29.369,M,-7.733,M,1.3,1084*69
$GPRMC,051447.30,A,3946.77715454,N,11631.16050676,E,0.06,31.28,220817,6.8,W,D,S*6C
$GPHDT,56.212,T*07
$GPGGA,051447.35,3946.77715416,N,11631.16050671,E,4,21,0.7,29.370,M,-7.733,M,1.3,1084*65
$GPRMC,051447.35,A,3946.77715416,N,11631.16050671,E,0.07,201.72,220817,6.8,W,D,S*57
$GPHDT,56.283,T*0F
$GPGGA,051447.40,3946.77715426,N,11631.16050644,E,4,21,0.7,29.370,M,-7.733,M,1.4,1084*65
$GPRMC,051447.40,A,3946.77715426,N,11631.16050644,E,0.06,357.46,220817,6.8,W,D,S*54
$GPHDT,56.249,T*09
$GPGGA,051447.45,3946.77715466,N,11631.16050689,E,4,21,0.7,29.371,M,-7.733,M,1.4,1084*64
$GPRMC,051447.45,A,3946.77715466,N,11631.16050689,E,0.05,85.72,220817,6.8,W,D,S*6C
$GPHDT,56.251,T*00
$GPGGA,051447.50,3946.77715453,N,11631.16050671,E,4,21,0.7,29.370,M,-7.733,M,1.5,1084*61
$GPRMC,051447.50,A,3946.77715453,N,11631.16050671,E,0.07,244.32,220817,6.8,W,D,S*50
$GPHDT,56.291,T*0C
$GPGGA,051447.55,3946.77715403,N,11631.16050640,E,4,21,0.7,29.371,M,-7.733,M,0.5,1084*63
$GPRMC,051447.55,A,3946.77715403,N,11631.16050640,E,0.04,106.42,220817,6.8,W,D,S*53
$GPHDT,56.241,T*01
$GPGGA,051447.60,3946.77715426,N,11631.16050661,E,4,21,0.7,29.371,M,-7.733,M,0.6,1084*62
$GPRMC,051447.60,A,3946.77715426,N,11631.16050661,E,0.04,348.80,220817,6.8,W,D,S*57
$GPHDT,56.288,T*04
$GPGGA,051447.65,3946.77715434,N,11631.16050604,E,4,21,0.7,29.372,M,-7.733,M,0.6,1084*64
$GPRMC,051447.65,A,3946.77715434,N,11631.16050604,E,0.04,254.71,220817,6.8,W,D,S*50
$GPHDT,56.245,T*05
$GPGGA,051447.70,3946.77715409,N,11631.16050563,E,4,21,0.7,29.372,M,-7.733,M,0.7,1084*6D
$GPRMC,051447.70,A,3946.77715409,N,11631.16050563,E,0.01,177.52,220817,6.8,W,D,S*5E
$GPHDT,56.278,T*0B
$GPGGA,051447.75,3946.77715421,N,11631.16050588,E,4,21,0.7,29.372,M,-7.733,M,0.7,1084*67
$GPRMC,051447.75,A,3946.77715421,N,11631.16050588,E,0.04,41.80,220817,6.8,W,D,S*6A
$GPHDT,56.283,T*0F
$GPGGA,051447.80,3946.77715406,N,11631.16050564,E,4,21,0.7,29.373,M,-7.733,M,0.8,1084*64
$GPRMC,051447.80,A,3946.77715406,N,11631.16050564,E,0.05,232.52,220817,6.8,W,D,S*5F
$GPHDT,56.285,T*09
$GPGGA,051447.85,3946.77715377,N,11631.16050547,E,4,21,0.7,29.374,M,-7.733,M,0.8,1084*66
$GPRMC,051447.85,A,3946.77715377,N,11631.16050547,E,0.03,116.61,220817,6.8,W,D,S*59
$GPHDT,56.255,T*04
$GPGGA,051447.90,3946.77715402,N,11631.16050545,E,4,21,0.7,29.373,M,-7.733,M,0.9,1084*63
$GPRMC,051447.90,A,3946.77715402,N,11631.16050545,E,0.05,327.01,220817,6.8,W,D,S*5A
$GPHDT,56.235,T*02
$GPGGA,051447.95,3946.77715398,N,11631.16050519,E,4,21,0.7,29.373,M,-7.733,M,0.9,1084*6B
$GPRMC,051447.95,A,3946.77715398,N,11631.16050519,E,0.03,186.20,220817,6.8,W,D,S*5E
$GPHDT,56.225,T*03
$GPGGA,051448.00,3946.77715348,N,11631.16050494,E,4,21,0.7,29.373,M,-7.733,M,1.0,1084*69
$GPRMC,051448.00,A,3946.77715348,N,11631.16050494,E,0.04,213.49,220817,6.8,W,D,S*53
$GPHDT,56.278,T*0B
$GPGGA,051448.05,3946.77715348,N,11631.16050475,E,4,21,0.7,29.375,M,-7.733,M,1.0,1084*65
$GPRMC,051448.05,A,3946.77715348,N,11631.16050475,E,0.05,359.77,220817,6.8,W,D,S*5A
$GPHDT,56.220,T*06
$GPGGA,051448.10,3946.77715412,N,11631.16050505,E,4,21,0.7,29.372,M,-7.733,M,1.1,1084*69
$GPRMC,051448.10,A,3946.77715412,N,11631.16050505,E,0.02,59.35,220817,6.8,W,D,S*62
$GPHDT,56.302,T*07
$GPGGA,051448.15,3946.77715390,N,11631.16050514,E,4,21,0.7,29.374,M,-7.733,M,1.1,1084*67
$GPRMC,051448.15,A,3946.77715390,N,11631.16050514,E,0.01,197.01,220817,6.8,W,D,S*5D
$GPHDT,56.275,T*06
$GPGGA,051448.20,3946.77715388,N,11631.16050498,E,4,21,0.7,29.375,M,-7.733,M,1.2,1084*6F
$GPRMC,051448.20,A,3946.77715388,N,11631.16050498,E,0.01,299.70,220817,6.8,W,D,S*5C
$GPHDT,56.234,T*03
$GPGGA,051448.25,3946.77715373,N,11631.16050464,E,4,21,0.7,29.376,M,-7.733,M,1.2,1084*6E
$GPRMC,051448.25,A,3946.77715373,N,11631.16050464,E,0.02,239.36,220817,6.8,W,D,S*55
$GPHDT,56.277,T*04
$GPGGA,051448.30,3946.77715402,N,11631.16050460,E,4,21,0.7,29.376,M,-7.733,M,1.3,1084*6E
$GPRMC,051448.30,A,3946.77715402,N,11631.16050460,E,0.05,16.99,220817,6.8,W,D,S*69
$GPHDT,56.296,T*0B
$GPGGA,051448.35,3946.77715395,N,11631.16050503,E,4,21,0.7,29.377,M,-7.733,M,1.3,1084*67
$GPRMC,051448.35,A,3946.77715395,N,11631.16050503,E,0.05,145.43,220817,6.8,W,D,S*51
$GPHDT,56.238,T*0F
$GPGGA,051448.40,3946.77715371,N,11631.16050502,E,4,21,0.7,29.377,M,-7.733,M,1.4,1084*69
$GPRMC,051448.40,A,3946.77715371,N,11631.16050502,E,0.03,284.38,220817,6.8,W,D,S*5C
$GPHDT,56.275,T*06
$GPGGA,051448.45,3946.77715344,N,11631.16050487,E,4,21,0.7,29.378,M,-7.733,M,0.4,1084*68
$GPRMC,051448.45,A,3946.77715344,N,11631.16050487,E,0.02,174.78,220817,6.8,W,D,S*5A
$GPHDT,56.266,T*04
$GPGGA,051448.50,3946.77715356,N,11631.16050474,E,4,21,0.7,29.377,M,-7.733,M,0.5,1084*6D
$GPRMC,051448.50,A,3946.77715356,N,11631.16050474,E,0.03,317.43,220817,6.8,W,D,S*5F
$GPHDT,56.260,T*02
$GPGGA,051448.55,3946.77715363,N,11631.16050456,E,4,21,0.7,29.376,M,-7.733,M,0.5,1084*6F
$GPRMC,051448.55,A,3946.77715363,N,11631.16050456,E,0.00,20.49,220817,6.8,W,D,S*62
$GPHDT,56.306,T*03
$GPGGA,051448.60,3946.77715334,N,11631.16050469,E,4,21,0.7,29.377,M,-7.733,M,0.6,1084*65
$GPRMC,051448.60,A,3946.77715334,N,11631.16050469,E,0.02,138.54,220817,6.8,W,D,S*5C
$GPHDT,56.227,T*01
$GPGGA,051448.65,3946.77715339,N,11631.16050475,E,4,21,0.7,29.376,M,-7.733,M,0.6,1084*61
$GPRMC,051448.65,A,3946.77715339,N,11631.16050475,E,0.02,326.81,220817,6.8,W,D,S*5C
$GPHDT,56.273,T*00
$GPGGA,051448.70,3946.77715347,N,11631.16050473,E,4,21,0.7,29.376,M,-7.733,M,0.7,1084*6B
$GPRMC,051448.70,A,3946.77715347,N,11631.16050473,E,0.01,103.97,220817,6.8,W,D,S*56
$GPHDT,56.249,T*09
$GPGGA,051448.75,3946.77715322,N,11631.16050472,E,4,21,0.7,29.377,M,-7.733,M,0.7,1084*6D
$GPRMC,051448.75,A,3946.77715322,N,11631.16050472,E,0.01,210.83,220817,6.8,W,D,S*55
$GPHDT,56.265,T*07
$GPGGA,051448.80,3946.77715334,N,11631.16050458,E,4,21,0.7,29.376,M,-7.733,M,0.8,1084*66
$GPRMC,051448.80,A,3946.77715334,N,11631.16050458,E,0.02,324.86,220817,6.8,W,D,S*50
$GPHDT,56.289,T*05
$GPGGA,051448.85,3946.77715319,N,11631.16050471,E,4,21,0.7,29.377,M,-7.733,M,0.8,1084*66
$GPRMC,051448.85,A,3946.77715319,N,11631.16050471,E,0.03,120.13,220817,6.8,W,D,S*5A
$GPHDT,56.312,T*06
$GPGGA,051448.90,3946.77715322,N,11631.16050474,E,4,21,0.7,29.376,M,-7.733,M,0.9,1084*6F
$GPRMC,051448.90,A,3946.77715322,N,11631.16050474,E,0.02,278.22,220817,6.8,W,D,S*5E
$GPHDT,56.299,T*04
