$GPRMC,051159.30,A,4006.71026412,N,11617.36033113,E,0.04,312.02,241017,6.9,W,D,S*5E
$GPHDT,65.150,T*02
$GPGGA,051159.35,4006.71026406,N,11617.36033093,E,4,21,0.7,40.877,M,-8.542,M,0.4,3941*60
$GPRMC,051159.35,A,4006.71026406,N,11617.36033093,E,0.03,173.88,241017,6.9,W,D,S*57
$GPHDT,65.175,T*05
$GPGGA,051159.40,4006.71026356,N,11617.36033102,E,4,21,0.7,40.878,M,-8.542,M,0.4,3941*66
$GPRMC,051159.40,A,4006.71026356,N,11617.36033102,E,0.04,180.05,241017,6.9,W,D,S*50
$GPHDT,65.173,T*03
$GPGGA,051159.45,4006.71026365,N,11617.36033123,E,4,21,0.7,40.877,M,-8.542,M,0.4,3941*6F
$GPRMC,051159.45,A,4006.71026365,N,11617.36033123,E,0.04,18.27,241017,6.9,W,D,S*66
$GPHDT,65.155,T*07
$GPGGA,051159.50,4006.71026362,N,11617.36033128,E,4,21,0.7,40.878,M,-8.542,M,0.5,3941*69
$GPRMC,051159.50,A,4006.71026362,N,11617.36033128,E,0.03,207.86,241017,6.9,W,D,S*5E
$GPHDT,65.158,T*0A
$GPGGA,051159.55,4006.71026346,N,11617.36033068,E,4,21,0.7,40.880,M,-8.542,M,0.5,3941*68
$GPRMC,051159.55,A,4006.71026346,N,11617.36033068,E,0.05,277.59,241017,6.9,W,D,S*5B
$GPHDT,65.135,T*01
$GPGGA,051159.60,4006.71026372,N,11617.36033048,E,4,21,0.7,40.879,M,-8.542,M,0.6,3941*6E
$GPRMC,051159.60,A,4006.71026372,N,11617.36033048,E,0.03,30.35,241017,6.9,W,D,S*65
$GPHDT,65.178,T*08
$GPGGA,051159.65,4006.71026381,N,11617.36033034,E,4,21,0.7,40.879,M,-8.542,M,0.6,3941*6C
$GPRMC,051159.65,A,4006.71026381,N,11617.36033034,E,0.04,252.51,241017,6.9,W,D,S*54
$GPHDT,65.172,T*02
$GPGGA,051159.70,4006.71026367,N,11617.36033037,E,4,21,0.7,40.880,M,-8.542,M,0.7,3941*64
$GPRMC,051159.70,A,4006.71026367,N,11617.36033037,E,0.02,116.89,241017,6.9,W,D,S*5B
$GPHDT,65.139,T*0D
$GPGGA,051159.75,4006.71026382,N,11617.36033101,E,4,21,0.7,40.878,M,-8.542,M,0.7,3941*69
$GPRMC,051159.75,A,4006.71026382,N,11617.36033101,E,0.05,70.05,241017,6.9,W,D,S*63
$GPHDT,65.164,T*05
$GPGGA,051159.80,4006.71026387,N,11617.36033132,E,4,21,0.7,40.879,M,-8.542,M,0.8,3941*68
$GPRMC,051159.80,A,4006.71026387,N,11617.36033132,E,0.02,299.35,241017,6.9,W,D,S*5D
$GPHDT,65.140,T*03
$GPGGA,051159.85,4006.71026375,N,11617.36033116,E,4,21,0.7,40.879,M,-8.542,M,0.9,3941*67
$GPRMC,051159.85,A,4006.71026375,N,11617.36033116,E,0.02,175.93,241017,6.9,W,D,S*5E
$GPHDT,65.145,T*06
$GPGGA,051159.90,4006.71026379,N,11617.36033120,E,4,21,0.7,40.878,M,-8.542,M,0.9,3941*6B
$GPRMC,051159.90,A,4006.71026379,N,11617.36033120,E,0.02,357.67,241017,6.9,W,D,S*5A
$GPHDT,65.148,T*0B
$GPGGA,051159.95,4006.71026384,N,11617.36033128,E,4,21,0.7,40.879,M,-8.542,M,1.0,3941*6D
$GPRMC,051159.95,A,4006.71026384,N,11617.36033128,E,0.01,115.97,241017,6.9,W,D,S*5D
$GPHDT,65.190,T*0E
$GPGGA,051200.00,4006.71026406,N,11617.36033144,E,4,21,0.7,40.878,M,-8.542,M,1.0,3941*68
$GPRMC,051200.00,A,4006.71026406,N,11617.36033144,E,0.04,16.81,241017,6.9,W,D,S*69
$GPHDT,65.135,T*01
$GPGGA,051200.05,4006.71026404,N,11617.36033129,E,4,21,0.7,40.880,M,-8.542,M,1.0,3941*63
$GPRMC,051200.05,A,4006.71026404,N,11617.36033129,E,0.04,236.59,241017,6.9,W,D,S*50
$GPHDT,65.134,T*00
$GPGGA,051200.10,4006.71026358,N,11617.36033112,E,4,21,0.7,40.881,M,-8.542,M,1.1,3941*61
$GPRMC,051200.10,A,4006.71026358,N,11617.36033112,E,0.04,171.27,241017,6.9,W,D,S*5B
$GPHDT,65.177,T*07
$GPGGA,051200.15,4006.71026357,N,11617.36033123,E,4,21,0.7,40.881,M,-8.542,M,1.1,3941*69
$GPRMC,051200.15,A,4006.71026357,N,11617.36033123,E,0.04,7.65,241017,6.9,W,D,S*55
$GPHDT,65.159,T*0B
$GPGGA,051200.20,4006.71026371,N,11617.36033142,E,4,21,0.7,40.882,M,-8.542,M,1.2,3941*6C
$GPRMC,051200.20,A,4006.71026371,N,11617.36033142,E,0.02,123.58,241017,6.9,W,D,S*5F
$GPHDT,65.147,T*04
$GPGGA,051200.25,4006.71026366,N,11617.36033163,E,4,21,0.7,40.882,M,-8.542,M,0.2,3941*6D
$GPRMC,051200.25,A,4006.71026366,N,11617.36033163,E,0.01,79.80,241017,6.9,W,D,S*67
$GPHDT,65.194,T*0A
$GPGGA,051200.30,4006.71026399,N,11617.36033162,E,4,21,0.7,40.882,M,-8.542,M,0.3,3941*69
$GPRMC,051200.30,A,4006.71026399,N,11617.36033162,E,0.04,343.21,241017,6.9,W,D,S*56
$GPHDT,65.156,T*04
$GPGGA,051200.35,4006.71026424,N,11617.36033165,E,4,21,0.7,40.881,M,-8.542,M,0.3,3941*69
$GPRMC,051200.35,A,4006.71026424,N,11617.36033165,E,0.02,111.61,241017,6.9,W,D,S*52
$GPHDT,65.157,T*05
$GPGGA,051200.40,4006.71026410,N,11617.36033180,E,4,21,0.7,40.881,M,-8.542,M,0.4,3941*60
$GPRMC,051200.40,A,4006.71026410,N,11617.36033180,E,0.01,162.78,241017,6.9,W,D,S*53
$GPHDT,65.212,T*07
$GPGGA,051200.45,4006.71026414,N,11617.36033154,E,4,21,0.7,40.880,M,-8.542,M,0.5,3941*68
$GPRMC,051200.45,A,4006.71026414,N,11617.36033154,E,0.03,291.58,241017,6.9,W,D,S*54
$GPHDT,65.152,T*00
$GPGGA,051200.50,4006.71026381,N,11617.36033117,E,4,21,0.7,40.882,M,-8.542,M,0.5,3941*62
$GPRMC,051200.50,A,4006.71026381,N,11617.36033117,E,0.05,210.52,241017,6.9,W,D,S*59
$GPHDT,65.146,T*05
$GPGGA,051200.55,4006.71026382,N,11617.36033126,E,4,21,0.7,40.881,M,-8.542,M,0.5,3941*65
$GPRMC,051200.55,A,4006.71026382,N,11617.36033126,E,0.04,49.43,241017,6.9,W,D,S*62
$GPHDT,65.185,T*0A
$GPGGA,051200.60,4006.71026353,N,11617.36033134,E,4,21,0.7,40.882,M,-8.542,M,0.6,3941*6C
$GPRMC,051200.60,A,4006.71026353,N,11617.36033134,E,0.06,204.16,241017,6.9,W,D,S*52
$GPHDT,65.114,T*02
$GPGGA,051200.65,4006.71026351,N,11617.36033130,E,4,21,0.7,40.881,M,-8.542,M,0.6,3941*6C
$GPRMC,051200.65,A,4006.71026351,N,11617.36033130,E,0.05,23.95,241017,6.9,W,D,S*6E
$GPHDT,65.191,T*0F
$GPGGA,051200.70,4006.71026346,N,11617.36033131,E,4,21,0.7,40.881,M,-8.542,M,0.7,3941*6E
$GPRMC,051200.70,A,4006.71026346,N,11617.36033131,E,0.05,204.30,241017,6.9,W,D,S*55
$GPHDT,65.139,T*0D
$GPGGA,051200.75,4006.71026336,N,11617.36033122,E,4,21,0.7,40.882,M,-8.542,M,0.7,3941*6D
$GPRMC,051200.75,A,4006.71026336,N,11617.36033122,E,0.04,3.00,241017,6.9,W,D,S*52
$GPHDT,65.184,T*0B
$GPGGA,051200.80,4006.71026335,N,11617.36033108,E,4,21,0.7,40.883,M,-8.542,M,0.8,3941*62
$GPRMC,051200.80,A,4006.71026335,N,11617.36033108,E,0.04,205.02,241017,6.9,W,D,S*55
$GPHDT,65.110,T*06
$GPGGA,051200.85,4006.71026303,N,11617.36033103,E,4,21,0.7,40.882,M,-8.542,M,0.8,3941*68
$GPRMC,051200.85,A,4006.71026303,N,11617.36033103,E,0.01,93.48,241017,6.9,W,D,S*68
$GPHDT,65.109,T*0E
$GPGGA,051200.90,4006.71026317,N,11617.36033099,E,4,21,0.7,40.882,M,-8.542,M,0.9,3941*6A
$GPRMC,051200.90,A,4006.71026317,N,11617.36033099,E,0.03,336.76,241017,6.9,W,D,S*58
$GPHDT,65.146,T*05
$GPGGA,051200.95,4006.71026316,N,11617.36033070,E,4,21,0.7,40.882,M,-8.542,M,1.0,3941*61
$GPRMC,051200.95,A,4006.71026316,N,11617.36033070,E,0.03,235.62,241017,6.9,W,D,S*5C
$GPHDT,65.160,T*01
$GPGGA,051201.00,4006.71026336,N,11617.36033069,E,4,21,0.7,40.881,M,-8.542,M,1.0,3941*65
$GPRMC,051201.00,A,4006.71026336,N,11617.36033069,E,0.05,21.28,241017,6.9,W,D,S*64
$GPHDT,65.147,T*04
$GPGGA,051201.05,4006.71026374,N,11617.36033088,E,4,21,0.7,40.879,M,-8.542,M,1.1,3941*6F
$GPRMC,051201.05,A,4006.71026374,N,11617.36033088,E,0.01,12.13,241017,6.9,W,D,S*64
$GPHDT,65.134,T*00
$GPGGA,051201.10,4006.71026336,N,11617.36033089,E,4,21,0.7,40.879,M,-8.542,M,1.1,3941*6C
$GPRMC,051201.10,A,4006.71026336,N,11617.36033089,E,0.04,187.07,241017,6.9,W,D,S*5A
$GPHDT,65.136,T*02
$GPGGA,051201.15,4006.71026306,N,11617.36033106,E,4,21,0.7,40.880,M,-8.542,M,1.1,3941*6A
$GPRMC,051201.15,A,4006.71026306,N,11617.36033106,E,0.02,60.10,241017,6.9,W,D,S*62
$GPHDT,65.165,T*04
$GPGGA,051201.20,4006.71026321,N,11617.36033125,E,4,21,0.7,40.881,M,-8.542,M,1.2,3941*6A
$GPRMC,051201.20,A,4006.71026321,N,11617.36033125,E,0.02,9.65,241017,6.9,W,D,S*5D
$GPHDT,65.154,T*06
$GPGGA,051201.25,4006.71026325,N,11617.36033104,E,4,21,0.7,40.881,M,-8.542,M,1.2,3941*68
$GPRMC,051201.25,A,4006.71026325,N,11617.36033104,E,0.02,267.23,241017,6.9,W,D,S*57
$GPHDT,65.143,T*00
$GPGGA,051201.30,4006.71026328,N,11617.36033119,E,4,21,0.7,40.881,M,-8.542,M,1.3,3941*6C
$GPRMC,051201.30,A,4006.71026328,N,11617.36033119,E,0.03,51.61,241017,6.9,W,D,S*62
$GPHDT,65.171,T*01
$GPGGA,051201.35,4006.71026324,N,11617.36033122,E,4,21,0.7,40.881,M,-8.542,M,0.3,3941*6C
$GPRMC,051201.35,A,4006.71026324,N,11617.36033122,E,0.03,202.76,241017,6.9,W,D,S*51
$GPHDT,65.161,T*00
$GPGGA,051201.40,4006.71026310,N,11617.36033099,E,4,21,0.7,40.882,M,-8.542,M,0.4,3941*6C
$GPRMC,051201.40,A,4006.71026310,N,11617.36033099,E,0.01,272.87,241017,6.9,W,D,S*5E
$GPHDT,65.141,T*02
$GPGGA,051201.45,4006.71026303,N,11617.36033102,E,4,21,0.7,40.882,M,-8.542,M,0.4,3941*68
$GPRMC,051201.45,A,4006.71026303,N,11617.36033102,E,0.03,135.93,241017,6.9,W,D,S*5D
$GPHDT,65.137,T*03
$GPGGA,051201.50,4006.71026302,N,11617.36033082,E,4,21,0.7,40.884,M,-8.542,M,0.5,3941*63
$GPRMC,051201.50,A,4006.71026302,N,11617.36033082,E,0.04,285.19,241017,6.9,W,D,S*5C
$GPHDT,65.185,T*0A
$GPGGA,051201.55,4006.71026334,N,11617.36033047,E,4,21,0.7,40.882,M,-8.542,M,0.6,3941*6F
$GPRMC,051201.55,A,4006.71026334,N,11617.36033047,E,0.03,13.65,241017,6.9,W,D,S*64
$GPHDT,65.121,T*04
$GPGGA,051201.60,4006.71026347,N,11617.36033061,E,4,21,0.7,40.883,M,-8.542,M,0.6,3941*68
$GPRMC,051201.60,A,4006.71026347,N,11617.36033061,E,0.01,348.48,241017,6.9,W,D,S*52
$GPHDT,65.140,T*03
$GPGGA,051201.65,4006.71026317,N,11617.36033064,E,4,21,0.7,40.884,M,-8.542,M,0.7,3941*6B
$GPRMC,051201.65,A,4006.71026317,N,11617.36033064,E,0.04,172.30,241017,6.9,W,D,S*56
$GPHDT,65.149,T*0A
$GPGGA,051201.70,4006.71026315,N,11617.36033058,E,4,21,0.7,40.883,M,-8.542,M,0.7,3941*65
$GPRMC,051201.70,A,4006.71026315,N,11617.36033058,E,0.03,347.76,241017,6.9,W,D,S*5E
$GPHDT,65.160,T*01
$GPGGA,051201.75,4006.71026292,N,11617.36033015,E,4,21,0.7,40.884,M,-8.542,M,0.7,3941*60
$GPRMC,051201.75,A,4006.71026292,N,11617.36033015,E,0.06,221.59,241017,6.9,W,D,S*55
$GPHDT,65.104,T*03
$GPGGA,051201.80,4006.71026274,N,11617.36032989,E,4,21,0.7,40.884,M,-8.542,M,0.8,3941*60
$GPRMC,051201.80,A,4006.71026274,N,11617.36032989,E,0.02,25.18,241017,6.9,W,D,S*6D
$GPHDT,65.167,T*06
$GPGGA,051201.85,4006.71026257,N,11617.36032971,E,4,21,0.7,40.886,M,-8.542,M,0.8,3941*61
$GPRMC,051201.85,A,4006.71026257,N,11617.36032971,E,0.04,236.23,241017,6.9,W,D,S*50
$GPHDT,65.147,T*04
$GPGGA,051201.90,4006.71026191,N,11617.36032922,E,4,21,0.7,40.885,M,-8.542,M,0.9,3941*68
$GPRMC,051201.90,A,4006.71026191,N,11617.36032922,E,0.07,192.46,241017,6.9,W,D,S*56
$GPHDT,65.173,T*03
$GPGGA,051201.95,4006.71026133,N,11617.36032920,E,4,21,0.7,40.886,M,-8.542,M,0.9,3941*64
$GPRMC,051201.95,A,4006.71026133,N,11617.36032920,E,0.01,43.98,241017,6.9,W,D,S*61
$GPHDT,65.175,T*05
$GPGGA,051202.00,4006.71026106,N,11617.36032921,E,4,21,0.7,40.886,M,-8.542,M,1.0,3941*64
$GPRMC,051202.00,A,4006.71026106,N,11617.36032921,E,0.04,185.88,241017,6.9,W,D,S*56
$GPHDT,65.134,T*00
$GPGGA,051202.05,4006.71026101,N,11617.36032923,E,4,21,0.7,40.886,M,-8.542,M,1.1,3941*65
$GPRMC,051202.05,A,4006.71026101,N,11617.36032923,E,0.03,24.77,241017,6.9,W,D,S*6B
$GPHDT,65.232,T*05
$GPGGA,051202.10,4006.71026121,N,11617.36032902,E,4,21,0.7,40.886,M,-8.542,M,1.1,3941*60
$GPRMC,051202.10,A,4006.71026121,N,11617.36032902,E,0.03,287.48,241017,6.9,W,D,S*59
$GPHDT,65.189,T*06
$GPGGA,051202.15,4006.71026159,N,11617.36032844,E,4,21,0.7,40.885,M,-8.542,M,1.2,3941*69
$GPRMC,051202.15,A,4006.71026159,N,11617.36032844,E,0.05,329.36,241017,6.9,W,D,S*5A
$GPHDT,65.137,T*03
$GPGGA,051202.20,4006.71026181,N,11617.36032800,E,4,21,0.7,40.885,M,-8.542,M,1.2,3941*6A
$GPRMC,051202.20,A,4006.71026181,N,11617.36032800,E,0.02,274.61,241017,6.9,W,D,S*55
$GPHDT,65.205,T*01
$GPGGA,051202.25,4006.71026272,N,11617.36032761,E,4,21,0.7,40.885,M,-8.542,M,0.2,3941*69
$GPRMC,051202.25,A,4006.71026272,N,11617.36032761,E,0.10,339.23,241017,6.9,W,D,S*5A
$GPHDT,65.162,T*03
$GPGGA,051202.30,4006.71026330,N,11617.36032713,E,4,21,0.7,40.885,M,-8.542,M,0.3,3941*6E
$GPRMC,051202.30,A,4006.71026330,N,11617.36032713,E,0.04,233.59,241017,6.9,W,D,S*5F
$GPHDT,65.175,T*05
$GPGGA,051202.35,4006.71026311,N,11617.36032715,E,4,21,0.7,40.885,M,-8.542,M,0.3,3941*6E
$GPRMC,051202.35,A,4006.71026311,N,11617.36032715,E,0.02,132.06,241017,6.9,W,D,S*51
$GPHDT,65.157,T*05
$GPGGA,051202.40,4006.71026256,N,11617.36032783,E,4,21,0.7,40.885,M,-8.542,M,0.4,3941*66
$GPRMC,051202.40,A,4006.71026256,N,11617.36032783,E,0.08,147.85,241017,6.9,W,D,S*5D
$GPHDT,65.206,T*02
$GPGGA,051202.45,4006.71026216,N,11617.36032850,E,4,21,0.7,40.884,M,-8.542,M,0.4,3941*67
$GPRMC,051202.45,A,4006.71026216,N,11617.36032850,E,0.02,91.26,241017,6.9,W,D,S*64
$GPHDT,65.143,T*00
$GPGGA,051202.50,4006.71026201,N,11617.36032867,E,4,21,0.7,40.884,M,-8.542,M,0.5,3941*60
$GPRMC,051202.50,A,4006.71026201,N,11617.36032867,E,0.03,203.23,241017,6.9,W,D,S*5F
$GPHDT,65.196,T*08
$GPGGA,051202.55,4006.71026208,N,11617.36032859,E,4,21,0.7,40.885,M,-8.542,M,0.5,3941*60
$GPRMC,051202.55,A,4006.71026208,N,11617.36032859,E,0.03,337.38,241017,6.9,W,D,S*52
$GPHDT,65.168,T*09
$GPGGA,051202.60,4006.71026273,N,11617.36032820,E,4,21,0.7,40.886,M,-8.542,M,0.6,3941*64
$GPRMC,051202.60,A,4006.71026273,N,11617.36032820,E,0.06,331.24,241017,6.9,W,D,S*58
$GPHDT,65.193,T*0D
$GPGGA,051202.65,4006.71026288,N,11617.36032797,E,4,21,0.7,40.884,M,-8.542,M,0.7,3941*65
$GPRMC,051202.65,A,4006.71026288,N,11617.36032797,E,0.05,176.32,241017,6.9,W,D,S*5F
$GPHDT,65.172,T*02
$GPGGA,051202.70,4006.71026296,N,11617.36032789,E,4,21,0.7,40.884,M,-8.542,M,0.7,3941*61
$GPRMC,051202.70,A,4006.71026296,N,11617.36032789,E,0.05,345.68,241017,6.9,W,D,S*56
$GPHDT,65.166,T*07
$GPGGA,051202.75,4006.71026272,N,11617.36032821,E,4,21,0.7,40.884,M,-8.542,M,0.8,3941*6C
$GPRMC,051202.75,A,4006.71026272,N,11617.36032821,E,0.08,151.89,241017,6.9,W,D,S*51
$GPHDT,65.140,T*03
$GPGGA,051202.80,4006.71026221,N,11617.36032849,E,4,21,0.7,40.884,M,-8.542,M,0.8,3941*6E
$GPRMC,051202.80,A,4006.71026221,N,11617.36032849,E,0.01,277.02,241017,6.9,W,D,S*5E
$GPHDT,65.184,T*0B
$GPGGA,051202.85,4006.71026219,N,11617.36032849,E,4,21,0.7,40.884,M,-8.542,M,0.8,3941*60
$GPRMC,051202.85,A,4006.71026219,N,11617.36032849,E,0.02,95.64,241017,6.9,W,D,S*6D
$GPHDT,65.160,T*01
$GPGGA,051202.90,4006.71026239,N,11617.36032892,E,4,21,0.7,40.885,M,-8.542,M,0.9,3941*60
$GPRMC,051202.90,A,4006.71026239,N,11617.36032892,E,0.04,45.28,241017,6.9,W,D,S*6E
$GPHDT,65.224,T*02
$GPGGA,051202.95,4006.71026267,N,11617.36032861,E,4,21,0.7,40.884,M,-8.542,M,0.9,3941*63
$GPRMC,051202.95,A,4006.71026267,N,11617.36032861,E,0.05,274.76,241017,6.9,W,D,S*56
$GPHDT,65.141,T*02
$GPGGA,051203.00,4006.71026274,N,11617.36032814,E,4,21,0.7,40.883,M,-8.542,M,1.0,3941*61
$GPRMC,051203.00,A,4006.71026274,N,11617.36032814,E,0.01,306.84,241017,6.9,W,D,S*56
$GPHDT,65.167,T*06
$GPGGA,051203.05,4006.71026250,N,11617.36032783,E,4,21,0.7,40.882,M,-8.542,M,1.0,3941*62
$GPRMC,051203.05,A,4006.71026250,N,11617.36032783,E,0.04,212.66,241017,6.9,W,D,S*59
$GPHDT,65.176,T*06
$GPGGA,051203.10,4006.71026226,N,11617.36032747,E,4,21,0.7,40.882,M,-8.542,M,1.1,3941*6E
$GPRMC,051203.10,A,4006.71026226,N,11617.36032747,E,0.02,267.23,241017,6.9,W,D,S*51
$GPHDT,65.160,T*01
$GPGGA,051203.15,4006.71026233,N,11617.36032790,E,4,21,0.7,40.883,M,-8.542,M,1.1,3941*64
$GPRMC,051203.15,A,4006.71026233,N,11617.36032790,E,0.05,75.91,241017,6.9,W,D,S*65
$GPHDT,65.201,T*05
$GPGGA,051203.20,4006.71026230,N,11617.36032855,E,4,21,0.7,40.883,M,-8.542,M,1.2,3941*64
$GPRMC,051203.20,A,4006.71026230,N,11617.36032855,E,0.03,125.57,241017,6.9,W,D,S*5E
$GPHDT,65.133,T*07
$GPGGA,051203.25,4006.71026244,N,11617.36032851,E,4,21,0.7,40.882,M,-8.542,M,0.3,3941*67
$GPRMC,051203.25,A,4006.71026244,N,11617.36032851,E,0.03,282.46,241017,6.9,W,D,S*52
$GPHDT,65.226,T*00
$GPGGA,051203.30,4006.71026279,N,11617.36032873,E,4,21,0.7,40.882,M,-8.542,M,0.3,3941*6D
$GPRMC,051203.30,A,4006.71026279,N,11617.36032873,E,0.05,58.56,241017,6.9,W,D,S*6A
$GPHDT,65.116,T*00
$GPGGA,051203.35,4006.71026281,N,11617.36032897,E,4,21,0.7,40.882,M,-8.542,M,0.4,3941*62
$GPRMC,051203.35,A,4006.71026281,N,11617.36032897,E,0.03,216.61,241017,6.9,W,D,S*58
$GPHDT,65.206,T*02
$GPGGA,051203.40,4006.71026268,N,11617.36032874,E,4,21,0.7,40.882,M,-8.542,M,0.4,3941*6A
$GPRMC,051203.40,A,4006.71026268,N,11617.36032874,E,0.02,242.21,241017,6.9,W,D,S*54
$GPHDT,65.159,T*0B
$GPGGA,051203.45,4006.71026285,N,11617.36032838,E,4,21,0.7,40.882,M,-8.542,M,0.4,3941*64
$GPRMC,051203.45,A,4006.71026285,N,11617.36032838,E,0.03,298.26,241017,6.9,W,D,S*5B
$GPHDT,65.200,T*04
$GPGGA,051203.50,4006.71026312,N,11617.36032857,E,4,21,0.7,40.882,M,-8.542,M,0.5,3941*67
$GPRMC,051203.50,A,4006.71026312,N,11617.36032857,E,0.04,67.99,241017,6.9,W,D,S*68
$GPHDT,65.178,T*08
$GPGGA,051203.55,4006.71026325,N,11617.36032826,E,4,21,0.7,40.882,M,-8.542,M,0.5,3941*60
$GPRMC,051203.55,A,4006.71026325,N,11617.36032826,E,0.07,264.41,241017,6.9,W,D,S*58
$GPHDT,65.180,T*0F
$GPGGA,051203.60,4006.71026315,N,11617.36032811,E,4,21,0.7,40.882,M,-8.542,M,0.6,3941*62
$GPRMC,051203.60,A,4006.71026315,N,11617.36032811,E,0.04,115.22,241017,6.9,W,D,S*5A
$GPHDT,65.160,T*01
$GPGGA,051203.65,4006.71026278,N,11617.36032814,E,4,21,0.7,40.882,M,-8.542,M,0.6,3941*68
$GPRMC,051203.65,A,4006.71026278,N,11617.36032814,E,0.05,208.78,241017,6.9,W,D,S*51
$GPHDT,65.109,T*0E
$GPGGA,051203.70,4006.71026258,N,11617.36032814,E,4,21,0.7,40.882,M,-8.542,M,0.7,3941*6F
$GPRMC,051203.70,A,4006.71026258,N,11617.36032814,E,0.02,64.95,241017,6.9,W,D,S*6B
$GPHDT,65.159,T*0B
$GPGGA,051203.75,4006.71026276,N,11617.36032814,E,4,21,0.7,40.881,M,-8.542,M,0.8,3941*6A
$GPRMC,051203.75,A,4006.71026276,N,11617.36032814,E,0.02,268.57,241017,6.9,W,D,S*52
$GPHDT,65.168,T*09
$GPGGA,051203.80,4006.71026297,N,11617.36032831,E,4,21,0.7,40.881,M,-8.542,M,0.8,3941*68
$GPRMC,051203.80,A,4006.71026297,N,11617.36032831,E,0.04,45.32,241017,6.9,W,D,S*68
$GPHDT,65.189,T*06
$GPGGA,051203.85,4006.71026333,N,11617.36032795,E,4,21,0.7,40.882,M,-8.542,M,0.9,3941*61
$GPRMC,051203.85,A,4006.71026333,N,11617.36032795,E,0.06,285.19,241017,6.9,W,D,S*56
$GPHDT,65.129,T*0C
$GPGGA,051203.90,4006.71026343,N,11617.36032760,E,4,21,0.7,40.881,M,-8.542,M,0.9,3941*6B
$GPRMC,051203.90,A,4006.71026343,N,11617.36032760,E,0.02,114.78,241017,6.9,W,D,S*57
$GPHDT,65.157,T*05
$GPGGA,051203.95,4006.71026325,N,11617.36032791,E,4,21,0.7,40.880,M,-8.542,M,0.9,3941*61
$GPRMC,051203.95,A,4006.71026325,N,11617.36032791,E,0.03,138.45,241017,6.9,W,D,S*5D
$GPHDT,65.172,T*02
$GPGGA,051204.00,4006.71026296,N,11617.36032805,E,4,21,0.7,40.880,M,-8.542,M,1.0,3941*69
$GPRMC,051204.00,A,4006.71026296,N,11617.36032805,E,0.02,181.91,241017,6.9,W,D,S*57
$GPHDT,65.186,T*09
$GPGGA,051204.05,4006.71026319,N,11617.36032759,E,4,21,0.7,40.880,M,-8.542,M,1.0,3941*6C
$GPRMC,051204.05,A,4006.71026319,N,11617.36032759,E,0.06,317.16,241017,6.9,W,D,S*54
$GPHDT,65.174,T*04
$GPGGA,051204.10,4006.71026342,N,11617.36032709,E,4,21,0.7,40.879,M,-8.542,M,1.1,3941*64
$GPRMC,051204.10,A,4006.71026342,N,11617.36032709,E,0.02,206.51,241017,6.9,W,D,S*5D
$GPHDT,65.131,T*05
$GPGGA,051204.15,4006.71026331,N,11617.36032743,E,4,21,0.7,40.878,M,-8.542,M,1.1,3941*6A
$GPRMC,051204.15,A,4006.71026331,N,11617.36032743,E,0.04,91.96,241017,6.9,W,D,S*63
$GPHDT,65.218,T*0D
$GPGGA,051204.20,4006.71026342,N,11617.36032720,E,4,21,0.7,40.878,M,-8.542,M,1.2,3941*6E
$GPRMC,051204.20,A,4006.71026342,N,11617.36032720,E,0.07,289.49,241017,6.9,W,D,S*5E
$GPHDT,65.152,T*00
$GPGGA,051204.25,4006.71026367,N,11617.36032690,E,4,21,0.7,40.879,M,-8.542,M,0.2,3941*66
$GPRMC,051204.25,A,4006.71026367,N,11617.36032690,E,0.04,48.24,241017,6.9,W,D,S*61
$GPHDT,65.160,T*01
$GPGGA,051204.30,4006.71026365,N,11617.36032718,E,4,21,0.7,40.880,M,-8.542,M,0.3,3941*66
$GPRMC,051204.30,A,4006.71026365,N,11617.36032718,E,0.01,148.45,241017,6.9,W,D,S*55
$GPHDT,65.196,T*08
$GPGGA,051204.35,4006.71026365,N,11617.36032731,E,4,21,0.7,40.880,M,-8.542,M,0.4,3941*6F
$GPRMC,051204.35,A,4006.71026365,N,11617.36032731,E,0.02,44.48,241017,6.9,W,D,S*68
$GPHDT,65.175,T*05
$GPGGA,051204.40,4006.71026369,N,11617.36032710,E,4,21,0.7,40.880,M,-8.542,M,0.4,3941*62
$GPRMC,051204.40,A,4006.71026369,N,11617.36032710,E,0.03,254.28,241017,6.9,W,D,S*51
$GPHDT,65.196,T*08
$GPGGA,051204.45,4006.71026378,N,11617.36032688,E,4,21,0.7,40.881,M,-8.542,M,0.5,3941*67
$GPRMC,051204.45,A,4006.71026378,N,11617.36032688,E,0.02,11.20,241017,6.9,W,D,S*6E
$GPHDT,65.166,T*07
$GPGGA,051204.50,4006.71026404,N,11617.36032717,E,4,21,0.7,40.882,M,-8.542,M,0.5,3941*6B
$GPRMC,051204.50,A,4006.71026404,N,11617.36032717,E,0.03,37.95,241017,6.9,W,D,S*6A
$GPHDT,65.198,T*06
$GPGGA,051204.55,4006.71026418,N,11617.36032701,E,4,21,0.7,40.881,M,-8.542,M,0.5,3941*67
$GPRMC,051204.55,A,4006.71026418,N,11617.36032701,E,0.03,250.02,241017,6.9,W,D,S*58
$GPHDT,65.155,T*07
$GPGGA,051204.60,4006.71026376,N,11617.36032704,E,4,21,0.7,40.882,M,-8.542,M,0.6,3941*6B
$GPRMC,051204.60,A,4006.71026376,N,11617.36032704,E,0.04,149.01,241017,6.9,W,D,S*5B
$GPHDT,65.170,T*00
$GPGGA,051204.65,4006.71026344,N,11617.36032734,E,4,21,0.7,40.882,M,-8.542,M,0.6,3941*6C
$GPRMC,051204.65,A,4006.71026344,N,11617.36032734,E,0.02,139.62,241017,6.9,W,D,S*58
$GPHDT,65.148,T*0B
$GPGGA,051204.70,4006.71026332,N,11617.36032725,E,4,21,0.7,40.883,M,-8.542,M,0.7,3941*69
$GPRMC,051204.70,A,4006.71026332,N,11617.36032725,E,0.02,243.90,241017,6.9,W,D,S*5E
$GPHDT,65.151,T*03
$GPGGA,051204.75,4006.71026354,N,11617.36032723,E,4,21,0.7,40.883,M,-8.542,M,0.7,3941*6A
$GPRMC,051204.75,A,4006.71026354,N,11617.36032723,E,0.04,22.12,241017,6.9,W,D,S*64
$GPHDT,65.170,T*00
$GPGGA,051204.80,4006.71026381,N,11617.36032718,E,4,21,0.7,40.883,M,-8.542,M,0.8,3941*6F
$GPRMC,051204.80,A,4006.71026381,N,11617.36032718,E,0.01,259.42,241017,6.9,W,D,S*50
$GPHDT,65.096,T*09
$GPGGA,051204.85,4006.71026403,N,11617.36032751,E,4,21,0.7,40.883,M,-8.542,M,0.8,3941*6A
$GPRMC,051204.85,A,4006.71026403,N,11617.36032751,E,0.06,57.53,241017,6.9,W,D,S*6E
$GPHDT,65.185,T*0A
$GPGGA,051204.90,4006.71026448,N,11617.36032749,E,4,21,0.7,40.882,M,-8.542,M,0.9,3941*68
$GPRMC,051204.90,A,4006.71026448,N,11617.36032749,E,0.05,309.91,241017,6.9,W,D,S*59
$GPHDT,65.108,T*0F
$GPGGA,051204.95,4006.71026444,N,11617.36032718,E,4,21,0.7,40.881,M,-8.542,M,1.0,3941*6E
$GPRMC,051204.95,A,4006.71026444,N,11617.36032718,E,0.03,166.39,241017,6.9,W,D,S*5B
$GPHDT,65.207,T*03
$GPGGA,051205.00,4006.71026422,N,11617.36032718,E,4,21,0.7,40.882,M,-8.542,M,1.0,3941*60
$GPRMC,051205.00,A,4006.71026422,N,11617.36032718,E,0.00,251.30,241017,6.9,W,D,S*5B
$GPHDT,65.193,T*0D
$GPGGA,051205.05,4006.71026416,N,11617.36032718,E,4,21,0.7,40.883,M,-8.542,M,1.0,3941*63
$GPRMC,051205.05,A,4006.71026416,N,11617.36032718,E,0.01,163.94,241017,6.9,W,D,S*54
$GPHDT,65.175,T*05
$GPGGA,051205.10,4006.71026425,N,11617.36032706,E,4,21,0.7,40.883,M,-8.542,M,1.1,3941*69
$GPRMC,051205.10,A,4006.71026425,N,11617.36032706,E,0.02,322.09,241017,6.9,W,D,S*5F
$GPHDT,65.162,T*03
$GPGGA,051205.15,4006.71026438,N,11617.36032702,E,4,21,0.7,40.883,M,-8.542,M,1.1,3941*64
$GPRMC,051205.15,A,4006.71026438,N,11617.36032702,E,0.00,31.92,241017,6.9,W,D,S*63
$GPHDT,65.180,T*0F
$GPGGA,051205.20,4006.71026429,N,11617.36032701,E,4,21,0.7,40.883,M,-8.542,M,1.2,3941*62
$GPRMC,051205.20,A,4006.71026429,N,11617.36032701,E,0.02,195.87,241017,6.9,W,D,S*5F
$GPHDT,65.173,T*03
$GPGGA,051205.25,4006.71026443,N,11617.36032700,E,4,21,0.7,40.883,M,-8.542,M,1.2,3941*6A
$GPRMC,051205.25,A,4006.71026443,N,11617.36032700,E,0.03,2.93,241017,6.9,W,D,S*5C
$GPHDT,65.199,T*07
$GPGGA,051205.30,4006.71026465,N,11617.36032697,E,4,21,0.7,40.882,M,-8.542,M,1.3,3941*65
$GPRMC,051205.30,A,4006.71026465,N,11617.36032697,E,0.00,2.93,241017,6.9,W,D,S*50
$GPHDT,65.137,T*03
$GPGGA,051205.35,4006.71026442,N,11617.36032724,E,4,21,0.7,40.882,M,-8.542,M,0.3,3941*6D
$GPRMC,051205.35,A,4006.71026442,N,11617.36032724,E,0.02,108.99,241017,6.9,W,D,S*5A
$GPHDT,65.138,T*0C
$GPGGA,051205.40,4006.71026436,N,11617.36032716,E,4,21,0.7,40.883,M,-8.542,M,0.4,3941*6B
$GPRMC,051205.40,A,4006.71026436,N,11617.36032716,E,0.04,297.36,241017,6.9,W,D,S*5C
$GPHDT,65.121,T*04
$GPGGA,051205.45,4006.71026385,N,11617.36032742,E,4,21,0.7,40.883,M,-8.542,M,0.5,3941*61
$GPRMC,051205.45,A,4006.71026385,N,11617.36032742,E,0.08,145.76,241017,6.9,W,D,S*53
$GPHDT,65.173,T*03
$GPGGA,051205.50,4006.71026366,N,11617.36032777,E,4,21,0.7,40.881,M,-8.542,M,0.5,3941*6C
$GPRMC,051205.50,A,4006.71026366,N,11617.36032777,E,0.04,351.24,241017,6.9,W,D,S*50
$GPHDT,65.144,T*07
$GPGGA,051205.55,4006.71026370,N,11617.36032747,E,4,21,0.7,40.882,M,-8.542,M,0.6,3941*6D
$GPRMC,051205.55,A,4006.71026370,N,11617.36032747,E,0.03,243.21,241017,6.9,W,D,S*51
$GPHDT,65.159,T*0B
$GPGGA,051205.60,4006.71026360,N,11617.36032751,E,4,21,0.7,40.881,M,-8.542,M,0.6,3941*6E
$GPRMC,051205.60,A,4006.71026360,N,11617.36032751,E,0.03,100.08,241017,6.9,W,D,S*5E
$GPHDT,65.131,T*05
$GPGGA,051205.65,4006.71026362,N,11617.36032776,E,4,21,0.7,40.882,M,-8.542,M,0.6,3941*6F
$GPRMC,051205.65,A,4006.71026362,N,11617.36032776,E,0.01,335.97,241017,6.9,W,D,S*5C
$GPHDT,65.166,T*07
$GPGGA,051205.70,4006.71026368,N,11617.36032760,E,4,21,0.7,40.881,M,-8.542,M,0.7,3941*64
$GPRMC,051205.70,A,4006.71026368,N,11617.36032760,E,0.01,207.96,241017,6.9,W,D,S*54
$GPHDT,65.200,T*04
$GPGGA,051205.75,4006.71026358,N,11617.36032740,E,4,21,0.7,40.882,M,-8.542,M,0.7,3941*63
$GPRMC,051205.75,A,4006.71026358,N,11617.36032740,E,0.03,276.13,241017,6.9,W,D,S*59
$GPHDT,65.178,T*08
$GPGGA,051205.80,4006.71026375,N,11617.36032739,E,4,21,0.7,40.881,M,-8.542,M,0.8,3941*64
$GPRMC,051205.80,A,4006.71026375,N,11617.36032739,E,0.02,70.12,241017,6.9,W,D,S*66
$GPHDT,65.130,T*04
$GPGGA,051205.85,4006.71026374,N,11617.36032786,E,4,21,0.7,40.881,M,-8.542,M,0.8,3941*64
$GPRMC,051205.85,A,4006.71026374,N,11617.36032786,E,0.02,108.49,241017,6.9,W,D,S*56
$GPHDT,65.197,T*09
$GPGGA,051205.90,4006.71026381,N,11617.36032760,E,4,21,0.7,40.881,M,-8.542,M,0.9,3941*63
$GPRMC,051205.90,A,4006.71026381,N,11617.36032760,E,0.05,287.53,241017,6.9,W,D,S*58
$GPHDT,65.169,T*08
$GPGGA,051205.95,4006.71026395,N,11617.36032750,E,4,21,0.7,40.882,M,-8.542,M,0.9,3941*63
$GPRMC,051205.95,A,4006.71026395,N,11617.36032750,E,0.03,85.61,241017,6.9,W,D,S*6C
$GPHDT,65.179,T*09
$GPGGA,051206.00,4006.71026405,N,11617.36032757,E,4,21,0.7,40.881,M,-8.542,M,1.0,3941*6E
$GPRMC,051206.00,A,4006.71026405,N,11617.36032757,E,0.02,268.72,241017,6.9,W,D,S*58
$GPHDT,65.181,T*0E
$GPGGA,051206.05,4006.71026415,N,11617.36032746,E,4,21,0.7,40.881,M,-8.542,M,1.1,3941*6B
$GPRMC,051206.05,A,4006.71026415,N,11617.36032746,E,0.01,346.07,241017,6.9,W,D,S*50
$GPHDT,65.195,T*0B
$GPGGA,051206.10,4006.71026428,N,11617.36032702,E,4,21,0.7,40.880,M,-8.542,M,1.1,3941*60
$GPRMC,051206.10,A,4006.71026428,N,11617.36032702,E,0.05,269.21,241017,6.9,W,D,S*56
$GPHDT,65.150,T*02
$GPGGA,051206.15,4006.71026431,N,11617.36032677,E,4,21,0.7,40.881,M,-8.542,M,1.2,3941*6C
$GPRMC,051206.15,A,4006.71026431,N,11617.36032677,E,0.01,40.55,241017,6.9,W,D,S*66
$GPHDT,65.189,T*06
$GPGGA,051206.20,4006.71026430,N,11617.36032670,E,4,21,0.7,40.880,M,-8.542,M,1.2,3941*6D
$GPRMC,051206.20,A,4006.71026430,N,11617.36032670,E,0.02,229.25,241017,6.9,W,D,S*5F
$GPHDT,65.161,T*00
$GPGGA,051206.25,4006.71026408,N,11617.36032703,E,4,21,0.7,40.882,M,-8.542,M,0.2,3941*65
$GPRMC,051206.25,A,4006.71026408,N,11617.36032703,E,0.04,55.80,241017,6.9,W,D,S*64
$GPHDT,65.192,T*0C
$GPGGA,051206.30,4006.71026423,N,11617.36032718,E,4,21,0.7,40.882,M,-8.542,M,0.3,3941*63
$GPRMC,051206.30,A,4006.71026423,N,11617.36032718,E,0.03,328.00,241017,6.9,W,D,S*55
$GPHDT,65.192,T*0C
$GPGGA,051206.35,4006.71026426,N,11617.36032728,E,4,21,0.7,40.882,M,-8.542,M,0.3,3941*60
$GPRMC,051206.35,A,4006.71026426,N,11617.36032728,E,0.02,106.44,241017,6.9,W,D,S*59
$GPHDT,65.168,T*09
$GPGGA,051206.40,4006.71026419,N,11617.36032713,E,4,21,0.7,40.881,M,-8.542,M,0.4,3941*62
$GPRMC,051206.40,A,4006.71026419,N,11617.36032713,E,0.04,296.38,241017,6.9,W,D,S*58
$GPHDT,65.231,T*06
$GPGGA,051206.45,4006.71026421,N,11617.36032695,E,4,21,0.7,40.882,M,-8.542,M,0.4,3941*60
$GPRMC,051206.45,A,4006.71026421,N,11617.36032695,E,0.01,74.91,241017,6.9,W,D,S*61
$GPHDT,65.182,T*0D
$GPGGA,051206.50,4006.71026431,N,11617.36032722,E,4,21,0.7,40.883,M,-8.542,M,0.5,3941*68
$GPRMC,051206.50,A,4006.71026431,N,11617.36032722,E,0.02,24.67,241017,6.9,W,D,S*66
$GPHDT,65.185,T*0A
$GPGGA,051206.55,4006.71026400,N,11617.36032734,E,4,21,0.7,40.883,M,-8.542,M,0.5,3941*68
$GPRMC,051206.55,A,4006.71026400,N,11617.36032734,E,0.05,173.62,241017,6.9,W,D,S*57
$GPHDT,65.200,T*04
$GPGGA,051206.60,4006.71026363,N,11617.36032730,E,4,21,0.7,40.882,M,-8.542,M,0.6,3941*6A
$GPRMC,051206.60,A,4006.71026363,N,11617.36032730,E,0.00,239.32,241017,6.9,W,D,S*5A
$GPHDT,65.187,T*08
$GPGGA,051206.65,4006.71026363,N,11617.36032744,E,4,21,0.7,40.882,M,-8.542,M,0.7,3941*6D
$GPRMC,051206.65,A,4006.71026363,N,11617.36032744,E,0.02,55.54,241017,6.9,W,D,S*66
$GPHDT,65.206,T*02
$GPGGA,051206.70,4006.71026402,N,11617.36032747,E,4,21,0.7,40.882,M,-8.542,M,0.7,3941*6A
$GPRMC,051206.70,A,4006.71026402,N,11617.36032747,E,0.05,349.37,241017,6.9,W,D,S*5D
$GPHDT,65.170,T*00
$GPGGA,051206.75,4006.71026416,N,11617.36032694,E,4,21,0.7,40.883,M,-8.542,M,0.7,3941*64
$GPRMC,051206.75,A,4006.71026416,N,11617.36032694,E,0.05,251.16,241017,6.9,W,D,S*59
$GPHDT,65.207,T*03
$GPGGA,051206.80,4006.71026434,N,11617.36032683,E,4,21,0.7,40.882,M,-8.542,M,0.8,3941*66
$GPRMC,051206.80,A,4006.71026434,N,11617.36032683,E,0.05,41.74,241017,6.9,W,D,S*62
$GPHDT,65.195,T*0B
$GPGGA,051206.85,4006.71026445,N,11617.36032714,E,4,21,0.7,40.882,M,-8.542,M,0.8,3941*6A
$GPRMC,051206.85,A,4006.71026445,N,11617.36032714,E,0.01,182.60,241017,6.9,W,D,S*51
$GPHDT,65.195,T*0B
$GPGGA,051206.90,4006.71026477,N,11617.36032714,E,4,21,0.7,40.882,M,-8.542,M,0.9,3941*6E
$GPRMC,051206.90,A,4006.71026477,N,11617.36032714,E,0.06,6.40,241017,6.9,W,D,S*5C
$GPHDT,65.192,T*0C
$GPGGA,051206.95,4006.71026483,N,11617.36032716,E,4,21,0.7,40.882,M,-8.542,M,0.9,3941*62
$GPRMC,051206.95,A,4006.71026483,N,11617.36032716,E,0.04,179.30,241017,6.9,W,D,S*5C
$GPHDT,65.185,T*0A
$GPGGA,051207.00,4006.71026456,N,11617.36032717,E,4,21,0.7,40.882,M,-8.542,M,1.0,3941*6E
$GPRMC,051207.00,A,4006.71026456,N,11617.36032717,E,0.00,345.23,241017,6.9,W,D,S*53
$GPHDT,65.168,T*09
$GPGGA,051207.05,4006.71026456,N,11617.36032701,E,4,21,0.7,40.880,M,-8.542,M,1.0,3941*6E
$GPRMC,051207.05,A,4006.71026456,N,11617.36032701,E,0.01,246.29,241017,6.9,W,D,S*58
$GPHDT,65.220,T*06
$GPGGA,051207.10,4006.71026434,N,11617.36032702,E,4,21,0.7,40.882,M,-8.542,M,1.1,3941*6E
$GPRMC,051207.10,A,4006.71026434,N,11617.36032702,E,0.02,166.33,241017,6.9,W,D,S*52
$GPHDT,65.193,T*0D
$GPGGA,051207.15,4006.71026433,N,11617.36032712,E,4,21,0.7,40.881,M,-8.542,M,1.2,3941*6D
$GPRMC,051207.15,A,4006.71026433,N,11617.36032712,E,0.02,36.30,241017,6.9,W,D,S*66
$GPHDT,65.199,T*07
$GPGGA,051207.20,4006.71026472,N,11617.36032720,E,4,21,0.7,40.882,M,-8.542,M,1.2,3941*6C
$GPRMC,051207.20,A,4006.71026472,N,11617.36032720,E,0.04,355.68,241017,6.9,W,D,S*59
$GPHDT,65.170,T*00
$GPGGA,051207.25,4006.71026443,N,11617.36032715,E,4,21,0.7,40.881,M,-8.542,M,0.3,3941*6E
$GPRMC,051207.25,A,4006.71026443,N,11617.36032715,E,0.05,181.67,241017,6.9,W,D,S*5D
$GPHDT,65.169,T*08
$GPGGA,051207.30,4006.71026403,N,11617.36032727,E,4,21,0.7,40.880,M,-8.542,M,0.3,3941*6E
$GPRMC,051207.30,A,4006.71026403,N,11617.36032727,E,0.02,42.21,241017,6.9,W,D,S*67
$GPHDT,65.210,T*05
$GPGGA,051207.35,4006.71026406,N,11617.36032731,E,4,21,0.7,40.881,M,-8.542,M,0.3,3941*68
$GPRMC,051207.35,A,4006.71026406,N,11617.36032731,E,0.01,306.71,241017,6.9,W,D,S*55
$GPHDT,65.214,T*01
$GPGGA,051207.40,4006.71026408,N,11617.36032705,E,4,21,0.7,40.881,M,-8.542,M,0.4,3941*64
$GPRMC,051207.40,A,4006.71026408,N,11617.36032705,E,0.03,308.62,241017,6.9,W,D,S*50
$GPHDT,65.217,T*02
$GPGGA,051207.45,4006.71026412,N,11617.36032666,E,4,21,0.7,40.882,M,-8.542,M,0.4,3941*6D
$GPRMC,051207.45,A,4006.71026412,N,11617.36032666,E,0.02,270.38,241017,6.9,W,D,S*5A
$GPHDT,65.216,T*03
$GPGGA,051207.50,4006.71026417,N,11617.36032683,E,4,21,0.7,40.882,M,-8.542,M,0.5,3941*66
$GPRMC,051207.50,A,4006.71026417,N,11617.36032683,E,0.04,62.12,241017,6.9,W,D,S*6F
$GPHDT,65.191,T*0F
$GPGGA,051207.55,4006.71026431,N,11617.36032751,E,4,21,0.7,40.881,M,-8.542,M,0.5,3941*6A
$GPRMC,051207.55,A,4006.71026431,N,11617.36032751,E,0.05,86.79,241017,6.9,W,D,S*66
$GPHDT,65.162,T*03
$GPGGA,051207.60,4006.71026416,N,11617.36032760,E,4,21,0.7,40.880,M,-8.542,M,0.6,3941*69
$GPRMC,051207.60,A,4006.71026416,N,11617.36032760,E,0.04,251.08,241017,6.9,W,D,S*58
$GPHDT,65.163,T*02
$GPGGA,051207.65,4006.71026390,N,11617.36032736,E,4,21,0.7,40.880,M,-8.542,M,0.6,3941*66
$GPRMC,051207.65,A,4006.71026390,N,11617.36032736,E,0.02,164.30,241017,6.9,W,D,S*5F
$GPHDT,65.174,T*04
$GPGGA,051207.70,4006.71026369,N,11617.36032725,E,4,21,0.7,40.880,M,-8.542,M,0.7,3941*67
$GPRMC,051207.70,A,4006.71026369,N,11617.36032725,E,0.02,249.87,241017,6.9,W,D,S*5F
$GPHDT,65.161,T*00
$GPGGA,051207.75,4006.71026353,N,11617.36032692,E,4,21,0.7,40.880,M,-8.542,M,0.8,3941*69
$GPRMC,051207.75,A,4006.71026353,N,11617.36032692,E,0.02,229.97,241017,6.9,W,D,S*59
$GPHDT,65.177,T*07
$GPGGA,051207.80,4006.71026334,N,11617.36032665,E,4,21,0.7,40.881,M,-8.542,M,0.8,3941*6B
$GPRMC,051207.80,A,4006.71026334,N,11617.36032665,E,0.02,230.68,241017,6.9,W,D,S*52
$GPHDT,65.206,T*02
$GPGGA,051207.85,4006.71026370,N,11617.36032688,E,4,21,0.7,40.880,M,-8.542,M,0.9,3941*6D
$GPRMC,051207.85,A,4006.71026370,N,11617.36032688,E,0.06,34.86,241017,6.9,W,D,S*66
$GPHDT,65.172,T*02
$GPGGA,051207.90,4006.71026415,N,11617.36032721,E,4,21,0.7,40.879,M,-8.542,M,0.9,3941*69
$GPRMC,051207.90,A,4006.71026415,N,11617.36032721,E,0.01,0.21,241017,6.9,W,D,S*59
$GPHDT,65.165,T*04
$GPGGA,051207.95,4006.71026427,N,11617.36032697,E,4,21,0.7,40.880,M,-8.542,M,0.9,3941*67
$GPRMC,051207.95,A,4006.71026427,N,11617.36032697,E,0.03,289.23,241017,6.9,W,D,S*52
$GPHDT,65.208,T*0C
$GPGGA,051208.00,4006.71026417,N,11617.36032680,E,4,21,0.7,40.882,M,-8.542,M,1.0,3941*6B
$GPRMC,051208.00,A,4006.71026417,N,11617.36032680,E,0.03,158.04,241017,6.9,W,D,S*5E
$GPHDT,65.200,T*04
$GPGGA,051208.05,4006.71026409,N,11617.36032700,E,4,21,0.7,40.881,M,-8.542,M,1.0,3941*6B
$GPRMC,051208.05,A,4006.71026409,N,11617.36032700,E,0.01,63.34,241017,6.9,W,D,S*65
$GPHDT,65.221,T*07
$GPGGA,051208.10,4006.71026439,N,11617.36032678,E,4,21,0.7,40.880,M,-8.542,M,1.1,3941*62
$GPRMC,051208.10,A,4006.71026439,N,11617.36032678,E,0.04,314.09,241017,6.9,W,D,S*54
$GPHDT,65.176,T*06
$GPGGA,051208.15,4006.71026444,N,11617.36032652,E,4,21,0.7,40.881,M,-8.542,M,1.1,3941*64
$GPRMC,051208.15,A,4006.71026444,N,11617.36032652,E,0.02,219.30,241017,6.9,W,D,S*53
$GPHDT,65.224,T*02
$GPGGA,051208.20,4006.71026478,N,11617.36032669,E,4,21,0.7,40.880,M,-8.542,M,1.2,3941*67
$GPRMC,051208.20,A,4006.71026478,N,11617.36032669,E,0.06,26.63,241017,6.9,W,D,S*6E
$GPHDT,65.194,T*0A
$GPGGA,051208.25,4006.71026461,N,11617.36032657,E,4,21,0.7,40.881,M,-8.542,M,0.3,3941*66
$GPRMC,051208.25,A,4006.71026461,N,11617.36032657,E,0.06,229.45,241017,6.9,W,D,S*57
$GPHDT,65.174,T*04
$GPGGA,051208.30,4006.71026455,N,11617.36032616,E,4,21,0.7,40.881,M,-8.542,M,0.3,3941*60
$GPRMC,051208.30,A,4006.71026455,N,11617.36032616,E,0.05,356.83,241017,6.9,W,D,S*51
$GPHDT,65.183,T*0C
$GPGGA,051208.35,4006.71026451,N,11617.36032611,E,4,21,0.7,40.881,M,-8.542,M,0.4,3941*61
$GPRMC,051208.35,A,4006.71026451,N,11617.36032611,E,0.03,204.05,241017,6.9,W,D,S*59
$GPHDT,65.203,T*07
$GPGGA,051208.40,4006.71026445,N,11617.36032613,E,4,21,0.7,40.882,M,-8.542,M,0.4,3941*67
$GPRMC,051208.40,A,4006.71026445,N,11617.36032613,E,0.03,13.22,241017,6.9,W,D,S*6D
$GPHDT,65.197,T*09
$GPGGA,051208.45,4006.71026432,N,11617.36032620,E,4,21,0.7,40.882,M,-8.542,M,0.4,3941*62
$GPRMC,051208.45,A,4006.71026432,N,11617.36032620,E,0.03,187.23,241017,6.9,W,D,S*55
$GPHDT,65.221,T*07
$GPGGA,051208.50,4006.71026421,N,11617.36032620,E,4,21,0.7,40.882,M,-8.542,M,0.5,3941*65
$GPRMC,051208.50,A,4006.71026421,N,11617.36032620,E,0.02,354.74,241017,6.9,W,D,S*5C
$GPHDT,65.212,T*07
$GPGGA,051208.55,4006.71026452,N,11617.36032618,E,4,21,0.7,40.881,M,-8.542,M,0.5,3941*6C
$GPRMC,051208.55,A,4006.71026452,N,11617.36032618,E,0.03,357.49,241017,6.9,W,D,S*5A
$GPHDT,65.231,T*06
$GPGGA,051208.60,4006.71026432,N,11617.36032654,E,4,21,0.7,40.882,M,-8.542,M,0.6,3941*64
$GPRMC,051208.60,A,4006.71026432,N,11617.36032654,E,0.05,140.49,241017,6.9,W,D,S*50
$GPHDT,65.207,T*03
$GPGGA,051208.65,4006.71026403,N,11617.36032673,E,4,21,0.7,40.883,M,-8.542,M,0.6,3941*67
$GPRMC,051208.65,A,4006.71026403,N,11617.36032673,E,0.01,289.29,241017,6.9,W,D,S*56
$GPHDT,65.206,T*02
$GPGGA,051208.70,4006.71026409,N,11617.36032656,E,4,21,0.7,40.881,M,-8.542,M,0.7,3941*6D
$GPRMC,051208.70,A,4006.71026409,N,11617.36032656,E,0.00,340.00,241017,6.9,W,D,S*51
$GPHDT,65.223,T*05
$GPGGA,051208.75,4006.71026397,N,11617.36032643,E,4,21,0.7,40.882,M,-8.542,M,0.7,3941*6F
$GPRMC,051208.75,A,4006.71026397,N,11617.36032643,E,0.02,241.43,241017,6.9,W,D,S*55
$GPHDT,65.162,T*03
$GPGGA,051208.80,4006.71026383,N,11617.36032672,E,4,21,0.7,40.882,M,-8.542,M,0.8,3941*6D
$GPRMC,051208.80,A,4006.71026383,N,11617.36032672,E,0.04,89.96,241017,6.9,W,D,S*60
$GPHDT,65.236,T*01
$GPGGA,051208.85,4006.71026401,N,11617.36032642,E,4,21,0.7,40.880,M,-8.542,M,0.9,3941*65
$GPRMC,051208.85,A,4006.71026401,N,11617.36032642,E,0.07,287.41,241017,6.9,W,D,S*5E
$GPHDT,65.224,T*02
$GPGGA,051208.90,4006.71026381,N,11617.36032613,E,4,21,0.7,40.882,M,-8.542,M,0.9,3941*68
$GPRMC,051208.90,A,4006.71026381,N,11617.36032613,E,0.04,151.12,241017,6.9,W,D,S*5C
$GPHDT,65.238,T*0F
$GPGGA,051208.95,4006.71026370,N,11617.36032608,E,4,21,0.7,40.880,M,-8.542,M,1.0,3941*63
$GPRMC,051208.95,A,4006.71026370,N,11617.36032608,E,0.02,299.51,241017,6.9,W,D,S*5B
$GPHDT,65.206,T*02
$GPGGA,051209.00,4006.71026372,N,11617.36032631,E,4,21,0.7,40.880,M,-8.542,M,1.0,3941*66
$GPRMC,051209.00,A,4006.71026372,N,11617.36032631,E,0.03,86.83,241017,6.9,W,D,S*6C
$GPHDT,65.209,T*0D
$GPGGA,051209.05,4006.71026369,N,11617.36032620,E,4,21,0.7,40.880,M,-8.542,M,1.0,3941*69
$GPRMC,051209.05,A,4006.71026369,N,11617.36032620,E,0.04,269.71,241017,6.9,W,D,S*5A
$GPHDT,65.193,T*0D
$GPGGA,051209.10,4006.71026356,N,11617.36032598,E,4,21,0.7,40.880,M,-8.542,M,1.1,3941*60
$GPRMC,051209.10,A,4006.71026356,N,11617.36032598,E,0.01,163.16,241017,6.9,W,D,S*5F
$GPHDT,65.205,T*01
$GPGGA,051209.15,4006.71026366,N,11617.36032623,E,4,21,0.7,40.880,M,-8.542,M,1.1,3941*65
$GPRMC,051209.15,A,4006.71026366,N,11617.36032623,E,0.03,37.56,241017,6.9,W,D,S*6C
$GPHDT,65.188,T*07
$GPGGA,051209.20,4006.71026388,N,11617.36032577,E,4,21,0.7,40.880,M,-8.542,M,1.2,3941*62
$GPRMC,051209.20,A,4006.71026388,N,11617.36032577,E,0.06,275.37,241017,6.9,W,D,S*5E
$GPHDT,65.231,T*06
$GPGGA,051209.25,4006.71026361,N,11617.36032570,E,4,21,0.7,40.881,M,-8.542,M,0.2,3941*67
$GPRMC,051209.25,A,4006.71026361,N,11617.36032570,E,0.05,110.95,241017,6.9,W,D,S*50
$GPHDT,65.169,T*08
$GPGGA,051209.30,4006.71026353,N,11617.36032586,E,4,21,0.7,40.880,M,-8.542,M,0.3,3941*6B
$GPRMC,051209.30,A,4006.71026353,N,11617.36032586,E,0.02,306.06,241017,6.9,W,D,S*54
$GPHDT,65.220,T*06
$GPGGA,051209.35,4006.71026325,N,11617.36032608,E,4,21,0.7,40.881,M,-8.542,M,0.3,3941*6B
$GPRMC,051209.35,A,4006.71026325,N,11617.36032608,E,0.05,127.92,241017,6.9,W,D,S*5E
$GPHDT,65.224,T*02
$GPGGA,051209.40,4006.71026311,N,11617.36032611,E,4,21,0.7,40.880,M,-8.542,M,0.4,3941*60
$GPRMC,051209.40,A,4006.71026311,N,11617.36032611,E,0.02,293.19,241017,6.9,W,D,S*5B
$GPHDT,65.173,T*03
$GPGGA,051209.45,4006.71026299,N,11617.36032578,E,4,21,0.7,40.880,M,-8.542,M,0.5,3941*69
$GPRMC,051209.45,A,4006.71026299,N,11617.36032578,E,0.02,239.57,241017,6.9,W,D,S*59
$GPHDT,65.200,T*04
$GPGGA,051209.50,4006.71026302,N,11617.36032575,E,4,21,0.7,40.879,M,-8.542,M,0.5,3941*65
$GPRMC,051209.50,A,4006.71026302,N,11617.36032575,E,0.02,44.06,241017,6.9,W,D,S*6F
$GPHDT,65.214,T*01
$GPGGA,051209.55,4006.71026302,N,11617.36032569,E,4,21,0.7,40.881,M,-8.542,M,0.5,3941*6A
$GPRMC,051209.55,A,4006.71026302,N,11617.36032569,E,0.02,276.54,241017,6.9,W,D,S*53
$GPHDT,65.165,T*04
$GPGGA,051209.60,4006.71026292,N,11617.36032546,E,4,21,0.7,40.881,M,-8.542,M,0.6,3941*6A
$GPRMC,051209.60,A,4006.71026292,N,11617.36032546,E,0.01,188.98,241017,6.9,W,D,S*51
$GPHDT,65.205,T*01
$GPGGA,051209.65,4006.71026278,N,11617.36032557,E,4,21,0.7,40.881,M,-8.542,M,0.6,3941*6B
$GPRMC,051209.65,A,4006.71026278,N,11617.36032557,E,0.02,127.69,241017,6.9,W,D,S*58
$GPHDT,65.192,T*0C
$GPGGA,051209.70,4006.71026286,N,11617.36032572,E,4,21,0.7,40.881,M,-8.542,M,0.7,3941*68
$GPRMC,051209.70,A,4006.71026286,N,11617.36032572,E,0.02,6.73,241017,6.9,W,D,S*53
$GPHDT,65.177,T*07
$GPGGA,051209.75,4006.71026269,N,11617.36032595,E,4,21,0.7,40.881,M,-8.542,M,0.7,3941*65
$GPRMC,051209.75,A,4006.71026269,N,11617.36032595,E,0.04,148.99,241017,6.9,W,D,S*57
$GPHDT,65.200,T*04
$GPGGA,051209.80,4006.71026251,N,11617.36032566,E,4,21,0.7,40.880,M,-8.542,M,0.8,3941*66
$GPRMC,051209.80,A,4006.71026251,N,11617.36032566,E,0.05,279.48,241017,6.9,W,D,S*56
$GPHDT,65.209,T*0D
$GPGGA,051209.85,4006.71026286,N,11617.36032561,E,4,21,0.7,40.881,M,-8.542,M,0.8,3941*6F
$GPRMC,051209.85,A,4006.71026286,N,11617.36032561,E,0.06,34.69,241017,6.9,W,D,S*65
$GPHDT,65.217,T*02
$GPGGA,051209.90,4006.71026302,N,11617.36032583,E,4,21,0.7,40.881,M,-8.542,M,0.9,3941*6B
$GPRMC,051209.90,A,4006.71026302,N,11617.36032583,E,0.02,198.96,241017,6.9,W,D,S*53
$GPHDT,65.223,T*05
$GPGGA,051209.95,4006.71026293,N,11617.36032591,E,4,21,0.7,40.881,M,-8.542,M,1.0,3941*6C
$GPRMC,051209.95,A,4006.71026293,N,11617.36032591,E,0.02,55.95,241017,6.9,W,D,S*6F
$GPHDT,65.210,T*05
$GPGGA,051210.00,4006.71026287,N,11617.36032617,E,4,21,0.7,40.882,M,-8.542,M,1.0,3941*63
$GPRMC,051210.00,A,4006.71026287,N,11617.36032617,E,0.02,130.47,241017,6.9,W,D,S*5E
$GPHDT,65.191,T*0F
$GPGGA,051210.05,4006.71026270,N,11617.36032606,E,4,21,0.7,40.882,M,-8.542,M,1.1,3941*6F
$GPRMC,051210.05,A,4006.71026270,N,11617.36032606,E,0.02,238.15,241017,6.9,W,D,S*5F
$GPHDT,65.203,T*07
$GPGGA,051210.10,4006.71026257,N,11617.36032580,E,4,21,0.7,40.882,M,-8.542,M,1.1,3941*63
$GPRMC,051210.10,A,4006.71026257,N,11617.36032580,E,0.00,242.29,241017,6.9,W,D,S*53
$GPHDT,65.245,T*05
$GPGGA,051210.15,4006.71026256,N,11617.36032564,E,4,21,0.7,40.882,M,-8.542,M,1.1,3941*6D
$GPRMC,051210.15,A,4006.71026256,N,11617.36032564,E,0.01,269.55,241017,6.9,W,D,S*5E
$GPHDT,65.214,T*01
$GPGGA,051210.20,4006.71026239,N,11617.36032586,E,4,21,0.7,40.882,M,-8.542,M,1.2,3941*6D
$GPRMC,051210.20,A,4006.71026239,N,11617.36032586,E,0.03,116.80,241017,6.9,W,D,S*5C
$GPHDT,65.187,T*08
$GPGGA,051210.25,4006.71026256,N,11617.36032595,E,4,21,0.7,40.882,M,-8.542,M,0.2,3941*62
$GPRMC,051210.25,A,4006.71026256,N,11617.36032595,E,0.04,335.83,241017,6.9,W,D,S*55
$GPHDT,65.199,T*07
$GPGGA,051210.30,4006.71026298,N,11617.36032590,E,4,21,0.7,40.883,M,-8.542,M,0.3,3941*61
$GPRMC,051210.30,A,4006.71026298,N,11617.36032590,E,0.03,22.02,241017,6.9,W,D,S*6D
$GPHDT,65.230,T*07
$GPGGA,051210.35,4006.71026340,N,11617.36032614,E,4,21,0.7,40.882,M,-8.542,M,0.3,3941*6E
$GPRMC,051210.35,A,4006.71026340,N,11617.36032614,E,0.04,26.40,241017,6.9,W,D,S*66
$GPHDT,65.213,T*06
$GPGGA,051210.40,4006.71026327,N,11617.36032607,E,4,21,0.7,40.883,M,-8.542,M,0.4,3941*69
$GPRMC,051210.40,A,4006.71026327,N,11617.36032607,E,0.05,207.09,241017,6.9,W,D,S*5A
$GPHDT,65.184,T*0B
$GPGGA,051210.45,4006.71026285,N,11617.36032617,E,4,21,0.7,40.884,M,-8.542,M,0.4,3941*63
$GPRMC,051210.45,A,4006.71026285,N,11617.36032617,E,0.03,102.22,241017,6.9,W,D,S*5E
$GPHDT,65.215,T*00
$GPGGA,051210.50,4006.71026253,N,11617.36032577,E,4,21,0.7,40.883,M,-8.542,M,0.5,3941*6F
$GPRMC,051210.50,A,4006.71026253,N,11617.36032577,E,0.07,240.17,241017,6.9,W,D,S*53
$GPHDT,65.243,T*03
$GPGGA,051210.55,4006.71026273,N,11617.36032551,E,4,21,0.7,40.884,M,-8.542,M,0.6,3941*68
$GPRMC,051210.55,A,4006.71026273,N,11617.36032551,E,0.07,17.75,241017,6.9,W,D,S*64
$GPHDT,65.184,T*0B
$GPGGA,051210.60,4006.71026281,N,11617.36032569,E,4,21,0.7,40.884,M,-8.542,M,0.6,3941*68
$GPRMC,051210.60,A,4006.71026281,N,11617.36032569,E,0.05,183.83,241017,6.9,W,D,S*53
$GPHDT,65.218,T*0D
$GPGGA,051210.65,4006.71026270,N,11617.36032585,E,4,21,0.7,40.884,M,-8.542,M,0.7,3941*60
$GPRMC,051210.65,A,4006.71026270,N,11617.36032585,E,0.04,20.53,241017,6.9,W,D,S*6E
$GPHDT,65.173,T*03
$GPGGA,051210.70,4006.71026292,N,11617.36032597,E,4,21,0.7,40.885,M,-8.542,M,0.7,3941*6A
$GPRMC,051210.70,A,4006.71026292,N,11617.36032597,E,0.01,331.07,241017,6.9,W,D,S*52
$GPHDT,65.247,T*07
$GPGGA,051210.75,4006.71026332,N,11617.36032617,E,4,21,0.7,40.884,M,-8.542,M,0.7,3941*6E
$GPRMC,051210.75,A,4006.71026332,N,11617.36032617,E,0.05,29.95,241017,6.9,W,D,S*62
$GPHDT,65.238,T*0F
$GPGGA,051210.80,4006.71026301,N,11617.36032613,E,4,21,0.7,40.884,M,-8.542,M,0.8,3941*6F
$GPRMC,051210.80,A,4006.71026301,N,11617.36032613,E,0.07,209.42,241017,6.9,W,D,S*54
$GPHDT,65.205,T*01
$GPGGA,051210.85,4006.71026285,N,11617.36032577,E,4,21,0.7,40.886,M,-8.542,M,0.8,3941*64
$GPRMC,051210.85,A,4006.71026285,N,11617.36032577,E,0.04,348.78,241017,6.9,W,D,S*53
$GPHDT,65.213,T*06
$GPGGA,051210.90,4006.71026312,N,11617.36032620,E,4,21,0.7,40.885,M,-8.542,M,0.9,3941*6C
$GPRMC,051210.90,A,4006.71026312,N,11617.36032620,E,0.05,89.68,241017,6.9,W,D,S*67
$GPHDT,65.211,T*04
$GPGGA,051210.95,4006.71026301,N,11617.36032625,E,4,21,0.7,40.886,M,-8.542,M,0.9,3941*6D
$GPRMC,051210.95,A,4006.71026301,N,11617.36032625,E,0.05,264.73,241017,6.9,W,D,S*5E
$GPHDT,65.221,T*07
$GPGGA,051211.00,4006.71026273,N,11617.36032608,E,4,21,0.7,40.886,M,-8.542,M,1.0,3941*63
$GPRMC,051211.00,A,4006.71026273,N,11617.36032608,E,0.03,144.94,241017,6.9,W,D,S*56
$GPHDT,65.214,T*01
$GPGGA,051211.05,4006.71026265,N,11617.36032615,E,4,21,0.7,40.886,M,-8.542,M,1.0,3941*6D
$GPRMC,051211.05,A,4006.71026265,N,11617.36032615,E,0.02,316.03,241017,6.9,W,D,S*52
$GPHDT,65.243,T*03
$GPGGA,051211.10,4006.71026244,N,11617.36032594,E,4,21,0.7,40.887,M,-8.542,M,1.1,3941*60
$GPRMC,051211.10,A,4006.71026244,N,11617.36032594,E,0.05,201.75,241017,6.9,W,D,S*5E
$GPHDT,65.173,T*03
$GPGGA,051211.15,4006.71026232,N,11617.36032586,E,4,21,0.7,40.886,M,-8.542,M,1.2,3941*65
$GPRMC,051211.15,A,4006.71026232,N,11617.36032586,E,0.02,27.96,241017,6.9,W,D,S*65
$GPHDT,65.203,T*07
$GPGGA,051211.20,4006.71026241,N,11617.36032627,E,4,21,0.7,40.886,M,-8.542,M,1.2,3941*6F
$GPRMC,051211.20,A,4006.71026241,N,11617.36032627,E,0.03,100.66,241017,6.9,W,D,S*55
$GPHDT,65.223,T*05
$GPGGA,051211.25,4006.71026228,N,11617.36032622,E,4,21,0.7,40.886,M,-8.542,M,0.2,3941*61
$GPRMC,051211.25,A,4006.71026228,N,11617.36032622,E,0.03,241.24,241017,6.9,W,D,S*5A
$GPHDT,65.184,T*0B
$GPGGA,051211.30,4006.71026283,N,11617.36032591,E,4,21,0.7,40.885,M,-8.542,M,0.3,3941*6D
$GPRMC,051211.30,A,4006.71026283,N,11617.36032591,E,0.08,358.33,241017,6.9,W,D,S*50
$GPHDT,65.197,T*09
$GPGGA,051211.35,4006.71026312,N,11617.36032594,E,4,21,0.7,40.885,M,-8.542,M,0.3,3941*64
$GPRMC,051211.35,A,4006.71026312,N,11617.36032594,E,0.03,180.49,241017,6.9,W,D,S*58
$GPHDT,65.255,T*04
$GPGGA,051211.40,4006.71026314,N,11617.36032590,E,4,21,0.7,40.884,M,-8.542,M,0.4,3941*62
$GPRMC,051211.40,A,4006.71026314,N,11617.36032590,E,0.02,340.93,241017,6.9,W,D,S*50
$GPHDT,65.233,T*04
$GPGGA,051211.45,4006.71026295,N,11617.36032576,E,4,21,0.7,40.884,M,-8.542,M,0.4,3941*67
$GPRMC,051211.45,A,4006.71026295,N,11617.36032576,E,0.04,188.97,241017,6.9,W,D,S*51
$GPHDT,65.167,T*06
$GPGGA,051211.50,4006.71026249,N,11617.36032550,E,4,21,0.7,40.884,M,-8.542,M,0.5,3941*67
$GPRMC,051211.50,A,4006.71026249,N,11617.36032550,E,0.03,230.45,241017,6.9,W,D,S*58
$GPHDT,65.255,T*04
$GPGGA,051211.55,4006.71026187,N,11617.36032540,E,4,21,0.7,40.884,M,-8.542,M,0.5,3941*62
$GPRMC,051211.55,A,4006.71026187,N,11617.36032540,E,0.06,173.09,241017,6.9,W,D,S*54
$GPHDT,65.247,T*07
$GPGGA,051211.60,4006.71026133,N,11617.36032478,E,4,21,0.7,40.883,M,-8.542,M,0.6,3941*65
$GPRMC,051211.60,A,4006.71026133,N,11617.36032478,E,0.07,253.91,241017,6.9,W,D,S*56
$GPHDT,65.231,T*06
$GPGGA,051211.65,4006.71026129,N,11617.36032408,E,4,21,0.7,40.882,M,-8.542,M,0.7,3941*6C
$GPRMC,051211.65,A,4006.71026129,N,11617.36032408,E,0.02,305.24,241017,6.9,W,D,S*56
$GPHDT,65.274,T*07
$GPGGA,051211.70,4006.71026144,N,11617.36032390,E,4,21,0.7,40.883,M,-8.542,M,0.7,3941*64
$GPRMC,051211.70,A,4006.71026144,N,11617.36032390,E,0.02,314.88,241017,6.9,W,D,S*59
$GPHDT,65.275,T*06
$GPGGA,051211.75,4006.71026208,N,11617.36032351,E,4,21,0.7,40.883,M,-8.542,M,0.8,3941*68
$GPRMC,051211.75,A,4006.71026208,N,11617.36032351,E,0.07,338.96,241017,6.9,W,D,S*5E
$GPHDT,65.190,T*0E
$GPGGA,051211.80,4006.71026276,N,11617.36032275,E,4,21,0.7,40.882,M,-8.542,M,0.8,3941*6D
$GPRMC,051211.80,A,4006.71026276,N,11617.36032275,E,0.06,297.40,241017,6.9,W,D,S*54
$GPHDT,65.224,T*02
$GPGGA,051211.85,4006.71026306,N,11617.36032236,E,4,21,0.7,40.883,M,-8.542,M,0.8,3941*68
$GPRMC,051211.85,A,4006.71026306,N,11617.36032236,E,0.02,2.04,241017,6.9,W,D,S*5A
$GPHDT,65.243,T*03
$GPGGA,051211.90,4006.71026291,N,11617.36032261,E,4,21,0.7,40.883,M,-8.542,M,0.9,3941*60
$GPRMC,051211.90,A,4006.71026291,N,11617.36032261,E,0.04,143.29,241017,6.9,W,D,S*5E
$GPHDT,65.250,T*01
$GPGGA,051211.95,4006.71026249,N,11617.36032327,E,4,21,0.7,40.883,M,-8.542,M,0.9,3941*63
$GPRMC,051211.95,A,4006.71026249,N,11617.36032327,E,0.04,122.18,241017,6.9,W,D,S*58
$GPHDT,65.243,T*03
$GPGGA,051212.00,4006.71026230,N,11617.36032383,E,4,21,0.7,40.882,M,-8.542,M,1.0,3941*65
$GPRMC,051212.00,A,4006.71026230,N,11617.36032383,E,0.02,94.83,241017,6.9,W,D,S*6F
$GPHDT,65.228,T*0E
$GPGGA,051212.05,4006.71026177,N,11617.36032395,E,4,21,0.7,40.883,M,-8.542,M,1.0,3941*66
$GPRMC,051212.05,A,4006.71026177,N,11617.36032395,E,0.06,191.28,241017,6.9,W,D,S*5C
$GPHDT,65.221,T*07
$GPGGA,051212.10,4006.71026187,N,11617.36032382,E,4,21,0.7,40.882,M,-8.542,M,1.1,3941*6B
$GPRMC,051212.10,A,4006.71026187,N,11617.36032382,E,0.06,355.44,241017,6.9,W,D,S*51
$GPHDT,65.218,T*0D
$GPGGA,051212.15,4006.71026260,N,11617.36032377,E,4,21,0.7,40.883,M,-8.542,M,1.1,3941*6F
$GPRMC,051212.15,A,4006.71026260,N,11617.36032377,E,0.05,347.71,241017,6.9,W,D,S*52
$GPHDT,65.262,T*00
$GPGGA,051212.20,4006.71026316,N,11617.36032361,E,4,21,0.7,40.884,M,-8.542,M,1.2,3941*6A
$GPRMC,051212.20,A,4006.71026316,N,11617.36032361,E,0.03,344.54,241017,6.9,W,D,S*51
$GPHDT,65.211,T*04
$GPGGA,051212.25,4006.71026339,N,11617.36032363,E,4,21,0.7,40.883,M,-8.542,M,0.3,3941*67
$GPRMC,051212.25,A,4006.71026339,N,11617.36032363,E,0.02,82.44,241017,6.9,W,D,S*62
$GPHDT,65.248,T*08
$GPGGA,051212.30,4006.71026333,N,11617.36032332,E,4,21,0.7,40.882,M,-8.542,M,0.3,3941*6C
$GPRMC,051212.30,A,4006.71026333,N,11617.36032332,E,0.04,263.60,241017,6.9,W,D,S*55
$GPHDT,65.222,T*04
$GPGGA,051212.35,4006.71026280,N,11617.36032358,E,4,21,0.7,40.881,M,-8.542,M,0.4,3941*68
$GPRMC,051212.35,A,4006.71026280,N,11617.36032358,E,0.08,134.30,241017,6.9,W,D,S*5D
$GPHDT,65.279,T*0A
$GPGGA,051212.40,4006.71026230,N,11617.36032364,E,4,21,0.7,40.882,M,-8.542,M,0.4,3941*6D
$GPRMC,051212.40,A,4006.71026230,N,11617.36032364,E,0.05,265.79,241017,6.9,W,D,S*5C
$GPHDT,65.228,T*0E
$GPGGA,051212.45,4006.71026222,N,11617.36032320,E,4,21,0.7,40.882,M,-8.542,M,0.4,3941*6B
$GPRMC,051212.45,A,4006.71026222,N,11617.36032320,E,0.00,214.90,241017,6.9,W,D,S*5E
$GPHDT,65.274,T*07
$GPGGA,051212.50,4006.71026235,N,11617.36032330,E,4,21,0.7,40.881,M,-8.542,M,0.5,3941*6A
$GPRMC,051212.50,A,4006.71026235,N,11617.36032330,E,0.02,49.93,241017,6.9,W,D,S*66
$GPHDT,65.272,T*01
$GPGGA,051212.55,4006.71026250,N,11617.36032315,E,4,21,0.7,40.881,M,-8.542,M,0.5,3941*6B
$GPRMC,051212.55,A,4006.71026250,N,11617.36032315,E,0.03,282.75,241017,6.9,W,D,S*5B
$GPHDT,65.229,T*0F
$GPGGA,051212.60,4006.71026248,N,11617.36032282,E,4,21,0.7,40.882,M,-8.542,M,0.6,3941*6B
$GPRMC,051212.60,A,4006.71026248,N,11617.36032282,E,0.01,241.82,241017,6.9,W,D,S*5E
$GPHDT,65.267,T*05
$GPGGA,051212.65,4006.71026250,N,11617.36032277,E,4,21,0.7,40.881,M,-8.542,M,0.6,3941*6E
$GPRMC,051212.65,A,4006.71026250,N,11617.36032277,E,0.00,70.09,241017,6.9,W,D,S*6A
$GPHDT,65.221,T*07
$GPGGA,051212.70,4006.71026260,N,11617.36032299,E,4,21,0.7,40.882,M,-8.542,M,0.7,3941*6B
$GPRMC,051212.70,A,4006.71026260,N,11617.36032299,E,0.02,33.64,241017,6.9,W,D,S*63
$GPHDT,65.223,T*05
$GPGGA,051212.75,4006.71026276,N,11617.36032370,E,4,21,0.7,40.881,M,-8.542,M,0.8,3941*63
$GPRMC,051212.75,A,4006.71026276,N,11617.36032370,E,0.06,87.78,241017,6.9,W,D,S*61
$GPHDT,65.244,T*04
$GPGGA,051212.80,4006.71026278,N,11617.36032443,E,4,21,0.7,40.881,M,-8.542,M,0.8,3941*60
$GPRMC,051212.80,A,4006.71026278,N,11617.36032443,E,0.02,89.04,241017,6.9,W,D,S*63
$GPHDT,65.225,T*03
$GPGGA,051212.85,4006.71026256,N,11617.36032493,E,4,21,0.7,40.881,M,-8.542,M,0.9,3941*65
$GPRMC,051212.85,A,4006.71026256,N,11617.36032493,E,0.04,130.79,241017,6.9,W,D,S*58
$GPHDT,65.197,T*09
$GPGGA,051212.90,4006.71026285,N,11617.36032547,E,4,21,0.7,40.881,M,-8.542,M,0.9,3941*67
$GPRMC,051212.90,A,4006.71026285,N,11617.36032547,E,0.07,19.77,241017,6.9,W,D,S*6D
$GPHDT,65.180,T*0F
$GPGGA,051212.95,4006.71026375,N,11617.36032680,E,4,21,0.7,40.881,M,-8.542,M,0.9,3941*64
$GPRMC,051212.95,A,4006.71026375,N,11617.36032680,E,0.13,58.72,241017,6.9,W,D,S*6B
$GPHDT,65.270,T*03
$GPGGA,051213.00,4006.71026467,N,11617.36032868,E,4,21,0.7,40.881,M,-8.542,M,1.0,3941*6D
$GPRMC,051213.00,A,4006.71026467,N,11617.36032868,E,0.11,52.05,241017,6.9,W,D,S*62
$GPHDT,65.141,T*02
$GPGGA,051213.05,4006.71026567,N,11617.36033089,E,4,21,0.7,40.881,M,-8.542,M,1.0,3941*6F
$GPRMC,051213.05,A,4006.71026567,N,11617.36033089,E,0.16,60.95,241017,6.9,W,D,S*6F
$GPHDT,65.077,T*06
$GPGGA,051213.10,4006.71026706,N,11617.36033427,E,4,21,0.7,40.879,M,-8.542,M,1.1,3941*68
$GPRMC,051213.10,A,4006.71026706,N,11617.36033427,E,0.24,61.75,241017,6.9,W,D,S*60
$GPHDT,65.077,T*06
$GPGGA,051213.15,4006.71026840,N,11617.36033833,E,4,21,0.7,40.881,M,-8.542,M,1.1,3941*6E
$GPRMC,051213.15,A,4006.71026840,N,11617.36033833,E,0.23,66.42,241017,6.9,W,D,S*65
$GPHDT,64.999,T*0E
$GPGGA,051213.20,4006.71027018,N,11617.36034317,E,4,21,0.7,40.880,M,-8.542,M,1.2,3941*64
$GPRMC,051213.20,A,4006.71027018,N,11617.36034317,E,0.33,63.80,241017,6.9,W,D,S*67
$GPHDT,64.952,T*09
$GPGGA,051213.25,4006.71027233,N,11617.36034887,E,4,21,0.7,40.881,M,-8.542,M,0.2,3941*68
$GPRMC,051213.25,A,4006.71027233,N,11617.36034887,E,0.35,61.73,241017,6.9,W,D,S*63
$GPHDT,64.918,T*07
$GPGGA,051213.30,4006.71027516,N,11617.36035532,E,4,21,0.7,40.880,M,-8.542,M,0.3,3941*6E
$GPRMC,051213.30,A,4006.71027516,N,11617.36035532,E,0.45,58.17,241017,6.9,W,D,S*6A
$GPHDT,64.852,T*08
$GPGGA,051213.35,4006.71027819,N,11617.36036316,E,4,21,0.7,40.881,M,-8.542,M,0.4,3941*6C
$GPRMC,051213.35,A,4006.71027819,N,11617.36036316,E,0.50,65.85,241017,6.9,W,D,S*6F
$GPHDT,64.736,T*05
$GPGGA,051213.40,4006.71028145,N,11617.36037168,E,4,21,0.7,40.882,M,-8.542,M,0.4,3941*68
$GPRMC,051213.40,A,4006.71028145,N,11617.36037168,E,0.52,60.81,241017,6.9,W,D,S*6B
$GPHDT,64.618,T*08
$GPGGA,051213.45,4006.71028573,N,11617.36038085,E,4,21,0.7,40.880,M,-8.542,M,0.5,3941*62
$GPRMC,051213.45,A,4006.71028573,N,11617.36038085,E,0.61,57.17,241017,6.9,W,D,S*69
$GPHDT,64.487,T*0C
$GPGGA,051213.50,4006.71029072,N,11617.36039023,E,4,21,0.7,40.881,M,-8.542,M,0.5,3941*6F
$GPRMC,051213.50,A,4006.71029072,N,11617.36039023,E,0.61,53.47,241017,6.9,W,D,S*64
$GPHDT,64.462,T*07
$GPGGA,051213.55,4006.71029559,N,11617.36039999,E,4,21,0.7,40.882,M,-8.542,M,0.5,3941*6D
$GPRMC,051213.55,A,4006.71029559,N,11617.36039999,E,0.63,58.73,241017,6.9,W,D,S*6B
$GPHDT,64.294,T*08
$GPGGA,051213.60,4006.71030025,N,11617.36041025,E,4,21,0.7,40.882,M,-8.542,M,0.6,3941*6F
$GPRMC,051213.60,A,4006.71030025,N,11617.36041025,E,0.65,59.76,241017,6.9,W,D,S*68
$GPHDT,64.217,T*03
$GPGGA,051213.65,4006.71030451,N,11617.36041986,E,4,21,0.7,40.884,M,-8.542,M,0.6,3941*6B
$GPRMC,051213.65,A,4006.71030451,N,11617.36041986,E,0.56,58.30,241017,6.9,W,D,S*69
$GPHDT,64.151,T*02
$GPGGA,051213.70,4006.71030827,N,11617.36042846,E,4,21,0.7,40.885,M,-8.542,M,0.7,3941*6C
$GPRMC,051213.70,A,4006.71030827,N,11617.36042846,E,0.52,61.97,241017,6.9,W,D,S*6D
$GPHDT,64.022,T*07
$GPGGA,051213.75,4006.71031213,N,11617.36043693,E,4,21,0.7,40.885,M,-8.542,M,0.7,3941*62
$GPRMC,051213.75,A,4006.71031213,N,11617.36043693,E,0.55,57.34,241017,6.9,W,D,S*68
$GPHDT,63.956,T*0A
$GPGGA,051213.80,4006.71031635,N,11617.36044500,E,4,21,0.7,40.884,M,-8.542,M,0.8,3941*68
$GPRMC,051213.80,A,4006.71031635,N,11617.36044500,E,0.52,54.37,241017,6.9,W,D,S*6B
$GPHDT,63.896,T*07
$GPGGA,051213.85,4006.71031993,N,11617.36045261,E,4,21,0.7,40.885,M,-8.542,M,0.8,3941*6E
$GPRMC,051213.85,A,4006.71031993,N,11617.36045261,E,0.47,60.71,241017,6.9,W,D,S*6D
$GPHDT,63.843,T*0F
$GPGGA,051213.90,4006.71032333,N,11617.36045984,E,4,21,0.7,40.885,M,-8.542,M,0.9,3941*68
$GPRMC,051213.90,A,4006.71032333,N,11617.36045984,E,0.47,57.32,241017,6.9,W,D,S*69
$GPHDT,63.713,T*05
$GPGGA,051213.95,4006.71032651,N,11617.36046672,E,4,21,0.7,40.884,M,-8.542,M,1.0,3941*60
$GPRMC,051213.95,A,4006.71032651,N,11617.36046672,E,0.42,59.92,241017,6.9,W,D,S*69
$GPHDT,63.712,T*04
$GPGGA,051214.00,4006.71032943,N,11617.36047295,E,4,21,0.7,40.884,M,-8.542,M,1.0,3941*6B
$GPRMC,051214.00,A,4006.71032943,N,11617.36047295,E,0.40,57.15,241017,6.9,W,D,S*61
$GPHDT,63.612,T*05
$GPGGA,051214.05,4006.71033200,N,11617.36047891,E,4,21,0.7,40.885,M,-8.542,M,1.1,3941*6D
$GPRMC,051214.05,A,4006.71033200,N,11617.36047891,E,0.38,62.31,241017,6.9,W,D,S*68
$GPHDT,63.531,T*07
$GPGGA,051214.10,4006.71033439,N,11617.36048411,E,4,21,0.7,40.885,M,-8.542,M,1.1,3941*6E
$GPRMC,051214.10,A,4006.71033439,N,11617.36048411,E,0.31,56.51,241017,6.9,W,D,S*63
$GPHDT,63.501,T*04
$GPGGA,051214.15,4006.71033647,N,11617.36048876,E,4,21,0.7,40.885,M,-8.542,M,1.1,3941*6D
$GPRMC,051214.15,A,4006.71033647,N,11617.36048876,E,0.30,61.03,241017,6.9,W,D,S*62
$GPHDT,63.484,T*08
$GPGGA,051214.20,4006.71033857,N,11617.36049324,E,4,21,0.7,40.885,M,-8.542,M,1.2,3941*6A
$GPRMC,051214.20,A,4006.71033857,N,11617.36049324,E,0.29,56.17,241017,6.9,W,D,S*6F
$GPHDT,63.417,T*02
$GPGGA,051214.25,4006.71034047,N,11617.36049722,E,4,21,0.7,40.885,M,-8.542,M,0.2,3941*62
$GPRMC,051214.25,A,4006.71034047,N,11617.36049722,E,0.25,59.83,241017,6.9,W,D,S*68
$GPHDT,63.365,T*00
$GPGGA,051214.30,4006.71034218,N,11617.36050074,E,4,21,0.7,40.885,M,-8.542,M,0.3,3941*63
$GPRMC,051214.30,A,4006.71034218,N,11617.36050074,E,0.24,52.87,241017,6.9,W,D,S*66
$GPHDT,63.293,T*08
$GPGGA,051214.35,4006.71034386,N,11617.36050385,E,4,21,0.7,40.884,M,-8.542,M,0.3,3941*6C
$GPRMC,051214.35,A,4006.71034386,N,11617.36050385,E,0.21,58.58,241017,6.9,W,D,S*65
$GPHDT,63.261,T*05
$GPGGA,051214.40,4006.71034530,N,11617.36050725,E,4,21,0.7,40.883,M,-8.542,M,0.4,3941*6B
$GPRMC,051214.40,A,4006.71034530,N,11617.36050725,E,0.24,61.61,241017,6.9,W,D,S*67
$GPHDT,63.245,T*03
$GPGGA,051214.45,4006.71034655,N,11617.36051048,E,4,21,0.7,40.883,M,-8.542,M,0.5,3941*62
$GPRMC,051214.45,A,4006.71034655,N,11617.36051048,E,0.18,60.47,241017,6.9,W,D,S*65
$GPHDT,63.190,T*08
$GPGGA,051214.50,4006.71034751,N,11617.36051306,E,4,21,0.7,40.883,M,-8.542,M,0.5,3941*6A
$GPRMC,051214.50,A,4006.71034751,N,11617.36051306,E,0.16,65.49,241017,6.9,W,D,S*68
$GPHDT,63.181,T*08
$GPGGA,051214.55,4006.71034861,N,11617.36051557,E,4,21,0.7,40.882,M,-8.542,M,0.6,3941*63
$GPRMC,051214.55,A,4006.71034861,N,11617.36051557,E,0.18,55.57,241017,6.9,W,D,S*61
$GPHDT,63.116,T*06
$GPGGA,051214.60,4006.71035011,N,11617.36051819,E,4,21,0.7,40.881,M,-8.542,M,0.6,3941*6F
$GPRMC,051214.60,A,4006.71035011,N,11617.36051819,E,0.19,51.34,241017,6.9,W,D,S*6E
$GPHDT,63.054,T*01
$GPGGA,051214.65,4006.71035151,N,11617.36052143,E,4,21,0.7,40.881,M,-8.542,M,0.6,3941*6A
$GPRMC,051214.65,A,4006.71035151,N,11617.36052143,E,0.23,64.15,241017,6.9,W,D,S*67
$GPHDT,63.026,T*04
$GPGGA,051214.70,4006.71035311,N,11617.36052475,E,4,21,0.7,40.880,M,-8.542,M,0.7,3941*68
